id,name,state,county,country,level,population,latitude,longitude,wiki
1138,Angus,TX,Navarro County,,city-us,457,32.006,-96.433,2009
1140,Angus,MN,Polk County,,city-us,83,48.065,-96.695,1961
1136,Angus,WI,Barron County,,city-us,0,45.636,-91.603,403
1137,Angus,IA,Boone County,,city-us,0,41.883,-94.157,395
1139,Angus,NE,Nuckolls County,,city-us,0,40.282,-97.979,455
1141,Angus,OH,Seneca County,,city-us,0,41.197,-83.285,257