id,name,state,county,country,level,population,latitude,longitude,wiki
244,Advance,NC,Davie County,,city-us,1471,35.941,-80.409,3913
248,Advance,MO,Stoddard County,,city-us,1336,37.105,-89.911,6159
242,Advance,IN,Boone County,,city-us,508,39.996,-86.620,3529
243,Advance,MI,Charlevoix County,,city-us,340,45.219,-85.071,1026
245,Advance,OH,Fulton County,,city-us,0,41.641,-84.112,1129