id,name,state,county,country,level,population,latitude,longitude,wiki
2461,Barlow,KY,Ballard County,,city-us,653,37.052,-89.047,2215
2462,Barlow,OR,Clackamas County,,city-us,135,45.252,-122.721,3611
2460,Barlow,PA,Adams County,,city-us,0,39.757,-77.231,1302
2463,Barlow,ND,Foster County,,city-us,0,47.570,-99.138,325
2464,Barlow,OH,Washington County,,city-us,0,39.399,-81.665,424