id,name,state,county,country,level,population,latitude,longitude,wiki
484,Alden,NY,Erie County,,city-us,9755,42.907,-78.521,5518
491,Alden,WI,Polk County,,city-us,2966,45.253,-92.509,2053
48194,Alden,IL,McHenry County,,city-us,1275,42.454,-88.536,1250
487,Alden,IA,Hardin County,,city-us,748,42.520,-93.376,3872
485,Alden,MN,Freeborn County,,city-us,580,43.670,-93.576,3261
482,Alden,MI,Antrim County,,city-us,123,44.881,-85.276,1228
492,Alden,KS,Rice County,,city-us,120,38.242,-98.312,3507