id,name,state,county,country,level,population,latitude,longitude,wiki
2703,Battle Creek,MI,Calhoun County,,city-us,52335,42.321,-85.180,27696
2706,Battle Creek,NE,Madison County,,city-us,1168,41.999,-97.598,3611
2704,Battle Creek,IA,Ida County,,city-us,680,42.316,-95.599,4283
2705,Battle Creek,KS,Lincoln County,,city-us,36,39.169,-98.219,0
2707,Battle Creek,VA,Page County,,city-us,0,38.606,-78.586,237