id,name,state,county,country,level,population,latitude,longitude,wiki
4422,Blooming Grove,NY,Orange County,,city-us,18870,41.394,-74.183,4274
4423,Blooming Grove,PA,Pike County,,city-us,5545,41.358,-75.099,2406
4418,Blooming Grove,WI,Dane County,,city-us,1616,43.033,-89.316,2553
4421,Blooming Grove,TX,Navarro County,,city-us,878,32.092,-96.716,2132
4424,Blooming Grove,MN,Waseca County,,city-us,569,44.160,-93.457,1975
4419,Blooming Grove,IN,Franklin County,,city-us,0,39.502,-85.065,316
4420,Blooming Grove,OH,Morrow County,,city-us,0,40.708,-82.717,981