id,name,state,county,country,level,population,latitude,longitude,wiki
5188,Brewster,NY,Putnam County,,city-us,2509,41.397,-73.617,12259
5189,Brewster,OH,Stark County,,city-us,2109,40.707,-81.598,4055
5187,Brewster,WA,Okanogan County,,city-us,2011,48.096,-119.781,3700
5184,Brewster,MA,Barnstable County,,city-us,1410,41.760,-70.083,12029
5186,Brewster,MN,Nobles County,,city-us,503,43.699,-95.469,5783
5190,Brewster,KS,Thomas County,,city-us,290,39.367,-101.377,3738
5185,Brewster,NE,Blaine County,,city-us,8,41.939,-99.865,4226