id,name,state,county,country,level,population,latitude,longitude,wiki
6571,Calvin,MI,Cass County,,city-us,1996,41.856,-85.922,2829
6573,Calvin,OK,Hughes County,,city-us,319,34.968,-96.249,3758
6578,Calvin,LA,Winn Parish,,city-us,236,31.966,-92.776,1833
6575,Calvin,KS,Jewell County,,city-us,49,39.706,-98.215,682
6572,Calvin,ND,Cavalier County,,city-us,14,48.853,-98.935,2729
6570,Calvin,KY,Bell County,,city-us,0,36.722,-83.622,408
6574,Calvin,PA,Huntingdon County,,city-us,0,40.337,-78.027,217
6576,Calvin,VA,Lee County,,city-us,0,36.852,-82.942,259
6577,Calvin,WV,Nicholas County,,city-us,0,38.337,-80.714,214