id,name,state,county,country,level,population,latitude,longitude,wiki
7489,Cedar Springs,MI,Kent County,,city-us,3642,43.223,-85.551,4473
7487,Cedar Springs,GA,Early County,,city-us,37,31.184,-85.038,628
7485,Cedar Springs,KY,Allen County,,city-us,0,36.831,-86.107,192
7486,Cedar Springs,MO,Cedar County,,city-us,0,37.874,-93.894,311
7488,Cedar Springs,TX,Falls County,,city-us,0,31.178,-96.919,132
7490,Cedar Springs,OH,Preble County,,city-us,0,39.838,-84.794,260