id,name,state,county,country,level,population,latitude,longitude,wiki
8425,Cisco,TX,Eastland County,,city-us,3883,32.388,-98.979,7669
8428,Cisco,IL,Piatt County,,city-us,259,40.011,-88.726,1421
8426,Cisco,KY,Magoffin County,,city-us,0,37.852,-83.135,191
8427,Cisco,GA,Murray County,,city-us,0,34.951,-84.736,433
8429,Cisco,CA,Placer County,,city-us,0,39.302,-120.547,1040
8430,Cisco,WV,Ritchie County,,city-us,0,39.129,-81.284,87