id,name,state,county,country,level,population,latitude,longitude,wiki
856,Arthur,IL,Douglas County,,city-us,2227,39.714,-88.470,4325
859,Arthur,WI,Chippewa County,,city-us,783,45.060,-91.156,3628
858,Arthur,IA,Ida County,,city-us,223,42.335,-95.347,3282
854,Arthur,NE,Arthur County,,city-us,130,41.572,-101.692,6220
855,Arthur,TN,Claiborne County,,city-us,0,36.548,-83.671,1421
857,Arthur,NV,Elko County,,city-us,0,40.797,-115.191,748