id,name,state,county,country,level,population,latitude,longitude,wiki
914,Ashton,IL,Lee County,,city-us,953,41.866,-89.221,2108
913,Ashton,ID,Fremont County,,city-us,952,44.072,-111.448,13332
915,Ashton,IA,Osceola County,,city-us,447,43.311,-95.791,3302
916,Ashton,NE,Sherman County,,city-us,195,41.248,-98.794,3063
917,Ashton,SD,Spink County,,city-us,107,44.995,-98.498,3148
918,Ashton,KS,Sumner County,,city-us,0,37.083,-97.239,679