id,name,state,county,country,level,population,latitude,longitude,wiki
9960,Cornish,NH,Sullivan County,,city-us,1640,43.473,-72.312,8145
9962,Cornish,ME,York County,,city-us,1536,43.767,-70.809,6174
9957,Cornish,UT,Cache County,,city-us,275,41.975,-111.953,2001
9959,Cornish,MN,Sibley County,,city-us,239,44.502,-94.418,167
9958,Cornish,OK,Jefferson County,,city-us,111,34.159,-97.597,2676
9956,Cornish,MN,Aitkin County,,city-us,44,46.893,-93.282,167
9961,Cornish,CO,Weld County,,city-us,0,40.523,-104.413,510