id,name,state,county,country,level,population,latitude,longitude,wiki
11059,Darwin,,,Australia,city-international,136828,-12.438,130.841,46464
11056,Darwin,MN,Meeker County,,city-us,683,45.116,-94.447,2172
11055,Darwin,CA,Inyo County,,city-us,74,36.268,-117.592,5074
11053,Darwin,IL,Clark County,,city-us,0,39.283,-87.612,483
11054,Darwin,VA,Dickenson County,,city-us,0,37.100,-82.491,144
11057,Darwin,OH,Meigs County,,city-us,0,39.146,-82.024,499
11058,Darwin,OK,Pushmataha County,,city-us,0,34.248,-95.779,960