id,name,state,county,country,level,population,latitude,longitude,wiki
11076,Davenport,IA,Scott County,,city-us,101009,41.524,-90.578,38392
11074,Davenport,FL,Polk County,,city-us,10953,28.161,-81.602,5956
11071,Davenport,NY,Delaware County,,city-us,2957,42.454,-74.902,3138
11073,Davenport,WA,Lincoln County,,city-us,1740,47.654,-118.150,8667
11072,Davenport,OK,Lincoln County,,city-us,827,35.705,-96.765,1887
11075,Davenport,CA,Santa Cruz County,,city-us,688,37.012,-122.192,7380
11077,Davenport,NE,Thayer County,,city-us,313,40.313,-97.812,3988
11070,Davenport,ND,Cass County,,city-us,256,46.714,-97.070,3097
11069,Davenport,VA,Buchanan County,,city-us,0,37.101,-82.137,414