id,name,state,county,country,level,population,latitude,longitude,wiki
1102,Ava,MO,Douglas County,,city-us,2885,36.952,-92.660,5603
1104,Ava,NY,Oneida County,,city-us,679,43.414,-75.441,6173
7566,Eva,AL,Morgan County,,city-us,589,34.332,-86.759,5126
1103,Ava,IL,Jackson County,,city-us,546,37.888,-89.495,2392
7565,Eva,TN,Benton County,,city-us,63,36.065,-88.004,1451
7567,Eva,OK,Texas County,,city-us,0,36.798,-101.907,510