id,name,state,county,country,level,population,latitude,longitude,wiki
11374,Defiance,OH,Defiance County,,city-us,16971,41.284,-84.356,8414
11373,Defiance,PA,Bedford County,,city-us,403,40.161,-78.230,490
11376,Defiance,IA,Shelby County,,city-us,248,41.824,-95.343,3667
11377,Defiance,MO,St. Charles County,,city-us,159,38.632,-90.778,2202
11375,Defiance,KY,Perry County,,city-us,0,37.203,-83.092,91