id,name,state,county,country,level,population,latitude,longitude,wiki
13042,Edna,TX,Jackson County,,city-us,5944,28.979,-96.646,6475
13047,Edna,MN,Otter Tail County,,city-us,899,46.587,-95.691,1842
13048,Edna,CA,San Luis Obispo County,,city-us,393,35.204,-120.613,2723
13043,Edna,KS,Labette County,,city-us,383,37.060,-95.359,3775
13040,Edna,ND,Barnes County,,city-us,82,47.110,-98.267,1439
13041,Edna,AL,Choctaw County,,city-us,0,32.287,-88.074,258
13044,Edna,IA,Lyon County,,city-us,0,43.385,-96.094,417
13045,Edna,KY,Magoffin County,,city-us,0,37.793,-83.151,175
13046,Edna,WV,Monongalia County,,city-us,0,39.575,-80.054,89