id,name,state,county,country,level,population,latitude,longitude,wiki
13614,Ely,NV,White Pine County,,city-us,4002,39.247,-114.889,12422
13613,Ely,MN,St. Louis County,,city-us,3233,47.903,-91.867,24899
13609,Ely,IA,Linn County,,city-us,2346,41.874,-91.585,6601
13611,Ely,MI,Marquette County,,city-us,1918,46.419,-87.810,4493
13248,Eli,KY,Russell County,,city-us,0,37.044,-84.964,88
13249,Eli,WV,Wood County,,city-us,0,39.193,-81.648,176
13608,Ely,VA,Lee County,,city-us,0,36.769,-82.990,196
13610,Ely,MO,Marion County,,city-us,0,39.692,-91.633,378
13612,Ely,NJ,Monmouth County,,city-us,0,40.203,-74.387,515