id,name,state,county,country,level,population,latitude,longitude,wiki
13510,Elmer,NJ,Salem County,,city-us,1364,39.595,-75.170,10229
13506,Elmer,MI,Oscoda County,,city-us,1162,44.755,-84.170,161
13511,Elmer,MI,Sanilac County,,city-us,724,43.371,-82.935,2872
13507,Elmer,MN,Pipestone County,,city-us,231,43.912,-96.212,206
13504,Elmer,OK,Jackson County,,city-us,64,34.481,-99.351,1887
13505,Elmer,MO,Macon County,,city-us,52,39.957,-92.650,3128
13512,Elmer,MN,St. Louis County,,city-us,10,47.104,-92.777,431
13508,Elmer,PA,Potter County,,city-us,0,41.919,-77.623,187
13509,Elmer,LA,Rapides Parish,,city-us,0,31.133,-92.681,242