id,name,state,county,country,level,population,latitude,longitude,wiki
2486,Barnesville,GA,Lamar County,,city-us,6389,33.055,-84.156,7744
2482,Barnesville,OH,Belmont County,,city-us,3981,39.988,-81.177,5288
2484,Barnesville,MN,Clay County,,city-us,2786,46.652,-96.420,4475
2490,Barnesville,PA,Schuylkill County,,city-us,2078,40.815,-76.031,3171
2488,Barnesville,MD,Montgomery County,,city-us,144,39.221,-77.377,6155