id,name,state,county,country,level,population,latitude,longitude,wiki
16693,Gettysburg,PA,Adams County,,city-us,7392,39.831,-77.231,11354
16696,Gettysburg,SD,Potter County,,city-us,1117,45.012,-99.956,5222
16694,Gettysburg,OH,Darke County,,city-us,461,40.111,-84.495,5055
16695,Gettysburg,KS,Graham County,,city-us,67,39.407,-100.015,468
16697,Gettysburg,OH,Preble County,,city-us,0,39.841,-84.721,453