id,name,state,county,country,level,population,latitude,longitude,wiki
16788,Gill,MA,Franklin County,,city-us,1536,42.624,-72.509,4247
16787,Gill,ND,Cass County,,city-us,112,46.844,-97.364,0
16789,Gill,TX,Harrison County,,city-us,0,32.393,-94.341,168
16790,Gill,WV,Lincoln County,,city-us,0,38.088,-82.121,2765
16791,Gill,CO,Weld County,,city-us,0,40.454,-104.542,343