id,name,state,county,country,level,population,latitude,longitude,wiki
3180,Bell,CA,Los Angeles County,,city-us,32831,33.978,-118.187,18558
3213,Belle,MO,Maries County,,city-us,1384,38.285,-91.721,4084
3212,Belle,WV,Kanawha County,,city-us,1146,38.232,-81.538,3656
3178,Bell,FL,Gilchrist County,,city-us,525,29.756,-82.863,2793
3176,Bell,WI,Bayfield County,,city-us,360,46.775,-91.119,1793
3175,Bell,OK,Adair County,,city-us,328,35.718,-94.576,3276