id,name,state,county,country,level,population,latitude,longitude,wiki
17706,Grattan,MI,Kent County,,city-us,3817,43.078,-85.362,3350
17703,Graton,CA,Sonoma County,,city-us,1802,38.436,-122.870,5888
17707,Gratton,VA,Tazewell County,,city-us,1009,37.135,-81.414,114
17704,Grattan,NE,Holt County,,city-us,833,42.441,-98.664,246
17705,Grattan,MN,Itasca County,,city-us,10,47.818,-94.089,919