id,name,state,county,country,level,population,latitude,longitude,wiki
1707,Belleville,IL,St. Clair County,,city-us,41751,38.520,-89.984,12248
1704,Belleville,NJ,Essex County,,city-us,37774,40.793,-74.161,18090
1708,Belleville,MI,Wayne County,,city-us,3963,42.205,-83.485,5700
1703,Belleville,WI,Dane County,,city-us,2559,42.864,-89.540,4278
1706,Belleville,PA,Mifflin County,,city-us,1851,40.605,-77.726,2861
1705,Belleville,NY,Jefferson County,,city-us,334,43.783,-76.119,788
1710,Belleville,AR,Yell County,,city-us,312,35.093,-93.449,2284
1709,Belleville,WV,Wood County,,city-us,0,39.141,-81.736,5358