id,name,state,county,country,level,population,latitude,longitude,wiki
18545,Hamer,SC,Dillon County,,city-us,820,34.478,-79.331,701
18546,Hamer,OH,Highland County,,city-us,670,39.152,-83.742,1166
18633,Hammer,MN,Yellow Medicine County,,city-us,176,44.763,-96.278,1703
18547,Hamer,ID,Jefferson County,,city-us,88,43.927,-112.206,2680
18631,Hammer,ND,Ramsey County,,city-us,48,48.407,-98.906,0
18692,Hamre,MN,Beltrami County,,city-us,19,48.245,-95.382,2244
18548,Hamer,OH,Williams County,,city-us,0,41.628,-84.415,344
18632,Hammer,SD,Roberts County,,city-us,0,45.855,-97.021,277