id,name,state,county,country,level,population,latitude,longitude,wiki
20167,Hilton,NY,Monroe County,,city-us,5985,43.288,-77.793,3884
20169,Hilton,ND,Ward County,,city-us,60,47.986,-101.433,0
20164,Hilton,OK,Creek County,,city-us,0,36.010,-96.047,165
20165,Hilton,GA,Early County,,city-us,0,31.288,-85.065,694
20166,Hilton,MD,Howard County,,city-us,0,39.255,-76.821,828
20168,Hilton,KY,Perry County,,city-us,0,37.271,-83.176,116