id,name,state,county,country,level,population,latitude,longitude,wiki
21242,Imperial,CA,Imperial County,,city-us,21017,32.848,-115.569,9619
21243,Imperial,MO,Jefferson County,,city-us,5119,38.370,-90.378,4363
21240,Imperial,PA,Allegheny County,,city-us,2731,40.450,-80.245,1888
21241,Imperial,NE,Chase County,,city-us,2022,40.517,-101.643,4256
21245,Imperial,TX,Pecos County,,city-us,245,31.273,-102.693,3097
21244,Imperial,VA,Lee County,,city-us,0,36.842,-83.021,82
21246,Imperial,WV,Upshur County,,city-us,0,38.862,-80.204,171