id,name,state,county,country,level,population,latitude,longitude,wiki
21492,Iona,NJ,Gloucester County,,city-us,16380,39.599,-75.021,13335
21494,Iona,FL,Lee County,,city-us,13160,26.520,-81.964,2710
21491,Iona,ID,Bonneville County,,city-us,2885,43.526,-111.933,4778
21497,Iona,MN,Todd County,,city-us,503,46.070,-94.969,192
21496,Iona,MN,Murray County,,city-us,166,43.916,-95.784,3296
21493,Iona,IN,Knox County,,city-us,0,38.549,-87.472,234
21495,Iona,SD,Lyman County,,city-us,0,43.543,-99.425,227