id,name,state,county,country,level,population,latitude,longitude,wiki
22469,Justice,IL,Cook County,,city-us,12326,41.744,-87.838,2865
22472,Justice,OK,Rogers County,,city-us,1721,36.293,-95.567,2032
22471,Justice,WV,Mingo County,,city-us,474,37.589,-81.835,312
22470,Justice,NC,Franklin County,,city-us,0,36.059,-78.171,279
22474,Justus,OH,Stark County,,city-us,0,40.703,-81.580,398