id,name,state,county,country,level,population,latitude,longitude,wiki
24069,Laura,OH,Miami County,,city-us,401,39.995,-84.408,3323
24066,Laura,IN,Jasper County,,city-us,0,41.100,-87.067,220
24067,Laura,MO,Lewis County,,city-us,0,40.221,-91.602,264
24068,Laura,KY,Martin County,,city-us,0,37.726,-82.443,208
24070,Laura,IL,Peoria County,,city-us,0,40.921,-89.926,352
25701,Lorah,IA,Cass County,,city-us,0,41.470,-94.955,225