id,name,state,county,country,level,population,latitude,longitude,wiki
48240,Bloomingdale,IL,DuPage County,,city-us,110868,41.949,-88.090,5467
4439,Bloomingdale,FL,Hillsborough County,,city-us,25042,27.894,-82.240,3556
4444,Bloomingdale,TN,Sullivan County,,city-us,8759,36.585,-82.489,2350
4442,Bloomingdale,NJ,Passaic County,,city-us,7685,41.002,-74.327,14311
48241,Bloomingdale,MI,Van Buren County,,city-us,2940,42.376,-85.936,4098
4435,Bloomingdale,GA,Chatham County,,city-us,2860,32.132,-81.299,2504
4441,Bloomingdale,IN,Parke County,,city-us,265,39.833,-87.250,3331
4440,Bloomingdale,OH,Jefferson County,,city-us,139,40.343,-80.818,3534