id,name,state,county,country,level,population,latitude,longitude,wiki
25388,Locust Grove,VA,Orange County,,city-us,12696,38.281,-77.726,6805
25383,Locust Grove,GA,Henry County,,city-us,9750,33.346,-84.109,4650
25387,Locust Grove,OK,Mayes County,,city-us,1375,36.200,-95.168,6022
25382,Locust Grove,OH,Adams County,,city-us,0,38.988,-83.378,415
25384,Locust Grove,AR,Independence County,,city-us,0,35.721,-91.739,314
25385,Locust Grove,OH,Licking County,,city-us,0,40.003,-82.438,135
25386,Locust Grove,OH,Mahoning County,,city-us,0,40.944,-80.764,174
25389,Locust Grove,OR,Sherman County,,city-us,0,45.599,-120.789,263
25390,Locust Grove,IN,Wayne County,,city-us,0,39.770,-84.852,162