id,name,state,county,country,level,population,latitude,longitude,wiki
25696,Loop,PA,Blair County,,city-us,1703,40.422,-78.362,584
25827,Loup,NE,Merrick County,,city-us,739,41.227,-98.220,327
25697,Loop,TX,Gaines County,,city-us,225,32.915,-102.416,1118
25828,Loup,NE,Platte County,,city-us,186,41.413,-97.590,327
25826,Loup,NE,Custer County,,city-us,109,41.140,-99.549,327
25698,Loop,PA,Indiana County,,city-us,0,40.900,-79.166,431
25699,Loop,WV,Jackson County,,city-us,0,38.573,-81.636,86
25700,Loope,CA,Alpine County,,city-us,0,38.665,-119.696,533