id,name,state,county,country,level,population,latitude,longitude,wiki
27508,McDonald,OH,Trumbull County,,city-us,3156,41.164,-80.724,3353
27501,McDonald,PA,Allegheny County,,city-us,2038,40.370,-80.233,4513
27503,McDonald,OH,Hardin County,,city-us,876,40.586,-83.768,1359
27502,McDonald,TN,Bradley County,,city-us,586,35.113,-84.983,1668
27505,McDonald,KS,Rawlins County,,city-us,116,39.786,-101.376,3859
27506,McDonald,NC,Robeson County,,city-us,92,34.554,-79.176,1908
26225,MacDonald,WV,Fayette County,,city-us,0,37.889,-81.161,175
27504,McDonald,NM,Lea County,,city-us,0,33.141,-103.317,286
27507,McDonald,OR,Sherman County,,city-us,0,45.589,-120.410,234