id,name,state,county,country,level,population,latitude,longitude,wiki
27604,McLean,VA,Fairfax County,,city-us,49310,38.934,-77.177,10995
27609,McLean,OH,Shelby County,,city-us,3366,40.366,-84.350,1491
27607,McLean,IL,McLean County,,city-us,732,40.314,-89.170,4836
27606,McLean,TX,Gray County,,city-us,654,35.233,-100.600,4774
27610,McLean,NY,Tompkins County,,city-us,294,42.552,-76.291,224
27608,McLean,NE,Pierce County,,city-us,37,42.386,-97.469,2870
27603,McLean,WV,Barbour County,,city-us,0,39.038,-79.958,89
27605,McLean,OH,Fayette County,,city-us,0,39.491,-83.337,349