id,name,state,county,country,level,population,latitude,longitude,wiki
27969,Meredith,NH,Belknap County,,city-us,6739,43.631,-71.499,9157
27972,Meredith,NY,Delaware County,,city-us,1496,42.364,-74.939,2847
27970,Meredith,MI,Clare County,,city-us,730,44.114,-84.670,2338
27971,Meredith,KS,Cloud County,,city-us,82,39.350,-97.648,318
27973,Meredith,CO,Pitkin County,,city-us,0,39.362,-106.731,1005