id,name,state,county,country,level,population,latitude,longitude,wiki
29772,Mount Holly,NC,Gaston County,,city-us,17966,35.298,-81.016,6976
29770,Mount Holly,NJ,Burlington County,,city-us,9977,39.995,-74.786,26250
29773,Mount Holly,VT,Rutland County,,city-us,1386,43.423,-72.806,2080
29774,Mount Holly,AR,Union County,,city-us,123,33.303,-92.955,1317
29769,Mount Holly,SC,Berkeley County,,city-us,0,33.034,-80.034,526
29771,Mount Holly,OH,Clermont County,,city-us,0,39.013,-84.181,262
29775,Mount Holly,OH,Warren County,,city-us,0,39.572,-84.032,381
29776,Mount Holly,VA,Westmoreland County,,city-us,0,38.092,-76.718,235