id,name,state,county,country,level,population,latitude,longitude,wiki
2706,Brentwood,NY,Suffolk County,,city-us,66035,40.781,-73.246,12831
2702,Brentwood,CA,Contra Costa County,,city-us,64870,37.932,-121.696,23434
2707,Brentwood,TN,Williamson County,,city-us,45491,36.033,-86.783,14434
2701,Brentwood,PA,Allegheny County,,city-us,9939,40.371,-79.975,14386
2705,Brentwood,MO,St. Louis County,,city-us,8164,38.618,-90.349,5680
2704,Brentwood,NH,Rockingham County,,city-us,4554,42.984,-71.054,9165
2703,Brentwood,MD,Prince George's County,,city-us,3770,38.943,-76.957,8472