id,name,state,county,country,level,population,latitude,longitude,wiki
31239,Nora,MN,Clearwater County,,city-us,425,47.463,-95.351,232
31242,Nora,IL,Jo Daviess County,,city-us,341,42.434,-89.953,904
31246,Nora,MN,Pope County,,city-us,209,45.702,-95.696,232
31243,Nora,ND,LaMoure County,,city-us,82,46.420,-98.715,0
31245,Nora,NE,Nuckolls County,,city-us,22,40.162,-97.970,2796
31240,Nora,WI,Dane County,,city-us,0,43.031,-89.150,367
31241,Nora,VA,Dickenson County,,city-us,0,37.071,-82.347,2087
31244,Nora,ID,Latah County,,city-us,0,46.764,-116.702,198