id,name,state,county,country,level,population,latitude,longitude,wiki
2940,Brookside,DE,New Castle County,,city-us,14202,39.667,-75.727,2365
2939,Brookside,NJ,Morris County,,city-us,1767,40.794,-74.568,3031
2938,Brookside,AL,Jefferson County,,city-us,1232,33.638,-86.917,10026
2936,Brookside,OH,Belmont County,,city-us,536,40.071,-80.761,3053
2937,Brookside,CO,Fremont County,,city-us,242,38.415,-105.192,2041