id,name,state,county,country,level,population,latitude,longitude,wiki
2945,Brooksville,FL,Hernando County,,city-us,9102,28.555,-82.388,10942
2944,Brooksville,ME,Hancock County,,city-us,946,44.351,-68.759,8033
2946,Brooksville,MS,Noxubee County,,city-us,902,33.235,-88.582,2829
2943,Brooksville,KY,Bracken County,,city-us,658,38.683,-84.066,3034
2947,Brooksville,OK,Pottawatomie County,,city-us,73,35.198,-96.968,4012