id,name,state,county,country,level,population,latitude,longitude,wiki
34206,Pine Valley,CA,San Diego County,,city-us,1678,32.821,-116.529,4902
34203,Pine Valley,WI,Clark County,,city-us,1178,44.556,-90.623,1959
34202,Pine Valley,NY,Chemung County,,city-us,510,42.225,-76.846,804
34204,Pine Valley,CO,Clear Creek County,,city-us,395,39.693,-105.411,922
34207,Pine Valley,UT,Washington County,,city-us,351,37.391,-113.514,1093
34205,Pine Valley,IN,Orange County,,city-us,0,38.476,-86.450,164