id,name,state,county,country,level,population,latitude,longitude,wiki
34902,Pomona,CA,Los Angeles County,,city-us,148338,34.055,-117.752,21386
34897,Pomona,NJ,Atlantic County,,city-us,8340,39.478,-74.575,3133
34903,Pomona,NY,Rockland County,,city-us,3861,41.167,-74.043,2965
34898,Pomona,KS,Franklin County,,city-us,890,38.608,-95.452,4245
34899,Pomona,MO,Howell County,,city-us,251,36.867,-91.914,409
34900,Pomona,IL,Jackson County,,city-us,0,37.628,-89.337,302
34901,Pomona,MD,Kent County,,city-us,0,39.162,-76.110,348
34904,Pomona,VA,Westmoreland County,,city-us,0,38.226,-77.027,483
34905,Pomona,WA,Yakima County,,city-us,0,46.690,-120.487,475