id,name,state,county,country,level,population,latitude,longitude,wiki
6197,Burns,OR,Harney County,,city-us,2757,43.586,-119.054,15926
6195,Burns,TN,Dickson County,,city-us,1689,36.053,-87.313,4359
6193,Burns,NY,Allegany County,,city-us,1037,42.436,-77.782,3227
6199,Burns,WI,La Crosse County,,city-us,949,43.945,-90.976,2534
6200,Burns,WY,Laramie County,,city-us,372,41.193,-104.359,4378
6201,Burns,KS,Marion County,,city-us,232,38.090,-96.886,9025
6194,Burns,TX,Bowie County,,city-us,0,33.518,-94.289,575
6196,Burns,CO,Eagle County,,city-us,0,39.873,-106.882,814