id,name,state,county,country,level,population,latitude,longitude,wiki
3276,Burns,OR,Harney County,,city-us,2757,43.586,-119.054,15926
3274,Burns,TN,Dickson County,,city-us,1689,36.053,-87.313,4359
3272,Burns,NY,Allegany County,,city-us,1037,42.436,-77.782,3227
3277,Burns,WI,La Crosse County,,city-us,949,43.945,-90.976,2534
3278,Burns,WY,Laramie County,,city-us,372,41.193,-104.359,4378
3279,Burns,KS,Marion County,,city-us,232,38.090,-96.886,9025
3273,Burns,TX,Bowie County,,city-us,0,33.518,-94.289,575
3275,Burns,CO,Eagle County,,city-us,0,39.873,-106.882,814