id,name,state,county,country,level,population,latitude,longitude,wiki
35249,Prairie City,IA,Jasper County,,city-us,1708,41.599,-93.235,5233
35248,Prairie City,OR,Grant County,,city-us,848,44.463,-118.710,4165
35250,Prairie City,IL,McDonough County,,city-us,509,40.607,-90.503,279
35251,Prairie City,SD,Perkins County,,city-us,25,45.533,-102.817,3332
35246,Prairie City,MO,Bates County,,city-us,0,38.079,-94.175,440
35247,Prairie City,IN,Clay County,,city-us,0,39.446,-87.113,237