id,name,state,county,country,level,population,latitude,longitude,wiki
36343,Reserve,LA,St. John the Baptist Parish,,city-us,8688,30.054,-90.552,5104
36338,Reserve,PA,Allegheny County,,city-us,3204,40.485,-79.989,2233
36341,Reserve,WI,Sawyer County,,city-us,318,45.881,-91.387,1904
36340,Reserve,NM,Catron County,,city-us,301,33.713,-108.758,4542
36339,Reserve,KS,Brown County,,city-us,70,39.977,-95.562,3396
36342,Reserve,MT,Sheridan County,,city-us,31,48.606,-104.460,1925