id,name,state,county,country,level,population,latitude,longitude,wiki
38176,Saint Joseph,KY,Daviess County,,city-us,110,37.694,-87.325,182
38177,Saint Joseph,IN,Floyd County,,city-us,0,38.400,-85.808,213
38178,Saint Joseph,WV,Marshall County,,city-us,0,39.730,-80.713,742
38179,Saint Joseph,OH,Mercer County,,city-us,0,40.428,-84.739,184
38180,Saint Joseph,OH,Portage County,,city-us,0,41.027,-81.299,537
38181,Saint Joseph,IN,Vanderburgh County,,city-us,0,38.066,-87.647,1279
38182,Saint Joseph,OR,Yamhill County,,city-us,0,45.238,-123.145,3639