id,name,state,county,country,level,population,latitude,longitude,wiki
39213,Seville,OH,Medina County,,city-us,2328,41.010,-81.862,3914
39212,Seville,MI,Gratiot County,,city-us,2136,43.418,-84.776,2154
39214,Seville,CA,Tulare County,,city-us,426,36.486,-119.223,3375
39216,Seville,GA,Wilcox County,,city-us,197,31.961,-83.601,991
39211,Seville,IL,Fulton County,,city-us,0,40.486,-90.344,187
39215,Seville,FL,Volusia County,,city-us,0,29.317,-81.493,909