id,name,state,county,country,level,population,latitude,longitude,wiki
40206,Snyder,TX,Scurry County,,city-us,11264,32.718,-100.918,8512
40199,Snyder,PA,Blair County,,city-us,3325,40.705,-78.250,170
40203,Snyder,PA,Jefferson County,,city-us,2344,41.254,-78.820,170
40204,Snyder,OK,Kiowa County,,city-us,1254,34.659,-98.952,4218
40202,Snyder,NE,Dodge County,,city-us,247,41.704,-96.789,3056
40205,Snyder,CO,Morgan County,,city-us,135,40.329,-103.596,1127
40170,Snider,WV,Preston County,,city-us,0,39.460,-79.700,88
40200,Snyder,MO,Chariton County,,city-us,0,39.666,-93.240,275
40201,Snyder,IL,Clark County,,city-us,0,39.282,-87.668,144