id,name,state,county,country,level,population,latitude,longitude,wiki
41392,Stephens,GA,Oglethorpe County,,city-us,1035,33.800,-83.167,2404
41393,Stephens,AR,Ouachita County,,city-us,766,33.411,-93.070,3485
41441,Stevens,PA,Lancaster County,,city-us,612,40.216,-76.156,1303
41440,Stevens,PA,Bradford County,,city-us,421,41.772,-76.172,2467
41443,Stevens,MN,Stevens County,,city-us,69,45.453,-96.178,1833
41442,Stevens,ND,Ramsey County,,city-us,62,48.064,-98.614,0
41390,Stephens,MO,Callaway County,,city-us,0,38.977,-92.131,481
41391,Stephens,KY,Elliott County,,city-us,0,38.135,-82.959,225