id,name,state,county,country,level,population,latitude,longitude,wiki
42384,Syracuse,NY,Onondaga County,,city-us,146103,43.048,-76.147,52168
42379,Syracuse,UT,Davis County,,city-us,33331,41.089,-112.065,4182
42380,Syracuse,IN,Elkhart County / Kosciusko County,,city-us,3067,41.423,-85.750,3952
42385,Syracuse,NE,Otoe County,,city-us,1932,40.657,-96.186,3249
42381,Syracuse,KS,Hamilton County,,city-us,1807,37.981,-101.753,4893
42382,Syracuse,OH,Meigs County,,city-us,780,38.998,-81.974,3402
42383,Syracuse,MO,Morgan County,,city-us,156,38.670,-92.873,3508