id,name,state,county,country,level,population,latitude,longitude,wiki
43183,Townsend,MA,Middlesex County,,city-us,8983,42.665,-71.712,4133
43184,Townsend,DE,New Castle County,,city-us,2788,39.395,-75.692,3976
43180,Townsend,MT,Broadwater County,,city-us,1917,46.319,-111.521,4644
43181,Townsend,OH,Huron County,,city-us,1554,41.252,-82.499,124
43187,Townsend,OH,Sandusky County,,city-us,1528,41.383,-82.902,124
43179,Townsend,TN,Blount County,,city-us,574,35.675,-83.756,10339
43186,Townsend,WI,Oconto County,,city-us,88,45.328,-88.590,2044
43182,Townsend,GA,McIntosh County,,city-us,0,31.539,-81.522,524
43185,Townsend,VA,Northampton County,,city-us,0,37.185,-75.958,107