id,name,state,county,country,level,population,latitude,longitude,wiki
43237,Trent,TX,Taylor County,,city-us,293,32.490,-100.126,2345
43234,Trent,OR,Lane County,,city-us,276,43.943,-122.861,548
43236,Trent,SD,Moody County,,city-us,210,43.906,-96.654,3331
43235,Trent,CA,Merced County,,city-us,0,37.078,-120.881,180
43238,Trent,KY,Wolfe County,,city-us,0,37.772,-83.461,208