id,name,state,county,country,level,population,latitude,longitude,wiki
44689,Virginia,,,United States,state,8683619,38.003,-79.459,92828
44686,Virginia,MN,St. Louis County,,city-us,8337,47.523,-92.537,9676
44683,Virginia,IL,Cass County,,city-us,1653,39.928,-90.221,2631
44684,Virginia,OH,Coshocton County,,city-us,554,40.192,-81.943,1650
44688,Virginia,SD,Union County,,city-us,254,43.011,-96.533,0
44685,Virginia,NE,Gage County,,city-us,73,40.246,-96.497,2957
44687,Virginia,ND,Towner County,,city-us,15,48.754,-99.187,0
44681,Virginia,ID,Bannock County,,city-us,0,42.494,-112.166,192
44682,Virginia,MO,Bates County,,city-us,0,38.267,-94.496,285