id,name,state,county,country,level,population,latitude,longitude,wiki
45979,West Branch,MI,Ogemaw County,,city-us,2578,44.299,-84.170,385
45974,West Branch,IA,Cedar County,,city-us,2564,41.666,-91.344,6764
45977,West Branch,MI,Marquette County,,city-us,1715,46.380,-87.294,385
45976,West Branch,KS,Marion County,,city-us,1012,38.210,-97.316,1299
45978,West Branch,MI,Missaukee County,,city-us,450,44.381,-85.034,385
45980,West Branch,PA,Potter County,,city-us,397,41.681,-77.711,2345
45975,West Branch,MI,Dickinson County,,city-us,55,46.159,-87.712,385