id,name,state,county,country,level,population,latitude,longitude,wiki
47853,Wylie,TX,Collin County,,city-us,59394,33.036,-96.520,8011
46866,Wiley,CO,Prowers County,,city-us,445,38.154,-102.720,2251
47854,Wylie,MN,Red Lake County,,city-us,60,47.949,-96.418,1693
46865,Wiley,WV,Pleasants County,,city-us,0,39.330,-81.125,89
46867,Wiley,GA,Rabun County,,city-us,0,34.798,-83.420,199
47855,Wylie,TX,Taylor County,,city-us,0,32.373,-99.775,3327