id,name,state,county,country,level,population,latitude,longitude,wiki
47038,Willow Springs,IL,Cook County,,city-us,5729,41.741,-87.860,3869
47041,Willow Springs,MO,Howell County,,city-us,2166,36.992,-91.970,4003
47039,Willow Springs,KS,Douglas County,,city-us,1528,38.804,-95.289,1295
47043,Willow Springs,WI,Lafayette County,,city-us,809,42.756,-90.132,2332
47040,Willow Springs,TX,Fayette County,,city-us,0,29.967,-96.599,226
47042,Willow Springs,CA,Kern County,,city-us,0,34.878,-118.297,845
47044,Willow Springs,CA,Mono County,,city-us,0,38.189,-119.205,214
47045,Willow Springs,NC,Wake County,,city-us,0,35.596,-78.731,1547