id,name,state,county,country,level,population,latitude,longitude,wiki
47055,Willowdale,KS,Dickinson County,,city-us,260,39.006,-97.308,273
47056,Willowdale,NE,Holt County,,city-us,38,42.565,-98.432,247
47054,Willowdale,PA,Chester County,,city-us,0,39.874,-75.718,5864
47057,Willowdale,WV,Jackson County,,city-us,0,39.028,-81.689,92
47058,Willowdale,KS,Kingman County,,city-us,0,37.515,-98.302,487