id,name,state,county,country,level,population,latitude,longitude,wiki
4471,Christiana,TN,Rutherford County,,city-us,4305,35.710,-86.399,506
4468,Christiana,WI,Dane County,,city-us,1231,42.972,-89.091,2652
4469,Christiana,PA,Lancaster County,,city-us,1094,39.955,-75.997,3614
4472,Christiana,WI,Vernon County,,city-us,991,43.681,-90.846,2020
4470,Christiana,DE,New Castle County,,city-us,0,39.665,-75.660,1298