id,name,state,county,country,level,population,latitude,longitude,wiki
8981,Clintonville,WI,Waupaca County,,city-us,4534,44.621,-88.762,5956
8980,Clintonville,PA,Venango County,,city-us,432,41.199,-79.873,1901
8976,Clintonville,KY,Bourbon County,,city-us,0,38.085,-84.268,899
8977,Clintonville,AL,Coffee County,,city-us,0,31.407,-85.894,953
8979,Clintonville,MI,Oakland County,,city-us,0,42.688,-83.350,1561