id,name,state,county,country,level,population,latitude,longitude,wiki
5329,Corning,CA,Tehama County,,city-us,8209,39.928,-122.179,7152
5328,Corning,NY,Steuben County,,city-us,5920,42.149,-77.014,15074
5322,Corning,AR,Clay County,,city-us,3166,36.408,-90.580,6016
5321,Corning,IA,Adams County,,city-us,1534,40.990,-94.741,9502
5325,Corning,WI,Lincoln County,,city-us,834,45.276,-89.952,2184
5327,Corning,OH,Perry County,,city-us,484,39.603,-82.088,3347
5326,Corning,KS,Nemaha County,,city-us,213,39.657,-96.029,3289
5323,Corning,MO,Holt County,,city-us,0,40.248,-95.454,2857
5324,Corning,PA,Lehigh County,,city-us,0,40.451,-75.531,578