id,name,state,county,country,level,population,latitude,longitude,wiki
5478,Craig,CO,Moffat County,,city-us,8969,40.515,-107.546,4961
5480,Craig,AK,Prince of Wales-Hyder ,,city-us,1029,55.476,-133.148,7995
5475,Craig,NE,Burt County,,city-us,198,41.786,-96.364,4449
5476,Craig,MO,Holt County,,city-us,104,40.195,-95.371,3188
5479,Craig,IA,Plymouth County,,city-us,78,42.896,-96.310,2727
5477,Craig,MT,Lewis and Clark County,,city-us,39,47.074,-111.963,610