id,name,state,county,country,level,population,latitude,longitude,wiki
5531,Crescent,WI,Oneida County,,city-us,2011,45.602,-89.483,2128
5529,Crescent,OK,Logan County,,city-us,1323,35.953,-97.595,5319
5530,Crescent,GA,McIntosh County,,city-us,838,31.509,-81.372,753
5528,Crescent,LA,Iberville Parish,,city-us,811,30.248,-91.287,411
5532,Crescent,IA,Pottawattamie County,,city-us,626,41.365,-95.858,3777
5533,Crescent,NC,Rowan County,,city-us,0,35.575,-80.420,780