id,name,state,county,country,level,population,latitude,longitude,wiki
12348,Dumont,NJ,Bergen County,,city-us,18196,40.941,-73.997,17147
12349,Dumont,IA,Butler County,,city-us,629,42.752,-92.975,3407
12351,Dumont,TX,King County,,city-us,85,33.810,-100.516,1274
12352,Dumont,MN,Traverse County,,city-us,75,45.716,-96.426,3155
12350,Dumont,CO,Clear Creek County,,city-us,0,39.764,-105.599,560