id,name,state,county,country,level,population,latitude,longitude,wiki
13057,Edwards,CO,Eagle County,,city-us,10436,39.645,-106.594,3427
13061,Edwards,MI,Ogemaw County,,city-us,1413,44.193,-84.294,1998
13058,Edwards,MS,Hinds County,,city-us,975,32.330,-90.606,4447
13064,Edwards,NY,St. Lawrence County,,city-us,477,44.325,-75.251,3447
13060,Edwards,CA,Kern County,,city-us,0,34.926,-117.935,667
13062,Edwards,IL,Peoria County,,city-us,0,40.746,-89.744,692