id,name,state,county,country,level,population,latitude,longitude,wiki
13203,Eldorado,IL,Saline County,,city-us,3690,37.814,-88.438,11321
13204,Eldorado,TX,Schleicher County,,city-us,1585,30.860,-100.601,3335
13199,Eldorado,WI,Fond du Lac County,,city-us,1447,43.825,-88.622,2195
13194,Eldorado,PA,Blair County,,city-us,471,40.472,-78.424,674
13202,Eldorado,OH,Preble County,,city-us,456,39.902,-84.675,3209
13200,Eldorado,OK,Jackson County,,city-us,316,34.472,-99.648,2004
13197,Eldorado,MD,Dorchester County,,city-us,43,38.584,-75.789,3036