id,name,state,county,country,level,population,latitude,longitude,wiki
13282,Elizabethtown,KY,Hardin County,,city-us,31931,37.694,-85.859,14211
13283,Elizabethtown,PA,Lancaster County,,city-us,11533,40.153,-76.603,7127
13276,Elizabethtown,NC,Bladen County,,city-us,3132,34.629,-78.605,2803
13278,Elizabethtown,NY,Essex County,,city-us,596,44.216,-73.591,5630
13275,Elizabethtown,IN,Bartholomew County,,city-us,410,39.135,-85.813,3936
13280,Elizabethtown,OH,Hamilton County,,city-us,240,39.159,-84.805,771
13281,Elizabethtown,IL,Hardin County,,city-us,218,37.446,-88.305,3284
13277,Elizabethtown,NM,Colfax County,,city-us,0,36.619,-105.284,1803