id,name,state,county,country,level,population,latitude,longitude,wiki
7147,Elizabeth,NJ,Union County,,city-us,135407,40.664,-74.211,47088
7144,Elizabeth,CO,Elbert County,,city-us,2004,39.360,-104.597,2932
7141,Elizabeth,PA,Allegheny County,,city-us,1392,40.269,-79.890,4895
7148,Elizabeth,WV,Wirt County,,city-us,706,39.063,-81.395,3734
7146,Elizabeth,IL,Jo Daviess County,,city-us,699,42.318,-90.222,2939
7142,Elizabeth,LA,Allen Parish,,city-us,400,30.869,-92.793,2799
7145,Elizabeth,IN,Harrison County,,city-us,202,38.121,-85.974,4882
7143,Elizabeth,GA,Cobb County,,city-us,0,33.976,-84.547,2456