id,name,state,county,country,level,population,latitude,longitude,wiki
7291,Elmore,OH,Ottawa County,,city-us,1359,41.471,-83.291,7431
7288,Elmore,AL,Elmore County,,city-us,1335,32.539,-86.315,3995
7290,Elmore,VT,Lamoille County,,city-us,882,44.488,-72.514,2927
7289,Elmore,MN,Faribault County,,city-us,542,43.505,-94.088,3293
7292,Elmore,IL,Peoria County,,city-us,0,40.957,-89.977,863