id,name,state,county,country,level,population,latitude,longitude,wiki
13647,Emerson,NJ,Bergen County,,city-us,7244,40.976,-74.026,17089
13646,Emerson,GA,Bartow County,,city-us,1446,34.127,-84.755,2907
13649,Emerson,NE,Dakota County,,city-us,824,42.278,-96.726,3680
13655,Emerson,IA,Mills County,,city-us,401,41.017,-95.402,2915
13648,Emerson,AR,Columbia County,,city-us,290,33.098,-93.193,3210
13652,Emerson,OH,Jefferson County,,city-us,0,40.178,-80.823,689
13654,Emerson,MO,Marion County,,city-us,0,39.889,-91.698,647