id,name,state,county,country,level,population,latitude,longitude,wiki
7404,Englewood,CO,Arapahoe County,,city-us,33516,39.648,-104.988,10205
7405,Englewood,NJ,Bergen County,,city-us,29113,40.893,-73.973,21040
7406,Englewood,FL,Charlotte County,,city-us,19683,26.969,-82.348,4386
7410,Englewood,OH,Montgomery County,,city-us,13396,39.878,-84.302,6447
7409,Englewood,TN,McMinn County,,city-us,1503,35.425,-84.487,5066
7411,Englewood,PA,Schuylkill County,,city-us,775,40.784,-76.242,1582
7407,Englewood,KS,Clark County,,city-us,54,37.038,-99.983,3207
7408,Englewood,CA,Humboldt County,,city-us,0,40.397,-123.939,1173