id,name,state,county,country,level,population,latitude,longitude,wiki
14246,Fairbanks,AK,Fairbanks North Star Borough,,city-us,32702,64.838,-147.716,38883
14249,Fairbanks,WI,Shawano County,,city-us,532,44.718,-89.045,2121
14250,Fairbanks,MN,St. Louis County,,city-us,10,47.371,-91.927,1011
14245,Fairbanks,FL,Alachua County,,city-us,0,29.725,-82.264,1048
14251,Fairbanks,IN,Sullivan County,,city-us,0,39.219,-87.522,548
14252,Fairbanks,OR,Wasco County,,city-us,0,45.624,-121.002,612