id,name,state,county,country,level,population,latitude,longitude,wiki
14363,Fairmont,WV,Marion County,,city-us,18209,39.485,-80.143,16737
48349,Fairmont,MN,Martin County,,city-us,10410,43.652,-94.461,6181
14366,Fairmont,IL,Will County,,city-us,2649,41.556,-88.059,2028
14365,Fairmont,NC,Robeson County,,city-us,2176,34.497,-79.114,4642
14361,Fairmont,NE,Fillmore County,,city-us,601,40.637,-97.585,4101
14362,Fairmont,OK,Garfield County,,city-us,131,36.356,-97.706,2944