id,name,state,county,country,level,population,latitude,longitude,wiki
14799,Fenton,MI,Genesee County,,city-us,11989,42.801,-83.718,7099
14797,Fenton,NY,Broome County,,city-us,6364,42.202,-75.803,4650
14803,Fenton,MO,St. Louis County,,city-us,3968,38.513,-90.436,8856
14801,Fenton,IA,Kossuth County,,city-us,265,43.220,-94.431,3364
14800,Fenton,LA,Jefferson Davis Parish,,city-us,224,30.367,-92.918,2219