id,name,state,county,country,level,population,latitude,longitude,wiki
15037,Five Points,OH,Warren County,,city-us,1443,39.569,-84.193,2033
15025,Five Points,NC,Hoke County,,city-us,1221,35.017,-79.361,2326
15017,Five Points,FL,Columbia County,,city-us,1111,30.209,-82.637,1830
15015,Five Points,AL,Chambers County,,city-us,118,33.018,-85.350,3150
15014,Five Points,PA,Berks County,,city-us,0,40.362,-75.835,565
15021,Five Points,TX,Ellis County,,city-us,0,32.279,-96.902,759