id,name,state,county,country,level,population,latitude,longitude,wiki
8151,Floyd,NY,Oneida County,,city-us,3691,43.239,-75.324,3862
8149,Floyd,VA,Floyd County,,city-us,450,36.911,-80.320,3902
8153,Floyd,AR,White County,,city-us,377,35.191,-91.968,2517
8148,Floyd,IA,Floyd County,,city-us,308,43.128,-92.736,3039
8152,Floyd,NM,Roosevelt County,,city-us,85,34.214,-103.581,1920
8150,Floyd,TX,Hunt County,,city-us,0,33.149,-96.245,1489