id,name,state,county,country,level,population,latitude,longitude,wiki
8466,Fredericksburg,VA,Fredericksburg city,,city-us,28367,38.303,-77.461,25731
8467,Fredericksburg,TX,Gillespie County,,city-us,11072,30.275,-98.872,14009
8468,Fredericksburg,PA,Lebanon County,,city-us,1831,40.444,-76.428,3657
8464,Fredericksburg,IA,Chickasaw County,,city-us,969,42.965,-92.200,3866
8465,Fredericksburg,PA,Crawford County,,city-us,892,41.646,-80.177,2432
8470,Fredericksburg,OH,Wayne County,,city-us,409,40.677,-81.870,5249
8463,Fredericksburg,PA,Blair County,,city-us,142,40.317,-78.519,634
8469,Fredericksburg,IN,Washington County,,city-us,26,38.433,-86.190,3879