id,name,state,county,country,level,population,latitude,longitude,wiki
15836,Fredericktown,MO,Madison County,,city-us,4326,37.560,-90.294,9900
15835,Fredericktown,OH,Knox County,,city-us,2645,40.481,-82.541,4652
15838,Fredericktown,PA,Washington County,,city-us,209,40.003,-79.998,492
15833,Fredericktown,MD,Cecil County,,city-us,0,39.366,-75.884,742
15834,Fredericktown,OH,Columbiana County,,city-us,0,40.714,-80.548,1462