id,name,state,county,country,level,population,latitude,longitude,wiki
8985,Gifford,FL,Indian River County,,city-us,5511,27.672,-80.416,4289
8982,Gifford,IL,Champaign County,,city-us,899,40.306,-88.021,2594
8983,Gifford,SC,Hampton County,,city-us,268,32.860,-81.239,2129
8984,Gifford,IA,Hardin County,,city-us,0,42.288,-93.091,865
8986,Gifford,WA,Stevens County,,city-us,0,48.306,-118.146,643