id,name,state,county,country,level,population,latitude,longitude,wiki
17270,Gordon,GA,Wilkinson County,,city-us,1769,32.882,-83.332,2125
17267,Gordon,NE,Sheridan County,,city-us,1498,42.805,-102.203,4086
17266,Gordon,PA,Schuylkill County,,city-us,766,40.752,-76.336,1918
17260,Gordon,WI,Douglas County,,city-us,761,46.295,-91.825,2804
17265,Gordon,TX,Palo Pinto County,,city-us,474,32.548,-98.369,3531
17261,Gordon,AL,Houston County,,city-us,292,31.141,-85.097,2547
17254,Gordon,WI,Ashland County,,city-us,263,46.178,-90.754,2007
17259,Gordon,OH,Darke County,,city-us,241,39.931,-84.509,2894
17264,Gordon,AK,North Slope Borough,,city-us,0,69.680,-141.206,1894