id,name,state,county,country,level,population,latitude,longitude,wiki
9367,Granby,CT,Hartford County,,city-us,10953,41.971,-72.830,6819
9372,Granby,NY,Oswego County,,city-us,6518,43.290,-76.442,3676
9370,Granby,MA,Hampshire County,,city-us,6061,42.245,-72.500,4855
9369,Granby,CO,Grand County,,city-us,2132,40.086,-105.939,6610
9371,Granby,MO,Newton County,,city-us,2066,36.920,-94.263,3740
9368,Granby,VT,Essex County,,city-us,81,44.599,-71.747,2021