id,name,state,county,country,level,population,latitude,longitude,wiki
19486,Hazleton,PA,Luzerne County,,city-us,29970,40.958,-75.975,24509
19483,Hazleton,MI,Shiawassee County,,city-us,2071,43.092,-83.982,3587
19466,Hazelton,ID,Jerome County,,city-us,813,42.596,-114.136,3444
19484,Hazleton,IA,Buchanan County,,city-us,710,42.621,-91.900,3313
19465,Hazelton,ND,Emmons County,,city-us,222,46.485,-100.280,3422
19485,Hazleton,IN,Gibson County,,city-us,189,38.489,-87.542,4360
48395,Hazelton,KS,Barber County,,city-us,123,37.121,-98.405,3418