id,name,state,county,country,level,population,latitude,longitude,wiki
21182,Hyrum,UT,Cache County,,city-us,10036,41.634,-111.852,4180
20218,Hiram,GA,Paulding County,,city-us,5080,33.876,-84.762,3866
20217,Hiram,ME,Oxford County,,city-us,1636,43.849,-70.831,5848
20219,Hiram,OH,Portage County,,city-us,954,41.313,-81.144,3732
20216,Hiram,TX,Kaufman County,,city-us,0,32.643,-96.108,881
20221,Hiram,MO,Wayne County,,city-us,0,37.179,-90.315,817