id,name,state,county,country,level,population,latitude,longitude,wiki
10994,Homewood,AL,Jefferson County,,city-us,26054,33.472,-86.801,9692
10992,Homewood,IL,Cook County,,city-us,19001,41.557,-87.666,8454
10993,Homewood,SC,Horry County,,city-us,1693,33.884,-79.048,707
10991,Homewood,PA,Beaver County,,city-us,103,40.814,-80.329,2860
10995,Homewood,CA,Placer County,,city-us,0,39.087,-120.160,1465