id,name,state,county,country,level,population,latitude,longitude,wiki
11091,Hot Springs,AR,Garland County,,city-us,38114,34.504,-93.055,41555
11090,Hot Springs,SD,Fall River County,,city-us,3485,43.432,-103.474,9908
11093,Hot Springs,MT,Sanders County,,city-us,587,47.609,-114.669,5426
11089,Hot Springs,VA,Bath County,,city-us,540,38.000,-79.832,1456
11092,Hot Springs,NC,Madison County,,city-us,528,35.892,-82.829,5189