id,name,state,county,country,level,population,latitude,longitude,wiki
11117,Howard,WI,Brown County,,city-us,20229,44.569,-88.072,8066
11121,Howard,NY,Steuben County,,city-us,1367,42.339,-77.514,3741
11120,Howard,CO,Fremont County,,city-us,962,38.449,-105.835,1264
11116,Howard,SD,Miner County,,city-us,864,44.011,-97.527,4916
11118,Howard,WI,Chippewa County,,city-us,798,44.951,-91.538,2162
11119,Howard,AL,Fayette County,,city-us,0,33.854,-87.567,557