id,name,state,county,country,level,population,latitude,longitude,wiki
21245,Imperial,CA,Imperial County,,city-us,21017,32.848,-115.569,9619
21246,Imperial,MO,Jefferson County,,city-us,5119,38.370,-90.378,4363
21243,Imperial,PA,Allegheny County,,city-us,2731,40.450,-80.245,1888
21244,Imperial,NE,Chase County,,city-us,2022,40.517,-101.643,4256
21248,Imperial,TX,Pecos County,,city-us,245,31.273,-102.693,3097