id,name,state,county,country,level,population,latitude,longitude,wiki
11870,Jonestown,TX,Travis County,,city-us,2456,30.495,-97.923,6753
11869,Jonestown,PA,Lebanon County,,city-us,1634,40.414,-76.478,2389
11866,Jonestown,MS,Coahoma County,,city-us,936,34.320,-90.456,5296
11867,Jonestown,PA,Columbia County,,city-us,62,41.129,-76.304,2460
11868,Jonestown,MD,Howard County,,city-us,0,39.222,-76.808,564