id,name,state,county,country,level,population,latitude,longitude,wiki
12076,Kennedy,CA,San Joaquin County,,city-us,2632,37.930,-121.253,3899
12074,Kennedy,AL,Lamar County,,city-us,427,33.587,-87.984,2248
12072,Kennedy,NY,Chautauqua County,,city-us,248,42.157,-79.102,1246
12073,Kennedy,MN,Kittson County,,city-us,176,48.642,-96.909,2887
12075,Kennedy,WI,Price County,,city-us,0,45.910,-90.657,2733