id,name,state,county,country,level,population,latitude,longitude,wiki
12184,Kimball,MI,St. Clair County,,city-us,9358,42.949,-82.571,5086
12187,Kimball,NE,Kimball County,,city-us,2258,41.236,-103.663,5591
12188,Kimball,TN,Marion County,,city-us,1562,35.048,-85.672,2645
12191,Kimball,MN,Stearns County,,city-us,809,45.312,-94.300,3397
12185,Kimball,SD,Brule County,,city-us,595,43.747,-98.958,3783
12186,Kimball,WI,Iron County,,city-us,540,46.482,-90.306,2097
12189,Kimball,WV,McDowell County,,city-us,152,37.426,-81.507,4035
12190,Kimball,KS,Neosho County,,city-us,0,37.661,-95.164,554