id,name,state,county,country,level,population,latitude,longitude,wiki
25255,Littleton,CO,Arapahoe County,,city-us,45191,39.590,-105.020,12290
25261,Littleton,MA,Middlesex County,,city-us,10121,42.536,-71.491,26142
25259,Littleton,NH,Grafton County,,city-us,6043,44.343,-71.795,5650
25256,Littleton,ME,Aroostook County,,city-us,989,46.236,-67.843,3261
25260,Littleton,NC,Halifax County,,city-us,560,36.435,-77.912,0
25264,Littleton,WV,Wetzel County,,city-us,141,39.698,-80.517,2121
25257,Littleton,IA,Buchanan County,,city-us,0,42.533,-92.024,1103