id,name,state,county,country,level,population,latitude,longitude,wiki
13516,Lockwood,MT,Yellowstone County,,city-us,7162,45.819,-108.415,4960
13512,Lockwood,MO,Dade County,,city-us,821,37.386,-93.953,3443
13510,Lockwood,CA,Amador County,,city-us,579,38.487,-120.603,232
13513,Lockwood,CA,Monterey County,,city-us,368,35.944,-121.083,3580
13511,Lockwood,KY,Boyd County,,city-us,0,38.308,-82.580,1522
13514,Lockwood,WV,Nicholas County,,city-us,0,38.259,-81.035,602
13515,Lockwood,NV,Storey County,,city-us,0,39.507,-119.647,1448