id,name,state,county,country,level,population,latitude,longitude,wiki
25592,Long Beach,CA,Los Angeles County,,city-us,456062,33.767,-118.189,70298
25593,Long Beach,NY,Nassau County,,city-us,34778,40.588,-73.658,21926
25590,Long Beach,MS,Harrison County,,city-us,16856,30.350,-89.153,5182
25594,Long Beach,NJ,Ocean County,,city-us,3143,39.602,-74.226,15635
25589,Long Beach,MD,Calvert County,,city-us,2126,38.461,-76.469,239
25595,Long Beach,WA,Pacific County,,city-us,1719,46.352,-124.054,6860
25591,Long Beach,IN,LaPorte County,,city-us,1187,41.739,-86.857,5749
25596,Long Beach,MN,Pope County,,city-us,341,45.655,-95.418,3060