id,name,state,county,country,level,population,latitude,longitude,wiki
26012,Lumberton,NC,Robeson County,,city-us,18694,34.618,-79.009,8977
26009,Lumberton,TX,Hardin County,,city-us,13802,30.266,-94.200,6476
26008,Lumberton,NJ,Burlington County,,city-us,12779,39.959,-74.802,14213
26010,Lumberton,MS,Lamar County,,city-us,1640,31.006,-89.459,3328
26011,Lumberton,NM,Rio Arriba County,,city-us,275,36.930,-106.937,288