id,name,state,county,country,level,population,latitude,longitude,wiki
14113,Malvern,AR,Hot Spring County,,city-us,10719,34.362,-92.813,10783
14111,Malvern,PA,Chester County,,city-us,3416,40.036,-75.514,10907
14112,Malvern,AL,Geneva County,,city-us,1543,31.139,-85.519,3722
14110,Malvern,OH,Carroll County,,city-us,1104,40.692,-81.181,3673
14114,Malvern,IA,Mills County,,city-us,1027,41.003,-95.585,6085
14115,Malvern,WI,Oneida County,,city-us,0,45.608,-89.285,1703