id,name,state,county,country,level,population,latitude,longitude,wiki
26775,Mapleton,UT,Utah County,,city-us,12414,40.130,-111.579,5856
48475,Mapleton,ME,Aroostook County,,city-us,1865,46.702,-68.112,2767
48476,Mapleton,MN,Blue Earth County,,city-us,1687,43.929,-93.956,3577
26772,Mapleton,IA,Monona County,,city-us,1144,42.166,-95.793,5513
26770,Mapleton,OR,Lane County,,city-us,493,44.031,-123.866,1069
26769,Mapleton,PA,Huntingdon County,,city-us,418,40.394,-77.941,2664
26773,Mapleton,IL,Peoria County,,city-us,255,40.566,-89.732,2109
26765,Mapleton,KS,Bourbon County,,city-us,97,38.015,-94.884,3481