id,name,state,county,country,level,population,latitude,longitude,wiki
14858,Mehlville,MO,St. Louis County,,city-us,28672,38.508,-90.323,2421
14885,Melville,NY,Suffolk County,,city-us,18561,40.793,-73.415,9668
14883,Melville,RI,Newport County,,city-us,1838,41.587,-71.283,3316
14884,Melville,LA,St. Landry Parish,,city-us,757,30.693,-91.744,3121
14886,Melville,MT,Sweet Grass County,,city-us,0,46.103,-109.954,1531