id,name,state,county,country,level,population,latitude,longitude,wiki
28097,Mexico,,,,country,129875529,23.635,-102.553,128737
28096,Mexico,,,Philippines,city-international,173403,15.067,120.717,0
28086,Mexico,MO,Audrain County,,city-us,11523,39.170,-91.883,8248
28093,Mexico,NY,Oswego County,,city-us,5274,43.455,-76.205,6583
28094,Mexico,ME,Oxford County,,city-us,2771,44.553,-70.495,5877
28091,Mexico,IN,Miami County,,city-us,1244,40.822,-86.116,2405
28090,Mexico,PA,Juniata County,,city-us,447,40.538,-77.353,2563
28095,Mexico,OH,Wyandot County,,city-us,0,40.986,-83.193,546