id,name,state,county,country,level,population,latitude,longitude,wiki
15209,Mill Creek,WA,Snohomish County,,city-us,20902,47.860,-122.204,24163
15208,Mill Creek,WV,Randolph County,,city-us,560,38.731,-79.970,3605
15206,Mill Creek,OK,Johnston County,,city-us,299,34.404,-96.826,3695
15205,Mill Creek,PA,Huntingdon County,,city-us,285,40.436,-77.931,3095
15210,Mill Creek,IL,Union County,,city-us,57,37.342,-89.253,1909
15207,Mill Creek,IN,LaPorte County,,city-us,0,41.581,-86.532,620