id,name,state,county,country,level,population,latitude,longitude,wiki
29371,Moore,OK,Cleveland County,,city-us,63462,35.340,-97.487,12039
29375,Moore,TX,Frio County,,city-us,475,29.066,-99.013,2183
29374,Moore,MT,Fergus County,,city-us,198,46.976,-109.697,3317
29369,Moore,ID,Butte County,,city-us,168,43.736,-113.366,2882
29373,Moore,UT,Emery County,,city-us,5,38.969,-111.159,2076
29380,Moore,SC,Spartanburg County,,city-us,0,34.833,-81.992,1455