id,name,state,county,country,level,population,latitude,longitude,wiki
29472,Morgan,UT,Morgan County,,city-us,4223,41.036,-111.677,2437
29466,Morgan,GA,Calhoun County,,city-us,1576,31.538,-84.599,2751
29477,Morgan,MN,Redwood County,,city-us,887,44.417,-94.926,3180
29475,Morgan,VT,Orleans County,,city-us,635,44.896,-71.941,3703
29465,Morgan,TX,Bosque County,,city-us,457,32.019,-97.608,2150
29470,Morgan,MO,Laclede County,,city-us,0,37.510,-92.677,565
29473,Morgan,OR,Morrow County,,city-us,0,45.553,-119.921,782