id,name,state,county,country,level,population,latitude,longitude,wiki
16296,Nevada,,,United States,state,3177772,38.502,-117.023,57956
16294,Nevada,MO,Vernon County,,city-us,8198,37.839,-94.355,9611
16292,Nevada,IA,Story County,,city-us,7057,42.023,-93.452,7894
16291,Nevada,TX,Collin County,,city-us,1331,33.042,-96.374,1635
16295,Nevada,OH,Wyandot County,,city-us,702,40.819,-83.130,3291
16293,Nevada,IN,Tipton County,,city-us,0,40.395,-86.004,866