id,name,state,county,country,level,population,latitude,longitude,wiki
31896,Oakley,CA,Contra Costa County,,city-us,43771,37.997,-121.712,10791
31907,Oakley,KS,Gove County,,city-us,2026,39.123,-100.845,6541
31905,Oakley,UT,Summit County,,city-us,1590,40.715,-111.301,10245
31895,Oakley,ID,Cassia County,,city-us,804,42.243,-113.882,5608
31903,Oakley,MI,Saginaw County,,city-us,286,43.140,-84.168,5225
31898,Oakley,WY,Lincoln County,,city-us,0,41.751,-110.526,1834
31900,Oakley,IL,Macon County,,city-us,0,39.876,-88.806,720