id,name,state,county,country,level,population,latitude,longitude,wiki
17107,Oakville,,,Canada,city-international,193832,43.450,-79.683,15370
17106,Oakville,MO,St. Louis County,,city-us,35357,38.470,-90.305,4206
17105,Oakville,CT,Litchfield County,,city-us,9507,41.589,-73.090,3103
17100,Oakville,WA,Grays Harbor County,,city-us,728,46.840,-123.232,12513
17103,Oakville,IA,Louisa County,,city-us,196,41.100,-91.045,3196
17101,Oakville,AL,Lawrence County,,city-us,0,34.445,-87.162,3159
17102,Oakville,TX,Live Oak County,,city-us,0,28.449,-98.102,1681
17104,Oakville,CA,Napa County,,city-us,0,38.437,-122.402,4752