id,name,state,county,country,level,population,latitude,longitude,wiki
17728,Paoli,PA,Chester County,,city-us,5838,40.042,-75.476,9333
17731,Paoli,IN,Orange County,,city-us,3625,38.556,-86.468,4671
17730,Paoli,OK,Garvin County,,city-us,583,34.827,-97.259,2507
17732,Paoli,CO,Phillips County,,city-us,48,40.612,-102.473,1792
17729,Paoli,KY,Cumberland County,,city-us,0,36.679,-85.138,709