id,name,state,county,country,level,population,latitude,longitude,wiki
18190,Piedmont,CA,Alameda County,,city-us,11107,37.824,-122.232,18722
18194,Piedmont,OK,Canadian County,,city-us,7884,35.675,-97.754,6172
18191,Piedmont,SC,Anderson County,,city-us,5581,34.706,-82.467,4427
18193,Piedmont,AL,Calhoun County,,city-us,4810,33.928,-85.615,12597
18198,Piedmont,MO,Wayne County,,city-us,1860,37.154,-90.696,6807
18196,Piedmont,SD,Meade County,,city-us,965,44.232,-103.389,2825
18197,Piedmont,WV,Mineral County,,city-us,707,39.480,-79.048,7904
18195,Piedmont,KS,Greenwood County,,city-us,52,37.624,-96.366,614
18192,Piedmont,VA,Augusta County,,city-us,0,38.214,-78.899,828