id,name,state,county,country,level,population,latitude,longitude,wiki
34253,Pineville,LA,Rapides Parish,,city-us,14501,31.322,-92.434,7967
34252,Pineville,NC,Mecklenburg County,,city-us,10678,35.083,-80.892,5921
34247,Pineville,KY,Bell County,,city-us,1662,36.762,-83.695,7649
34251,Pineville,MO,McDonald County,,city-us,804,36.595,-94.384,4575
34255,Pineville,WV,Wyoming County,,city-us,638,37.583,-81.537,5521
34250,Pineville,AR,Izard County,,city-us,159,36.163,-92.107,1561
34249,Pineville,PA,Bucks County,,city-us,0,40.296,-75.006,1579