id,name,state,county,country,level,population,latitude,longitude,wiki
34438,Plainview,NY,Nassau County,,city-us,26665,40.776,-73.467,17595
34434,Plainview,TX,Hale County,,city-us,19739,34.185,-101.707,7208
48562,Plainview,MN,Wabasha County,,city-us,3500,44.165,-92.172,3858
34445,Plainview,TN,Union County,,city-us,2091,36.181,-83.793,4711
34440,Plainview,NE,Pierce County,,city-us,1273,42.350,-97.792,5402
34444,Plainview,CA,Tulare County,,city-us,493,36.144,-119.134,2119
34449,Plainview,AR,Yell County,,city-us,466,34.990,-93.297,2522
34436,Plainview,SD,Meade County,,city-us,0,44.602,-102.162,1524
34437,Plainview,GA,Morgan County,,city-us,0,33.573,-83.426,752