id,name,state,county,country,level,population,latitude,longitude,wiki
18546,Pleasantville,NJ,Atlantic County,,city-us,20595,39.390,-74.524,15225
18552,Pleasantville,NY,Westchester County,,city-us,7411,41.133,-73.793,14253
18549,Pleasantville,IA,Marion County,,city-us,1676,41.386,-93.269,4779
18548,Pleasantville,OH,Fairfield County,,city-us,944,39.810,-82.522,3295
18551,Pleasantville,PA,Venango County,,city-us,832,41.592,-79.579,2305
18547,Pleasantville,PA,Bedford County,,city-us,194,40.180,-78.613,2214
18550,Pleasantville,IN,Sullivan County,,city-us,0,38.967,-87.250,703