id,name,state,county,country,level,population,latitude,longitude,wiki
18630,Poland,,,,country,37991766,51.919,19.145,74076
18624,Poland,ME,Androscoggin County,,city-us,5966,44.048,-70.394,9456
18629,Poland,OH,Mahoning County,,city-us,2420,41.024,-80.615,5902
18626,Poland,NY,Chautauqua County,,city-us,2183,42.130,-79.121,3590
18628,Poland,NY,Herkimer County,,city-us,484,43.226,-75.061,3918
18625,Poland,WI,Brown County,,city-us,0,44.444,-87.826,565
18627,Poland,IN,Clay County,,city-us,0,39.444,-86.951,4127