id,name,state,county,country,level,population,latitude,longitude,wiki
19139,Ralston,NE,Douglas County,,city-us,6462,41.205,-96.043,5663
19141,Ralston,WY,Park County,,city-us,353,44.716,-108.865,1825
19142,Ralston,OK,Pawnee County,,city-us,270,36.504,-96.732,2520
19138,Ralston,IA,Carroll County,,city-us,78,42.042,-94.629,2811
19140,Ralston,PA,Lycoming County,,city-us,0,41.506,-76.954,4197