id,name,state,county,country,level,population,latitude,longitude,wiki
35789,Raleigh,NC,Durham County,,city-us,469124,35.830,-78.641,63366
48570,Raleigh,IL,Saline County,,city-us,1082,37.813,-88.545,5037
35797,Raleigh,MS,Smith County,,city-us,1015,32.033,-89.522,4202
35792,Raleigh,FL,Levy County,,city-us,867,29.442,-82.466,416
35791,Raleigh,ND,Grant County,,city-us,14,46.357,-101.305,1149