id,name,state,county,country,level,population,latitude,longitude,wiki
19180,Randolph,MA,Norfolk County,,city-us,34715,42.179,-71.053,10291
19179,Randolph,NJ,Morris County,,city-us,26480,40.842,-74.579,21294
19181,Randolph,VT,Orange County,,city-us,4799,43.922,-72.611,7577
19185,Randolph,WI,Columbia County,,city-us,1786,43.539,-89.003,4170
19178,Randolph,ME,Kennebec County,,city-us,1745,44.237,-69.751,3954
19170,Randolph,AL,Bibb County,,city-us,1169,32.899,-86.911,372
19171,Randolph,NY,Cattaraugus County,,city-us,962,42.162,-78.975,4293
19172,Randolph,NE,Cedar County,,city-us,874,42.378,-97.358,3491
19183,Randolph,UT,Rich County,,city-us,493,41.666,-111.182,3130
19175,Randolph,NH,Coos County,,city-us,322,44.397,-71.305,5467
19177,Randolph,IA,Fremont County,,city-us,189,40.873,-95.566,3409
19184,Randolph,KS,Riley County,,city-us,167,39.431,-96.760,4417
19174,Randolph,MO,Clay County,,city-us,56,39.158,-94.496,3527
19173,Randolph,VA,Charlotte County,,city-us,0,36.894,-78.698,596
19176,Randolph,OR,Coos County,,city-us,0,43.168,-124.356,4170
19182,Randolph,MS,Pontotoc County,,city-us,0,34.181,-89.168,2367