id,name,state,county,country,level,population,latitude,longitude,wiki
47798,Wray,CO,Yuma County,,city-us,2308,40.076,-102.223,2878
35955,Ray,ND,Williams County,,city-us,706,48.344,-103.165,3545
35956,Ray,AL,Coosa County,,city-us,399,32.887,-86.038,152
35957,Ray,MN,Koochiching County,,city-us,0,48.411,-93.211,1076
35962,Ray,IN,Steuben County,,city-us,0,41.760,-84.872,1225