id,name,state,county,country,level,population,latitude,longitude,wiki
19328,Redfield,AR,Jefferson County,,city-us,1507,34.445,-92.183,3941
19327,Redfield,IA,Dallas County,,city-us,734,41.589,-94.196,4301
19330,Redfield,NY,Oswego County,,city-us,479,43.587,-75.829,3057
19329,Redfield,TX,Nacogdoches County,,city-us,117,31.680,-94.665,270
19326,Redfield,KS,Bourbon County,,city-us,92,37.837,-94.881,3711