id,name,state,county,country,level,population,latitude,longitude,wiki
36317,Reno,NV,Washoe County,,city-us,268851,39.530,-119.814,41245
36312,Reno,TX,Lamar County,,city-us,3460,33.663,-95.462,2959
36314,Reno,TX,Parker County,,city-us,3100,32.949,-97.566,144
36378,Reyno,AR,Randolph County,,city-us,395,36.363,-90.754,3011
36307,Reno,IL,Bond County,,city-us,0,38.975,-89.514,809
36310,Reno,MN,Houston County,,city-us,0,43.601,-91.275,610
36316,Reno,OH,Washington County,,city-us,0,39.373,-81.396,552