id,name,state,county,country,level,population,latitude,longitude,wiki
36328,Republic,MO,Christian County,,city-us,19136,37.169,-93.413,8352
36329,Republic,PA,Fayette County,,city-us,1172,39.963,-79.877,2435
36330,Republic,WA,Ferry County,,city-us,1060,48.648,-118.738,11182
48576,Republic,MI,Marquette County,,city-us,1000,46.393,-88.086,2909
36334,Republic,OH,Seneca County,,city-us,548,41.122,-83.016,4408
36333,Republic,KS,Republic County,,city-us,83,39.924,-97.822,3557
36327,Republic,IA,Chickasaw County,,city-us,0,42.951,-92.397,1126