id,name,state,county,country,level,population,latitude,longitude,wiki
19474,Rice,VA,Prince Edward County,,city-us,2256,37.275,-78.291,2293
19471,Rice,MN,Benton County,,city-us,2053,45.752,-94.220,6676
19473,Rice,TX,Navarro County,,city-us,1236,32.244,-96.499,2567
19475,Rice,WA,Stevens County,,city-us,40,48.429,-118.170,1645
19472,Rice,KS,Cloud County,,city-us,0,39.572,-97.556,562