id,name,state,county,country,level,population,latitude,longitude,wiki
20266,Rushville,IN,Rush County,,city-us,6187,39.609,-85.446,3918
20267,Rushville,IL,Schuyler County,,city-us,3026,40.121,-90.563,3311
20268,Rushville,NE,Sheridan County,,city-us,812,42.718,-102.464,3789
20265,Rushville,NY,Ontario County,,city-us,670,42.761,-77.228,3303
20264,Rushville,OH,Fairfield County,,city-us,307,39.765,-82.432,3611
20263,Rushville,MO,Buchanan County,,city-us,220,39.587,-95.026,3066