id,name,state,county,country,level,population,latitude,longitude,wiki
41402,Stephenson,WI,Marinette County,,city-us,3535,45.242,-88.136,2297
41454,Stevenson,AL,Jackson County,,city-us,1960,34.869,-85.839,6774
41456,Stevenson,WA,Skamania County,,city-us,1573,45.696,-121.885,4661
41403,Stephenson,MI,Menominee County,,city-us,813,45.415,-87.608,3862
41453,Stevenson,MD,Baltimore County,,city-us,0,39.410,-76.713,857