id,name,state,county,country,level,population,latitude,longitude,wiki
23360,Twin Lakes,CO,Adams County,,city-us,7635,39.825,-105.005,2112
23365,Twin Lakes,WI,Kenosha County,,city-us,6388,42.531,-88.248,4407
23369,Twin Lakes,CA,Santa Cruz County,,city-us,5369,36.967,-121.998,4084
23364,Twin Lakes,VA,Greene County,,city-us,1552,38.249,-78.444,676
23368,Twin Lakes,NM,McKinley County,,city-us,1082,35.709,-108.775,2041
23361,Twin Lakes,IA,Calhoun County,,city-us,511,42.485,-94.636,745
23366,Twin Lakes,CO,Lake County,,city-us,145,39.083,-106.382,2609
23363,Twin Lakes,MN,Freeborn County,,city-us,131,43.560,-93.423,3093
23367,Twin Lakes,OK,Logan County,,city-us,124,35.868,-97.665,442
23362,Twin Lakes,WA,Ferry County,,city-us,87,48.262,-118.359,721