id,name,state,county,country,level,population,latitude,longitude,wiki
44760,Waco,TX,McLennan County,,city-us,139594,31.549,-97.147,37534
44757,Waco,GA,Haralson County,,city-us,539,33.703,-85.183,2385
44754,Waco,NC,Cleveland County,,city-us,314,35.362,-81.429,1951
44763,Waco,NE,York County,,city-us,291,40.897,-97.463,3312
44758,Waco,MO,Jasper County,,city-us,73,37.247,-94.599,2993