id,name,state,county,country,level,population,latitude,longitude,wiki
24042,Wales,MI,St. Clair County,,city-us,3248,42.953,-82.686,3196
24045,Wales,NY,Erie County,,city-us,3009,42.739,-78.518,4301
24049,Wales,WI,Waukesha County,,city-us,2867,43.004,-88.377,3882
24046,Wales,MA,Hampden County,,city-us,1816,42.061,-72.234,3181
24043,Wales,ME,Androscoggin County,,city-us,1629,44.151,-70.062,3544
24048,Wales,UT,Sanpete County,,city-us,349,39.487,-111.635,3005
24047,Wales,AK,Nome ,,city-us,160,65.609,-168.088,4072
24044,Wales,ND,Cavalier County,,city-us,8,48.896,-98.603,2840