id,name,state,county,country,level,population,latitude,longitude,wiki
24198,Warrenton,VA,Fauquier County,,city-us,10109,38.713,-77.795,10472
24204,Warrenton,MO,Warren County,,city-us,8892,38.811,-91.142,7555
24197,Warrenton,OR,Clatsop County,,city-us,6393,46.165,-123.924,7609
24202,Warrenton,GA,Warren County,,city-us,1737,33.407,-82.662,2907
24205,Warrenton,NC,Warren County,,city-us,856,36.398,-78.155,4980
24199,Warrenton,TX,Fayette County,,city-us,0,30.017,-96.732,2395
24200,Warrenton,IN,Gibson County,,city-us,0,38.173,-87.533,513
24201,Warrenton,AL,Marshall County,,city-us,0,34.357,-86.359,761
24203,Warrenton,MS,Warren County,,city-us,0,32.248,-90.928,1744