id,name,state,county,country,level,population,latitude,longitude,wiki
24407,Wayland,MA,Middlesex County,,city-us,13724,42.360,-71.361,9012
24403,Wayland,MI,Allegan County,,city-us,4426,42.674,-85.645,5080
24409,Wayland,NY,Steuben County,,city-us,3702,42.525,-77.598,4184
24406,Wayland,IA,Henry County,,city-us,975,41.147,-91.661,5162
24404,Wayland,MO,Clark County,,city-us,425,40.394,-91.583,3428
24405,Wayland,KY,Floyd County,,city-us,403,37.445,-82.805,2954
24408,Wayland,OH,Portage County,,city-us,0,41.161,-81.071,579