id,name,state,county,country,level,population,latitude,longitude,wiki
24918,White Lake,MI,Oakland County,,city-us,30019,42.648,-83.496,5329
24919,White Lake,NC,Bladen County,,city-us,848,34.640,-78.484,1935
24920,White Lake,WI,Langlade County,,city-us,394,45.157,-88.765,4260
24921,White Lake,NY,Oneida County,,city-us,128,43.536,-75.145,691
24922,White Lake,NY,Sullivan County,,city-us,75,41.677,-74.828,4271