id,name,state,county,country,level,population,latitude,longitude,wiki
24930,White Oak,OH,Hamilton County,,city-us,19123,39.213,-84.599,2120
24931,White Oak,MD,Montgomery County,,city-us,14711,39.040,-76.993,5272
24926,White Oak,PA,Allegheny County,,city-us,7523,40.338,-79.809,4307
24929,White Oak,TX,Gregg County,,city-us,6169,32.528,-94.861,3981
24933,White Oak,MS,Tunica County,,city-us,1024,34.646,-90.354,446
24927,White Oak,NC,Bladen County,,city-us,232,34.750,-78.708,1957
24928,White Oak,OK,Craig County,,city-us,208,36.620,-95.264,1000
24932,White Oak,VA,Stafford County,,city-us,0,38.301,-77.375,534