id,name,state,county,country,level,population,latitude,longitude,wiki
47335,Winona,MN,Winona County,,city-us,25964,44.050,-91.639,15815
47328,Winona,MS,Montgomery County,,city-us,4339,33.482,-89.728,7441
47331,Winona,MO,Shannon County,,city-us,963,37.010,-91.323,3804
47332,Winona,TX,Smith County,,city-us,643,32.490,-95.167,643
47322,Winona,AZ,Coconino County,,city-us,0,35.205,-111.408,1481
47326,Winona,MI,Houghton County,,city-us,0,46.874,-88.907,1311