id,name,state,county,country,level,population,latitude,longitude,wiki
25357,Winston,FL,Polk County,,city-us,9024,28.039,-82.003,2032
25355,Winston,OR,Douglas County,,city-us,5665,43.122,-123.413,4744
25353,Winston,MO,Daviess County,,city-us,230,39.870,-94.140,4126
25352,Winston,MT,Broadwater County,,city-us,112,46.477,-111.659,1942
25358,Winston,NM,Sierra County,,city-us,22,33.347,-107.647,684
25354,Winston,GA,Douglas County,,city-us,0,33.730,-84.860,2914
25356,Winston,WA,Lewis County,,city-us,0,46.487,-122.522,1160