id,name,state,county,country,level,population,latitude,longitude,wiki
25606,Worthington,OH,Franklin County,,city-us,14564,40.093,-83.018,13169
25608,Worthington,KY,Greenup County,,city-us,1489,38.548,-82.724,4016
25607,Worthington,IN,Greene County,,city-us,1393,39.125,-86.979,3448
25609,Worthington,MA,Hampshire County,,city-us,1182,42.398,-72.943,6435
25604,Worthington,PA,Armstrong County,,city-us,589,40.838,-79.632,4767
25605,Worthington,IA,Dubuque County,,city-us,382,42.396,-91.120,5779
25610,Worthington,WV,Marion County,,city-us,182,39.453,-80.260,3060
25611,Worthington,MO,Putnam County,,city-us,50,40.408,-92.689,3075