id,name,state,county,country,level,population,latitude,longitude,wiki
26514,Woodburn,OR,Marion County,,city-us,26054,45.144,-122.855,12818
26511,Woodburn,VA,Fairfax County,,city-us,10168,38.847,-77.236,795
26509,Woodburn,IN,Allen County,,city-us,1567,41.125,-84.853,5799
26515,Woodburn,KY,Warren County,,city-us,311,36.843,-86.527,2667
26513,Woodburn,IL,Macoupin County,,city-us,175,39.047,-90.012,11877
26510,Woodburn,IA,Clarke County,,city-us,144,41.012,-93.599,4084
26512,Woodburn,VA,Loudoun County,,city-us,0,39.090,-77.619,618