phoneme,name,county,latitude,longitude
04098,Huntsville,Limestone County / Madison County / Morgan County,34.782,-86.533
05679,Montgomery,Montgomery County,32.367,-86.300
00786,Birmingham,Jefferson County / Shelby County,33.527,-86.797
04018,Hoover,Jefferson County / Shelby County,33.379,-86.809
00360,Auburn,Lee County,32.610,-85.481
02411,Dothan,Dale County / Henry County / Houston County,31.234,-85.407
05132,Madison,Limestone County / Madison County,34.711,-86.762
02239,Decatur,Limestone County / Morgan County,34.573,-86.990
03027,Florence,Lauderdale County,34.800,-87.677
06948,Prattville,Autauga County / Elmore County,32.449,-86.449
03201,Gadsden,Etowah County,34.014,-86.007
00076,Alabaster,Shelby County,33.244,-86.816
06335,Opelika,Lee County,32.645,-85.378
06176,Northport,Tuscaloosa County,33.229,-87.577
02777,Enterprise,Coffee County / Dale County,31.327,-85.844
02196,Daphne,Baldwin County,30.604,-87.904
00342,Athens,Limestone County,34.803,-86.972
04005,Homewood,Jefferson County,33.472,-86.801
00726,Bessemer,Jefferson County,33.402,-86.954
06588,Pelham,Shelby County,33.286,-86.810
02872,Fairhope,Baldwin County,30.523,-87.903
00087,Albertville,Marshall County,34.268,-86.209
06437,Oxford,Calhoun County / Talladega County,33.597,-85.868
03040,Foley,Baldwin County,30.407,-87.684
03822,Helena,Jefferson County / Shelby County,33.283,-86.879
00222,Anniston,Calhoun County,33.660,-85.832
06961,Prichard,Mobile County,30.739,-88.079
07732,Selma,Dallas County,32.407,-87.021
08652,Troy,Pike County,31.809,-85.970
01287,Calera,Chilton County / Shelby County,33.122,-86.746
05550,Millbrook,Autauga County / Elmore County,32.501,-86.374
05860,Muscle Shoals,Colbert County,34.745,-87.668
03239,Gardendale,Jefferson County,33.660,-86.813
01510,Center Point,Jefferson County,33.646,-86.684
01587,Chelsea,Shelby County,33.340,-86.630
07694,Scottsboro,Jackson County,34.672,-86.034
03743,Hartselle,Morgan County,34.443,-86.935
04256,Jasper,Walker County,33.831,-87.278
06439,Ozark,Dale County,31.459,-85.640
05694,Moody,St. Clair County,33.591,-86.491
04199,Irondale,Jefferson County,33.538,-86.707
04237,Jacksonville,Calhoun County,33.814,-85.761
02824,Eufaula,Barbour County,31.891,-85.145
04767,Leeds,Jefferson County / Shelby County / St. Clair County,33.547,-86.571
07478,Russellville,Franklin County,34.508,-87.729
08789,Valley,Chambers County,32.819,-85.179
03067,Forestdale,Jefferson County,33.574,-86.903
08025,Spanish Fort,Baldwin County,30.675,-87.915
01704,Clay,Jefferson County / St. Clair County,33.697,-86.608
00904,Boaz,Etowah County / Marshall County,34.199,-86.155
07046,Rainbow City,Etowah County,33.955,-86.042
07532,Saks,Calhoun County,33.708,-85.844
02870,Fairfield,Jefferson County,33.475,-86.919
05413,Meadowbrook,Shelby County,33.404,-86.691
06794,Pleasant Grove,Jefferson County,33.491,-86.970
08017,Southside,Calhoun County / Etowah County,33.891,-86.018
07789,Sheffield,Colbert County,34.765,-87.699
08697,Tuscumbia,Colbert County,34.731,-87.703
00205,Andalusia,Covington County,31.308,-86.483
00250,Arab,Cullman County / Marshall County,34.332,-86.501
03548,Greenville,Butler County,31.830,-86.618
05676,Montevallo,Shelby County,33.101,-86.864
09191,Wetumpka,Elmore County,32.544,-86.212
06751,Pinson,Jefferson County,33.689,-86.683
04861,Lincoln,Talladega County,33.613,-86.118
03659,Hamilton,Marion County,34.142,-87.989
07303,Robertsdale,Baldwin County,30.554,-87.712
06328,Oneonta,Blount County,33.948,-86.473
07643,Satsuma,Mobile County,30.853,-88.056
07536,Salem,Lee County,32.597,-85.239
01621,Chickasaw,Mobile County,30.764,-88.075
00734,Beulah,Lee County,32.711,-85.182
03903,Highland Lakes,Shelby County,33.398,-86.648
08423,Tarrant,Jefferson County,33.583,-86.773
08489,Theodore,Mobile County,30.548,-88.175
05661,Monroeville,Monroe County,31.528,-87.325
05703,Moores Mill,Madison County,34.844,-86.518
07049,Rainsville,DeKalb County,34.494,-85.848
05240,Margaret,St. Clair County,33.686,-86.475
03351,Glencoe,Calhoun County / Etowah County,33.948,-85.934
07138,Redland,Elmore County,32.481,-86.144
07296,Roanoke,Randolph County,33.151,-85.372
01044,Brewton,Escambia County,31.105,-87.072
05521,Midfield,Jefferson County,33.462,-86.909
03995,Holtville,Elmore County,32.636,-86.327
08073,Springville,St. Clair County,33.775,-86.472
02170,Daleville,Dale County,31.310,-85.713
09347,Winfield,Fayette County / Marion County,33.935,-87.791
06684,Piedmont,Calhoun County / Cherokee County,33.928,-85.615
08401,Tallassee,Elmore County / Tallapoosa County,32.533,-85.892
04232,Jackson,Clarke County,31.509,-87.894
04040,Horton,Marshall County,34.201,-86.297
05798,Mount Olive,Jefferson County,33.684,-86.875
00271,Argo,Jefferson County / St. Clair County,33.691,-86.505
03633,Haleyville,Marion County / Winston County,34.234,-87.618
00034,Adamsville,Jefferson County,33.601,-86.956
01848,Columbiana,Shelby County,33.178,-86.607
02938,Fayette,Fayette County,33.685,-87.831
03272,Geneva,Geneva County,31.033,-85.864
05049,Loxley,Baldwin County,30.618,-87.753
03797,Hazel Green,Madison County,34.924,-86.567
00106,Alexandria,Calhoun County,33.766,-85.884
06724,Pine Level,Autauga County,32.584,-86.466
04454,Kimberly,Jefferson County,33.773,-86.814
03009,Flat Rock,Jackson County,34.770,-85.694
01981,Cottondale,Tuscaloosa County,33.190,-87.452
04626,Lake View,Jefferson County / Tuscaloosa County,33.288,-87.133
01157,Bryant,Jackson County,34.944,-85.632
08496,Thomasville,Clarke County,31.913,-87.736
01506,Centre,Cherokee County,34.152,-85.679
03993,Holt,Tuscaloosa County,33.230,-87.486
02654,Elba,Coffee County,31.415,-86.068
09060,Weaver,Calhoun County,33.752,-85.811
03817,Heflin,Cleburne County,33.649,-85.587
02841,Evergreen,Conecuh County,31.433,-86.957
05766,Moulton,Lawrence County,34.481,-87.293
08747,Union Springs,Bullock County,32.144,-85.715
05248,Marion,Perry County,32.632,-87.319
04920,Livingston,Sumter County,32.584,-88.187
04581,Ladonia,Russell County,32.466,-85.089
05772,Moundville,Hale County / Tuscaloosa County,32.997,-87.628
02159,Dadeville,Tallapoosa County,32.831,-85.764
01034,Brent,Bibb County,32.937,-87.165
05998,New Hope,Madison County,34.537,-86.394
02526,Eagle Point,Shelby County,33.393,-86.676
01525,Centreville,Bibb County,32.945,-87.139
05085,Luverne,Crenshaw County,31.717,-86.264
03736,Hartford,Geneva County,31.102,-85.697
04551,La Fayette,Chambers County,32.900,-85.401
03395,Good Hope,Cullman County,34.116,-86.864
08635,Trinity,Lawrence County / Morgan County,34.597,-87.081
04877,Lineville,Clay County,33.311,-85.754
09494,York,Sumter County,32.486,-88.296
00003,Abbeville,Henry County,31.572,-85.250
00324,Ashville,St. Clair County,33.837,-86.254
01069,Brighton,Jefferson County,33.434,-86.947
02400,Dora,Walker County,33.729,-87.090
01709,Clayton,Barbour County,31.878,-85.450
08429,Taylor,Geneva County / Houston County,31.169,-85.476
05524,Midland City,Dale County,31.319,-85.494
01059,Bridgeport,Jackson County,34.948,-85.714
05743,Morris,Jefferson County,33.748,-86.809
07287,Riverside,St. Clair County,33.606,-86.204
00326,Ashford,Houston County,31.183,-85.236
04482,Kinsey,Houston County,31.299,-85.344
08154,Stapleton,Baldwin County,30.743,-87.793
03542,Greensboro,Hale County,32.705,-87.596
09251,Whitesboro,Etowah County,34.163,-86.069
08816,Vance,Bibb County / Tuscaloosa County,33.174,-87.227
00120,Aliceville,Pickens County,33.130,-88.151
07910,Slocomb,Geneva County,31.108,-85.594
01146,Brundidge,Pike County,31.720,-85.816
04888,Lipscomb,Jefferson County,33.426,-86.927
08752,Uniontown,Perry County,32.450,-87.514
01830,Collinsville,Cherokee County / DeKalb County,34.267,-85.869
02657,Elberta,Baldwin County,30.414,-87.598
08890,Vincent,Shelby County / St. Clair County / Talladega County,33.383,-86.403
00327,Ashland,Clay County,33.274,-85.836
08184,Stevenson,Jackson County,34.869,-85.839
02043,Creola,Mobile County,30.892,-88.040
03500,Graysville,Jefferson County,33.621,-86.971
05229,Marbury,Autauga County,32.701,-86.471
04872,Linden,Marengo County,32.306,-87.798
08856,Vernon,Lamar County,33.757,-88.109
09336,Wilsonville,Shelby County,33.234,-86.484
01248,Butler,Choctaw County,32.090,-88.222
01475,Cedar Bluff,Cherokee County,34.220,-85.608
07562,Samson,Geneva County,31.113,-86.046
01309,Camden,Wilcox County,31.991,-87.291
00872,Blountsville,Blount County,34.081,-86.591
07161,Rehobeth,Houston County,31.123,-85.453
02086,Crossville,DeKalb County,34.288,-85.994
08198,Stewartville,Coosa County,33.079,-86.244
08382,Sylvania,DeKalb County,34.562,-85.812
09181,Westover,Shelby County,33.350,-86.536
06724,Pine Level,Montgomery County,32.068,-86.060
03581,Grove Hill,Clarke County,31.709,-87.777
01371,Carbon Hill,Walker County,33.892,-87.526
07042,Ragland,St. Clair County,33.745,-86.156
01937,Cordova,Walker County,33.760,-87.183
07932,Smoke Rise,Blount County,33.892,-86.820
01869,Concord,Jefferson County,33.468,-87.031
06068,Newton,Dale County,31.335,-85.605
09431,Woodstock,Bibb County / Tuscaloosa County,33.218,-87.148
05167,Malvern,Geneva County,31.139,-85.519
08294,Summerdale,Baldwin County,30.488,-87.700
07312,Rock Creek,Jefferson County,33.477,-87.080
07157,Reform,Pickens County,33.378,-88.015
00890,Blue Ridge,Elmore County,32.493,-86.191
00442,Ballplay,Etowah County,34.059,-85.808
04993,Lookout Mountain,Etowah County,34.116,-85.965
02939,Fayetteville,Talladega County,33.146,-86.406
06782,Plantersville,Dallas County,32.657,-86.924
03890,Higdon,Jackson County,34.846,-85.616
00266,Ardmore,Limestone County,34.992,-86.847
05809,Mount Vernon,Mobile County,31.085,-88.013
07358,Rogersville,Lauderdale County,34.826,-87.295
02723,Elmore,Elmore County,32.539,-86.315
05848,Munford,Talladega County,33.530,-85.951
03622,Hayden,Blount County,33.893,-86.758
04847,Lillian,Baldwin County,30.413,-87.437
07826,Shoal Creek,Shelby County,33.431,-86.611
09062,Webb,Houston County,31.260,-85.273
01732,Cleveland,Blount County,33.991,-86.577
01113,Brookside,Jefferson County,33.638,-86.917
00489,Berry,Fayette County,33.660,-87.600
01745,Clio,Barbour County,31.709,-85.611
07066,Randolph,Bibb County,32.899,-86.911
08822,Vandiver,Shelby County,33.471,-86.513
08604,Town Creek,Lawrence County,34.681,-87.406
05589,Minor,Jefferson County,33.537,-86.941
01983,Cottonwood,Houston County,31.049,-85.305
00564,Bear Creek,Marion County,34.275,-87.701
03475,Grant,Marshall County,34.529,-86.253
04914,Littleville,Colbert County,34.591,-87.677
01577,Chatom,Washington County,31.465,-88.254
07937,Snead,Blount County,34.120,-86.396
06009,New Market,Madison County,34.910,-86.428
08178,Steele,St. Clair County,33.940,-86.202
01401,Carrollton,Pickens County,33.262,-88.095
01314,Camp Hill,Tallapoosa County,32.800,-85.654
05571,Millport,Lamar County,33.563,-88.081
06521,Parrish,Walker County,33.731,-87.284
06559,Pea Ridge,Shelby County,33.153,-86.928
01595,Cherokee,Colbert County,34.757,-87.973
02968,Fyffe,DeKalb County,34.447,-85.904
00167,Altoona,Blount County / Etowah County,34.040,-86.305
08893,Vinemont,Cullman County,34.242,-86.866
03987,Hollywood,Jackson County,34.724,-85.972
04771,Leesburg,Cherokee County,34.180,-85.761
03284,Geraldine,DeKalb County,34.351,-86.001
06038,New Union,Etowah County,34.134,-86.228
04804,Leroy,Washington County,31.505,-87.985
06918,Powell,DeKalb County,34.286,-85.749
07791,Shelby,Shelby County,33.110,-86.584
02641,Egypt,Etowah County,34.074,-86.156
07895,Skyline,Jackson County,34.814,-86.115
02614,Edgewater,Jefferson County,33.527,-86.958
01071,Brilliant,Marion County,34.025,-87.758
03604,Gurley,Madison County,34.702,-86.376
07969,Somerville,Morgan County,34.473,-86.799
07655,Sawyerville,Hale County,32.752,-87.729
09223,White Hall,Lowndes County,32.327,-86.712
00085,Alberta,Wilcox County,32.232,-87.410
03789,Hayneville,Lowndes County,32.184,-86.580
05842,Mulga,Jefferson County,33.550,-86.974
08975,Walnut Grove,Etowah County,34.066,-86.306
06033,New Site,Tallapoosa County,33.037,-85.774
06238,Oakman,Walker County,33.713,-87.389
02415,Douglas,Marshall County,34.174,-86.324
03978,Hollins,Clay County,33.118,-86.144
06720,Pine Hill,Wilcox County,31.980,-87.588
09433,Woodville,Jackson County,34.628,-86.274
04826,Lexington,Lauderdale County,34.969,-87.371
01835,Columbia,Houston County,31.293,-85.112
06759,Pisgah,Jackson County,34.681,-85.848
04319,Joppa,Cullman County / Marshall County,34.300,-86.550
00036,Addison,Winston County,34.202,-87.181
04738,Leighton,Colbert County,34.701,-87.529
00417,Baileyton,Cullman County,34.262,-86.613
09233,White Plains,Calhoun County,33.747,-85.689
04881,Lynn,Winston County,34.047,-87.550
08612,Trafford,Blount County / Jefferson County,33.819,-86.746
09150,West Point,Cullman County,34.239,-86.959
08927,Wadley,Randolph County,33.122,-85.566
09337,Wilton,Shelby County,33.079,-86.882
00376,Eva,Morgan County,34.332,-86.759
04484,Kinston,Coffee County,31.216,-86.171
06708,Pinckard,Dale County,31.312,-85.553
01996,Courtland,Lawrence County,34.669,-87.309
03133,Franklin,Macon County,32.478,-85.802
08796,Valley Head,DeKalb County,34.569,-85.615
07318,Rock Mills,Randolph County,33.160,-85.287
03567,Grimes,Dale County,31.305,-85.448
02372,Dodge City,Cullman County,34.041,-86.886
08213,Stockton,Baldwin County,30.994,-87.858
06214,Oak Grove,Talladega County,33.192,-86.299
02848,Excel,Monroe County,31.428,-87.341
06072,Newville,Henry County,31.422,-85.338
02882,Fairview,Cullman County,34.255,-86.688
03233,Garden City,Blount County / Cullman County,34.015,-86.749
05117,McKenzie,Butler County / Conecuh County,31.546,-86.726
00702,Berlin,Cullman County,34.181,-86.742
07276,River Falls,Covington County,31.353,-86.539
01438,Castleberry,Conecuh County,31.299,-87.022
00386,Avon,Houston County,31.189,-85.286
03764,Hatton,Lawrence County,34.563,-87.415
04931,Lockhart,Covington County,31.010,-86.350
03072,Forkland,Greene County,32.648,-87.883
07121,Red Level,Covington County,31.407,-86.612
02694,Elkmont,Limestone County,34.929,-86.974
04398,Kennedy,Lamar County,33.587,-87.984
03338,Glen Allen,Fayette County / Marion County,33.892,-87.733
08129,St. Stephens,Washington County,31.540,-88.055
05528,Midway,Bullock County,32.077,-85.522
09132,West Jefferson,Jefferson County,33.649,-87.069
03931,Hillsboro,Lawrence County,34.639,-87.192
07088,Ray,Coosa County,32.887,-86.038
05030,Louisville,Barbour County,31.784,-85.556
05565,Millerville,Clay County,33.192,-85.926
00638,Bellamy,Sumter County,32.449,-88.134
08704,Twin,Marion County,34.006,-87.857
07329,Rockford,Coosa County,32.890,-86.220
07488,Rutledge,Crenshaw County,31.730,-86.310
02509,Dutton,Jackson County,34.611,-85.917
00284,Arley,Winston County,34.079,-87.212
00980,Boykin,Wilcox County,32.078,-87.281
06605,Pennington,Choctaw County,32.207,-88.056
08494,Thomaston,Marengo County,32.267,-87.625
08888,Vina,Franklin County,34.376,-88.059
07819,Shiloh,DeKalb County,34.463,-85.878
05460,Mentone,DeKalb County,34.580,-85.591
09196,Whatley,Clarke County,31.651,-87.705
05341,Maytown,Jefferson County,33.536,-86.997
01994,County Line,Blount County / Jefferson County,33.821,-86.719
02117,Cuba,Sumter County,32.428,-88.376
03413,Gordon,Houston County,31.141,-85.097
01391,Carolina,Covington County,31.241,-86.528
02433,Dozier,Crenshaw County,31.492,-86.365
01840,Colony,Cullman County,33.941,-86.902
03419,Goshen,Pike County,31.723,-86.118
04676,Langston,Jackson County,34.539,-86.074
05138,Madrid,Houston County,31.036,-85.393
06726,Pine Ridge,DeKalb County,34.440,-85.784
03965,Hodges,Franklin County,34.327,-87.926
01794,Coffeeville,Clarke County,31.758,-88.090
02285,Delta,Clay County,33.440,-85.691
07615,Sanford,Covington County,31.298,-86.389
00206,Anderson,Lauderdale County,34.928,-87.266
08948,Waldo,Talladega County,33.380,-86.027
03415,Gordonville,Lowndes County,32.152,-86.715
03810,Heath,Covington County,31.361,-86.470
00073,Akron,Hale County,32.877,-87.743
00798,Black,Geneva County,31.009,-85.744
02312,Detroit,Lamar County,34.028,-88.170
08367,Sweet Water,Marengo County,32.097,-87.868
09411,Woodland,Randolph County,33.374,-85.400
03195,Fulton,Clarke County,31.788,-87.727
08080,Spruce Pine,Franklin County,34.392,-87.726
05798,Mount Olive,Coosa County,33.070,-86.135
02633,Edwardsville,Cleburne County,33.707,-85.509
00578,Beatrice,Monroe County,31.733,-87.205
05383,McIntosh,Washington County,31.266,-88.031
03148,Fredonia,Chambers County,32.990,-85.289
03227,Gantt,Covington County,31.407,-86.484
03185,Fruitdale,Washington County,31.343,-88.408
03961,Hobson,Washington County,31.472,-88.153
00630,Belk,Fayette County,33.648,-87.931
05909,Nauvoo,Walker County / Winston County,33.984,-87.485
09026,Waterloo,Lauderdale County,34.918,-88.064
00593,Beaverton,Lamar County,33.931,-88.020
06458,Paint Rock,Jackson County,34.661,-86.329
04352,Kansas,Walker County,33.902,-87.552
05112,Macedonia,Pickens County,33.392,-88.233
08737,Union,Greene County,32.988,-87.915
02217,Daviston,Tallapoosa County,33.053,-85.640
03206,Gainesville,Sumter County,32.821,-88.159
02563,East Point,Cullman County,34.183,-86.794
06995,Putnam,Marengo County,32.023,-88.031
08053,Spring Garden,Cherokee County,33.973,-85.554
00929,Bon Air,Talladega County,33.264,-86.336
06981,Providence,Marengo County,32.342,-87.781
07290,Riverview,Escambia County,31.060,-87.060
04641,Lakeview,DeKalb County,34.391,-85.978
00455,Banks,Pike County,31.815,-85.843
03367,Glenwood,Crenshaw County,31.665,-86.171
09046,Waverly,Chambers County / Lee County / Tallapoosa County,32.730,-85.571
02145,Cusseta,Chambers County,32.785,-85.306
06373,Orrville,Dallas County,32.306,-87.246
02253,Deer Park,Washington County,31.217,-88.317
06049,Newbern,Hale County,32.593,-87.533
02668,Eldridge,Walker County,33.923,-87.617
06843,Pollard,Escambia County,31.027,-87.174
06694,Pikeville,Jackson County,34.744,-86.039
03000,Five Points,Chambers County,33.018,-85.350
04778,Lester,Limestone County,34.991,-87.153
04835,Libertyville,Covington County,31.242,-86.461
06487,Panola,Sumter County,32.951,-88.269
05172,Manchester,Walker County,33.906,-87.301
03438,Graham,Randolph County,33.458,-85.321
05160,Malcolm,Washington County,31.191,-88.007
06640,Peterman,Monroe County,31.585,-87.259
07246,Ridgeville,Etowah County,34.056,-86.102
00892,Blue Springs,Barbour County,31.664,-85.507
02997,Fitzpatrick,Bullock County,32.217,-85.889
08142,Standing Rock,Chambers County,33.080,-85.253
06617,Penton,Chambers County,33.007,-85.466
05920,Needham,Choctaw County,31.988,-88.337
01302,Calvert,Mobile County / Washington County,31.150,-88.022
08743,Union Grove,Marshall County,34.402,-86.449
02786,Equality,Coosa County,32.762,-86.102
06646,Petrey,Crenshaw County,31.849,-86.208
03680,Hanover,Coosa County,33.005,-86.202
08523,Tibbie,Washington County,31.362,-88.249
05436,Megargel,Monroe County,31.380,-87.428
01379,Carlton,Clarke County,31.343,-87.846
01373,Cardiff,Jefferson County,33.646,-86.934
05706,Mooresville,Limestone County,34.628,-86.880
00692,Benton,Lowndes County,32.307,-86.818
04788,Lenox,Conecuh County,31.337,-87.186
05907,Natural Bridge,Winston County,34.093,-87.602
03531,Greenbrier,Limestone County,34.671,-86.844
02226,Dayton,Marengo County,32.351,-87.642
05394,McMullen,Pickens County,33.149,-88.176
05446,Memphis,Pickens County,33.137,-88.298
06218,Oak Hill,Wilcox County,31.921,-87.083
01174,Bucks,Mobile County,31.010,-88.024
00006,Abel,Cleburne County,33.549,-85.713
00007,Abercrombie,Bibb County,32.849,-87.165
00009,Aberfoil,Bullock County,32.071,-85.688
00010,Abernathy,Cleburne County,33.651,-85.407
00022,Ackerville,Wilcox County,32.030,-87.066
00027,Acton,Jefferson County,33.427,-86.735
00027,Acton,Shelby County,33.356,-86.807
00028,Ada,Montgomery County,32.106,-86.276
00031,Adams Crossroads,Cherokee County,34.078,-85.488
00032,Adamsburg,DeKalb County,34.399,-85.672
00042,Adger,Jefferson County,33.377,-87.094
00043,Adler,Perry County,32.763,-87.168
00062,Ai,Cleburne County,33.650,-85.447
00065,Aimwell,Marengo County,32.122,-87.906
00086,Alberton,Coffee County,31.278,-86.126
00099,Aldrich,Shelby County,33.108,-86.891
00107,Alexis,Cherokee County,34.179,-85.512
00108,Alfalfa,Marengo County,32.510,-87.764
00131,Allenton,Wilcox County,31.937,-87.053
00142,Alma,Clarke County,31.464,-87.753
00149,Almond,Randolph County,33.146,-85.622
00154,Alpine,DeKalb County,34.505,-85.610
00154,Alpine,Talladega County,33.349,-86.239
00165,Alton,Jefferson County,33.579,-86.638
00206,Anderson,Etowah County,34.071,-85.921
00232,Antioch,Bibb County,32.945,-86.999
00232,Antioch,Cherokee County,34.231,-85.638
00232,Antioch,Clarke County,31.624,-87.855
00232,Antioch,Covington County,31.386,-86.383
00271,Argo,Walker County,33.801,-87.117
00278,Arkadelphia,Cullman County,33.905,-86.963
00282,Arkwright,Shelby County,33.371,-86.403
00285,Arlington,Wilcox County,32.057,-87.589
00312,Asbury,Dale County,31.512,-85.545
00312,Asbury,Marshall County,34.378,-86.126
00357,Atwood,Franklin County,34.361,-87.995
00376,Ava,Randolph County,33.343,-85.478
00453,Bangor,Blount County,33.974,-86.757
00456,Bankston,Fayette County,33.671,-87.671
00476,Barnes,Dale County,31.543,-85.674
00485,Barnwell,Baldwin County,30.421,-87.877
00495,Barrytown,Choctaw County,31.837,-88.253
00501,Barton,Colbert County,34.739,-87.891
00511,Basham,Morgan County,34.515,-87.018
00513,Basin,Coffee County,31.342,-86.131
00514,Bass,Jackson County,34.932,-85.913
00522,Batesville,Barbour County,32.009,-85.311
00583,Beauregard,Lee County,32.543,-85.371
00587,Beaver Creek,Marengo County,32.171,-87.880
00648,Belleville,Conecuh County,31.430,-87.109
00662,Bellwood,Geneva County,31.173,-85.793
00664,Belmont,Sumter County,32.559,-87.942
00665,Beloit,Dallas County,32.212,-87.085
00678,Benevola,Pickens County,33.141,-88.039
00687,Benoit,Walker County,33.754,-87.157
00705,Bermuda,Conecuh County,31.488,-87.188
00720,Bertha,Dale County,31.541,-85.428
00727,Bethel,Wilcox County,32.141,-87.475
00748,Big Creek,Houston County,31.069,-85.434
00781,Byrd,Marion County,34.080,-88.132
00784,Birdsong,Cullman County,34.245,-86.647
00800,Black Bottom,Cullman County,33.948,-86.860
00896,Bluff,Fayette County,33.821,-87.906
00901,Bluffton,Cherokee County,34.007,-85.440
00914,Bogue Chitto,Dallas County,32.366,-87.304
00923,Bolling,Butler County,31.726,-86.706
00924,Bolivar,Jackson County,34.913,-85.775
00946,Booth,Autauga County,32.500,-86.572
00982,Boylston,Montgomery County,32.428,-86.279
00992,Bradford,Jefferson County,33.752,-86.704
00997,Braggs,Lowndes County,32.051,-86.796
01098,Bromley,Baldwin County,30.739,-87.868
01109,Brooklyn,Coffee County,31.313,-86.171
01109,Brooklyn,Conecuh County,31.263,-86.771
01109,Brooklyn,Cullman County,34.226,-86.615
01112,Brooks,Covington County,31.482,-86.685
01115,Brooksville,Blount County,34.162,-86.476
01115,Brooksville,Morgan County,34.501,-86.855
01126,Browns,Dallas County,32.437,-87.366
01131,Brownsboro,Madison County,34.749,-86.443
01135,Brownsville,Clay County,33.126,-86.047
01176,Bucksnort,Marshall County,34.503,-86.304
01185,Buhl,Tuscaloosa County,33.257,-87.753
01187,Buena Vista,Monroe County,31.793,-87.259
01197,Bug Tussle,Cullman County,33.994,-86.970
01225,Burlington,Elmore County,32.580,-85.939
01232,Burnsville,Dallas County,32.474,-86.892
01234,Burnwell,Walker County,33.708,-87.088
01270,Caddo,Lawrence County,34.569,-87.140
01288,Calhoun,Lowndes County,32.050,-86.545
01317,Campbell,Clarke County,31.926,-87.981
01348,Canoe,Escambia County,31.026,-87.412
01366,Capps,Henry County,31.497,-85.312
01395,Carpenter's Station,Mobile County,30.857,-87.866
01411,Cartersville,DeKalb County,34.356,-86.079
01454,Catherine,Wilcox County,32.185,-87.469
01471,Cecil,Montgomery County,32.303,-86.009
01501,Seale,Russell County,32.297,-85.169
01519,Centerville,Conecuh County,31.400,-86.879
01520,Central,Elmore County,32.682,-86.097
01521,Central City,Coffee County,31.243,-85.885
01541,Chalybeate Springs,Lawrence County,34.565,-87.227
01552,Chancellor,Geneva County,31.182,-85.877
01559,Chapel Hill,Covington County,31.029,-86.231
01562,Chapman,Butler County,31.671,-86.712
01575,Chase,Madison County,34.783,-86.547
01635,China Grove,Pike County,32.030,-85.945
01660,Church Hill,Tallapoosa County,32.648,-85.748
01706,Clay City,Baldwin County,30.486,-87.807
01708,Claysville,Marshall County,34.408,-86.272
01741,Clinton,Greene County,32.914,-87.993
01744,Clintonville,Coffee County,31.407,-85.894
01747,Clopton,Dale County,31.609,-85.430
01753,Cloverdale,Lauderdale County,34.939,-87.771
01753,Cloverdale,Mobile County,30.502,-88.389
01753,Cloverdale,Shelby County,33.453,-86.386
01768,Coal Valley,Walker County,33.740,-87.418
01769,Coalburg,Jefferson County,33.594,-86.857
01788,Cochrane,Pickens County,33.366,-88.120
01884,Congo,Cherokee County,34.311,-85.651
01942,Corinth,Bullock County,31.904,-85.754
01942,Corinth,Clay County,33.205,-85.692
01942,Corinth,Cullman County,34.304,-87.073
01942,Corinth,Randolph County,33.168,-85.558
01942,Corinth,Walker County,33.785,-87.203
01950,Corner,Jefferson County,33.800,-86.942
01957,Corona,Walker County,33.708,-87.469
01982,Cottonville,Marshall County,34.453,-86.336
02011,Coy,Wilcox County,31.895,-87.463
02031,Crawford,Mobile County,30.764,-88.228
02031,Crawford,Russell County,32.457,-85.190
02070,Cromwell,Choctaw County,32.229,-88.274
02077,Crosby,Houston County,31.039,-85.086
02081,Cross Keys,Macon County,32.334,-85.893
02084,Crossroads,Baldwin County,30.835,-87.861
02138,Curry,Pike County,31.941,-86.044
02138,Curry,Talladega County,33.486,-86.017
02138,Curry,Walker County,33.954,-87.214
02141,Curtis,Coffee County,31.398,-86.157
02177,Damascus,Coffee County,31.321,-86.004
02177,Damascus,Cullman County,33.975,-86.875
02183,Dancy,Pickens County,33.011,-88.293
02195,Danville,Morgan County,34.414,-87.088
02197,Darrah,Hale County,32.856,-87.788
02221,Dawson,DeKalb County,34.304,-85.926
02279,Delmar,Winston County,34.170,-87.606
02336,Dickinson,Clarke County,31.763,-87.710
02342,Dillard,Dale County,31.518,-85.695
02363,Dixonville,Escambia County,31.001,-87.036
02378,Dogtown,DeKalb County,34.353,-85.737
02378,Dogtown,Walker County,33.948,-87.567
02381,Dolomite,Jefferson County,33.463,-86.961
02460,Dublin,Montgomery County,32.032,-86.159
02467,Dudleyville,Tallapoosa County,32.915,-85.600
02482,Duncanville,Tuscaloosa County,33.062,-87.442
02484,Dundee,Geneva County,31.121,-85.672
02599,Echo,Dale County,31.476,-85.466
02602,Eddy,Marshall County,34.355,-86.509
02629,Edna,Choctaw County,32.287,-88.074
02641,Egypt,Marshall County,34.344,-86.534
02671,Elgin,Lauderdale County,34.849,-87.391
02708,Ellisville,Cherokee County,34.065,-85.610
02728,Elrod,Tuscaloosa County,33.256,-87.792
02751,Empire,Walker County,33.808,-87.011
02797,Escatawpa,Washington County,31.290,-88.387
02841,Evergreen,Autauga County,32.552,-86.758
02845,Ewell,Dale County,31.422,-85.575
02854,Exmoor,Marengo County,32.057,-87.874
02870,Fairfield,Covington County,31.252,-86.646
02992,Fishtrap,Talladega County,33.490,-86.241
03010,Flat Top,Jefferson County,33.666,-87.024
03041,Folsom,Perry County,32.682,-87.406
03041,Folsom,Randolph County,33.454,-85.550
03050,Ford City,Colbert County,34.786,-87.529
03063,Forest Home,Butler County,31.862,-86.843
03076,Forney,Cherokee County,34.086,-85.462
03080,Fort Davis,Macon County,32.243,-85.710
03086,Fort Mitchell,Russell County,32.342,-85.022
03087,Fort Morgan,Baldwin County,30.229,-88.023
03100,Fosters,Tuscaloosa County,33.095,-87.686
03115,Fourmile,Shelby County,33.249,-86.553
03127,Francisco,Jackson County,34.987,-86.249
03132,Frankfort,Franklin County,34.563,-87.842
03133,Franklin,Monroe County,31.715,-87.411
03141,Frankville,Washington County,31.647,-88.147
03176,Frisco,Coffee County,31.596,-85.866
03198,Furman,Wilcox County,32.007,-86.967
03242,Garland,Butler County,31.557,-86.823
03283,Gerald,Dale County,31.324,-85.757
03363,Glenville,Russell County,32.129,-85.177
03382,Gold Hill,Lee County,32.722,-85.508
03397,Good Springs,Limestone County,34.947,-87.194
03402,Goodman,Coffee County,31.280,-85.994
03405,Goodsprings,Walker County,33.669,-87.232
03420,Gosport,Clarke County,31.582,-87.586
03428,Graball,Henry County,31.587,-85.276
03434,Grady,Montgomery County,31.995,-86.201
03488,Grassy,Lauderdale County,34.971,-87.300
03488,Grassy,Marshall County,34.354,-86.437
03509,Green Bay,Covington County,31.178,-86.289
03513,Green Hill,Lauderdale County,34.973,-87.512
03522,Green Pond,Bibb County,33.225,-87.126
03637,Half Acre,Marengo County,32.195,-87.912
03652,Halltown,Franklin County,34.453,-88.061
03655,Hamburg,Perry County,32.528,-87.286
03666,Hampden,Marengo County,32.082,-87.629
03718,Harrell,Dallas County,32.443,-87.216
03764,Hatton,Colbert County,34.756,-87.485
03768,Havana,Hale County,32.895,-87.620
03834,Henderson,Pike County,31.667,-86.073
03859,Heron Bay,Mobile County,30.354,-88.130
03898,High Ridge,Bullock County,32.063,-85.895
03926,Hilliard,Walker County,33.854,-87.183
03960,Hoboken,Marengo County,32.026,-87.877
03961,Hobson,Randolph County,33.281,-85.407
03967,Hog Jaw,Marshall County,34.332,-86.560
04015,Hooks,Russell County,32.192,-85.233
04021,Hopeful,Talladega County,33.494,-85.912
04024,Hopewell,Blount County,34.256,-86.468
04024,Hopewell,Cherokee County,34.201,-85.729
04024,Hopewell,Cleburne County,33.632,-85.383
04024,Hopewell,DeKalb County,34.374,-86.047
04024,Hopewell,Jefferson County,33.361,-86.939
04024,Hopewell,Lee County,32.525,-85.302
04050,Houston,Winston County,34.141,-87.258
04054,Howard,Fayette County,33.854,-87.567
04080,Hugo,Marengo County,32.267,-87.689
04099,Hurley,Cherokee County,34.275,-85.623
04101,Hurricane,Baldwin County,30.841,-87.902
04157,Industry,Butler County,31.604,-86.613
04175,Ino,Coffee County,31.271,-86.095
04177,Intercourse,Sumter County,32.416,-88.240
04182,Inverness,Bullock County,32.015,-85.746
04182,Inverness,Shelby County,33.407,-86.711
04195,Iron City,Calhoun County,33.668,-85.664
04205,Irvington,Mobile County,30.507,-88.234
04208,Isabella,Chilton County,32.828,-86.787
04229,Jack,Coffee County,31.574,-86.000
04257,Java,Coffee County,31.558,-85.844
04263,Jefferson,Marengo County,32.386,-87.898
04267,Jena,Greene County,33.131,-87.847
04275,Jericho,Perry County,32.774,-87.275
04301,Johnsonville,Conecuh County,31.295,-86.872
04311,Jones,Autauga County,32.584,-86.897
04317,Jonesville,Pike County,31.893,-85.904
04322,Josephine,Baldwin County,30.327,-87.531
04324,Josie,Pike County,31.870,-85.719
04335,Jumbo,Chilton County,32.967,-86.591
04366,Keyton,Coffee County,31.283,-85.826
04371,Keener,Etowah County,34.156,-85.951
04376,Kelly,Dale County,31.324,-85.655
04407,Kent,Elmore County,32.619,-85.949
04407,Kent,Pike County,31.953,-86.175
04410,Kentuck,Talladega County,33.531,-85.831
04433,Key,Cherokee County,34.102,-85.534
04455,Kimbrell,Jefferson County,33.276,-87.067
04474,Kingston,Autauga County,32.574,-86.601
04523,Knoxville,Greene County,32.992,-87.791
04648,Lawley,Bibb County,32.859,-86.951
04692,Larkin,Jackson County,34.909,-86.215
04702,Latham,Baldwin County,31.085,-87.834
04733,Lawrenceville,Henry County,31.658,-85.269
04739,Le Grand,Montgomery County,32.163,-86.269
04831,Liberty,Pickens County,33.476,-88.170
04833,Liberty Grove,Randolph County,33.353,-85.429
04834,Liberty Hill,Cleburne County,33.849,-85.573
04834,Liberty Hill,Etowah County,34.178,-86.030
04834,Liberty Hill,Franklin County,34.347,-87.765
04834,Liberty Hill,Jackson County,34.828,-85.714
04834,Liberty Hill,Talladega County,33.170,-86.199
04902,Little Hope,Bibb County,33.007,-87.282
04905,Little River,Baldwin County,31.257,-87.709
04905,Little River,Cherokee County,34.281,-85.673
04908,Little Texas,Macon County,32.443,-85.568
04924,Lloyds,Mobile County,30.618,-88.128
04948,Logan,Cullman County,34.138,-87.006
04976,Long Island,Jackson County,34.770,-85.694
05001,Loree,Conecuh County,31.488,-87.109
05058,Lucille,Bibb County,33.088,-87.147
05063,Lucy,Houston County,31.020,-85.041
05078,Lupton,Walker County,33.936,-87.397
05125,Macon,Calhoun County,33.731,-86.077
05140,McGhee,Cherokee County,34.168,-85.733
05144,Magnolia,Marengo County,32.136,-87.660
05181,Manila,Dallas County,32.448,-86.921
05182,Manistee,Monroe County,31.441,-87.494
05201,Mantua,Greene County,33.054,-87.929
05239,Marengo,Marengo County,32.057,-87.814
05260,Marlow,Baldwin County,30.461,-87.799
05266,Mars Hill,Lauderdale County,34.852,-87.661
05286,Marvel,Bibb County,33.147,-87.003
05287,Marvyn,Lee County,32.439,-85.364
05302,Massey,Morgan County,34.370,-87.022
05310,Mathews,Montgomery County,32.265,-86.004
05319,Maud,Bibb County,32.880,-86.982
05319,Maud,Colbert County,34.643,-88.110
05340,Maysville,Madison County,34.770,-86.430
05368,McRae,Covington County,31.059,-86.261
05369,McCullough,Escambia County,31.167,-87.526
05371,McDade,Montgomery County,32.316,-86.046
05387,McKinley,Marengo County,32.298,-87.540
05404,McWilliams,Wilcox County,31.831,-87.094
05445,Melvin,Choctaw County,31.931,-88.459
05491,Mexia,Monroe County,31.507,-87.388
05529,Miflin,Baldwin County,30.371,-87.611
05575,Milltown,Chambers County,33.054,-85.485
05582,Milstead,Macon County,32.443,-85.897
05662,Monrovia,Madison County,34.786,-86.714
05688,Montrose,Baldwin County,30.565,-87.894
05726,Morgan City,Marshall County,34.472,-86.570
05753,Moscow,Lamar County,33.870,-88.103
05753,Moscow,Marengo County,32.438,-87.996
05785,Mount Hebron,Greene County,32.874,-88.080
05785,Mount Hebron,Marshall County,34.142,-86.289
05788,Mount Hope,Lawrence County,34.458,-87.482
05788,Mount Hope,Walker County,33.769,-87.241
05806,Mount Sterling,Choctaw County,32.094,-88.163
05839,Mulberry,Autauga County,32.459,-86.776
05839,Mulberry,Chilton County,32.671,-86.718
05839,Mulberry,Crenshaw County,31.595,-86.434
05902,Natchez,Monroe County,31.728,-87.261
05914,Neel,Morgan County,34.466,-87.061
05921,Needmore,Pike County,31.902,-85.941
05928,Nelson,Shelby County,33.215,-86.581
05968,New Castle,Jefferson County,33.649,-86.769
06003,New Lexington,Tuscaloosa County,33.562,-87.657
06007,New London,St. Clair County,33.482,-86.359
06053,Newell,Randolph County,33.433,-85.434
06070,Newtonville,Fayette County,33.545,-87.801
06080,Nicholsville,Marengo County,32.008,-87.902
06101,Nokomis,Escambia County,31.010,-87.565
06208,Oak,Baldwin County,30.318,-87.706
06234,Oakland,Chambers County,33.014,-85.239
06234,Oakland,Lauderdale County,34.842,-87.799
06234,Oakland,Limestone County,34.729,-86.807
06242,Oakville,Lawrence County,34.445,-87.162
06259,Octagon,Marengo County,32.204,-87.755
06290,Old Salem,Monroe County,31.540,-87.406
06316,Olney,Pickens County,33.141,-88.039
06319,Omaha,Randolph County,33.303,-85.310
06360,Orion,Pike County,31.959,-86.006
06383,Osborn,Perry County,32.684,-87.143
06400,Otho,Henry County,31.690,-85.130
06438,Oyster Bay,Baldwin County,30.286,-87.743
06474,Palmetto,Pickens County,33.484,-87.978
06487,Panola,Crenshaw County,31.972,-86.389
06537,Patton,Walker County,33.701,-87.455
06546,Paul,Conecuh County,31.320,-86.744
06599,Pence,Morgan County,34.449,-86.759
06608,Pennsylvania,Mobile County,30.873,-88.047
06633,Perryville,Perry County,32.617,-87.114
06640,Peterman,Houston County,31.200,-85.479
06643,Peterson,Tuscaloosa County,33.233,-87.424
06659,Phelan,Cullman County,34.133,-86.817
06696,Pilgrims Rest,Etowah County,33.917,-86.013
06704,Pin Hook,Marengo County,32.358,-87.872
06710,Pinckneyville,Clay County,33.107,-85.959
06717,Pine Flat,Butler County,31.839,-86.889
06718,Pine Grove,Baldwin County,30.834,-87.741
06724,Pine Level,Coffee County,31.476,-86.186
06754,Piper,Bibb County,33.089,-87.041
06764,Pittsburg,Lawrence County,34.525,-87.206
06793,Pleasant Gap,Cherokee County,33.987,-85.520
06795,Pleasant Hill,Dallas County,32.166,-86.912
06801,Pleasant Plains,Houston County,31.304,-85.230
06803,Pleasant Ridge,Greene County,33.014,-88.084
06816,Plevna,Madison County,34.962,-86.417
06865,Pope,Marengo County,32.063,-87.624
06897,Possum Trot,Calhoun County,33.871,-85.752
06931,Prairie,Wilcox County,32.154,-87.440
06942,Prairieville,Hale County,32.510,-87.694
06953,Prescott,St. Clair County,33.568,-86.446
06962,Pride,Colbert County,34.724,-87.821
06965,Princeton,Jackson County,34.843,-86.243
07020,Quinton,Walker County,33.672,-87.067
07023,Rabb,Conecuh County,31.439,-86.881
07034,Radford,Perry County,32.589,-87.200
07045,Rainbow,Madison County,34.752,-86.736
07053,Ralph,Tuscaloosa County,33.042,-87.769
07057,Ramer,Montgomery County,32.051,-86.221
07068,Range,Conecuh County,31.313,-87.236
07089,Rayburn,Marshall County,34.349,-86.267
07118,Red Hill,Marshall County,34.256,-86.424
07121,Red Level,Chambers County,33.090,-85.478
07121,Red Level,Montgomery County,32.134,-86.223
07168,Rembert,Marengo County,32.218,-87.870
07172,Renfroe,Talladega County,33.431,-86.202
07201,Rhodesville,Lauderdale County,34.872,-87.871
07204,Rome,Covington County,31.142,-86.669
07217,Richburg,Coffee County,31.397,-85.961
07225,Richmond,Dallas County,32.114,-87.055
07234,Riderwood,Choctaw County,32.129,-88.328
07268,Ryan,Shelby County,33.168,-86.867
07281,River Ridge,Monroe County,31.714,-87.313
07321,Rock Run,Cherokee County,34.028,-85.495
07340,Rockville,Clarke County,31.420,-87.843
07355,Roeton,Coffee County,31.598,-85.835
07373,Romulus,Tuscaloosa County,33.148,-87.752
07382,Rosalie,Jackson County,34.700,-85.769
07390,Rose Hill,Covington County,31.449,-86.339
07392,Rosebud,Wilcox County,31.941,-87.137
07427,Round Mountain,Cherokee County,34.216,-85.684
07439,Roxana,Lee County,32.687,-85.669
07483,Ruth,Marshall County,34.364,-86.557
07498,Saco,Pike County,31.955,-85.821
07505,Safford,Dallas County,32.288,-87.371
07508,Saginaw,Shelby County,33.216,-86.792
07558,Samantha,Tuscaloosa County,33.422,-87.605
07602,Sandtown,Tuscaloosa County,33.590,-87.492
07610,Sandy Ridge,Lowndes County,32.025,-86.452
07639,Sardis,Dallas County,32.288,-86.986
07661,Sayre,Jefferson County,33.712,-86.974
07690,Scottland,Bullock County,32.027,-85.706
07700,Screamer,Henry County,31.726,-85.176
07707,Seacliff,Baldwin County,30.545,-87.903
07711,Seman,Elmore County,32.733,-86.112
07736,Seminole,Baldwin County,30.515,-87.474
07758,Shady Grove,Pike County,31.910,-86.162
07767,Shannon,Jefferson County,33.405,-86.872
07819,Shiloh,Marengo County,32.127,-87.735
07838,Shreve,Conecuh County,31.510,-86.707
07873,Simcoe,Cullman County,34.224,-86.734
07886,Six Mile,Morgan County,34.424,-86.756
07927,Smithsonia,Lauderdale County,34.794,-87.879
07944,Snow Hill,Wilcox County,32.005,-87.007
07946,Snowdoun,Montgomery County,32.242,-86.296
07952,Society Hill,Macon County,32.427,-85.445
08056,Spring Hill,Barbour County,32.079,-85.337
08056,Spring Hill,Butler County,31.873,-86.574
08056,Spring Hill,Choctaw County,31.947,-88.137
08056,Spring Hill,Conecuh County,31.363,-86.789
08056,Spring Hill,Cullman County,34.194,-86.956
08056,Spring Hill,Escambia County,31.108,-87.035
08056,Spring Hill,Pike County,31.691,-85.961
08056,Spring Hill,Walker County,33.977,-87.558
08062,Spring Valley,Colbert County,34.657,-87.617
08068,Springhill,Clay County,33.310,-85.922
08075,Sprott,Perry County,32.677,-87.221
08098,St. Elmo,Mobile County,30.504,-88.254
08151,Stanton,Chilton County,32.736,-86.899
08194,Stewart,Hale County,32.911,-87.706
08198,Stewartville,Lauderdale County,34.948,-87.869
08250,Straughn,Covington County,31.388,-86.418
08258,Stroud,Chambers County,33.055,-85.331
08292,Sulphur Springs,DeKalb County,34.697,-85.580
08295,Summerfield,Dallas County,32.521,-87.042
08299,Summit,Blount County,34.204,-86.494
08305,Sumterville,Sumter County,32.712,-88.239
08320,Sunflower,Washington County,31.383,-88.008
08347,Suttle,Perry County,32.536,-87.180
08369,Swift,Baldwin County,30.376,-87.626
08376,Sycamore,Talladega County,33.251,-86.203
08380,Sylvan Grove,Dale County,31.354,-85.466
08388,Tabernacle,Coffee County,31.451,-85.871
08414,Tanner,Limestone County,34.731,-86.971
08435,Taylorville,Tuscaloosa County,33.143,-87.547
08451,Ten Broeck,DeKalb County,34.418,-85.987
08456,Tennille,Pike County,31.623,-85.768
08470,Texas,Marion County,33.930,-87.679
08486,Theba,Crenshaw County,31.556,-86.304
08497,Thompson,Bullock County,32.185,-85.818
08553,Titus,Elmore County,32.712,-86.318
08578,Toney,Madison County,34.898,-86.734
08606,Townley,Walker County,33.829,-87.432
08624,Trenton,Jackson County,34.745,-86.252
08629,Trickem,Cleburne County,33.556,-85.411
08629,Trickem,Lowndes County,32.274,-86.747
08633,Trimble,Cullman County,34.093,-86.949
08716,Tyler,Dallas County,32.339,-86.880
08739,Union Church,Mobile County,30.566,-88.344
08744,Union Hill,Morgan County,34.474,-86.622
08779,Vaiden,Perry County,32.520,-87.371
08845,Verbena,Chilton County,32.753,-86.512
08864,Veto,Limestone County,34.994,-86.989
08870,Victoria,Coffee County,31.530,-85.938
08874,Vienna,Pickens County,33.019,-88.192
08892,Vineland,Marengo County,32.036,-87.659
08938,Wainwright,Monroe County,31.649,-87.487
08944,Wald,Butler County,31.758,-86.666
08981,Walter,Cullman County,34.119,-86.677
08994,Ward,Sumter County,32.362,-88.278
09006,Warrenton,Marshall County,34.357,-86.359
09009,Warsaw,Sumter County,32.938,-88.203
09014,Washington,Autauga County,32.408,-86.459
09034,Watson,Jefferson County,33.634,-86.879
09036,Wattsville,St. Clair County,33.681,-86.280
09037,Waugh,Montgomery County,32.365,-86.045
09050,Wayne,Marengo County,32.106,-87.801
09071,Weedville,Crenshaw County,31.519,-86.223
09079,Welch,Chambers County,33.088,-85.339
09087,Wellington,Calhoun County,33.822,-85.893
09126,West Greene,Greene County,32.924,-88.085
09200,Wheeler,Lawrence County,34.653,-87.250
09208,Whistler,Mobile County,30.757,-88.103
09218,White City,Cullman County,34.093,-86.774
09230,White Oak,Henry County,31.769,-85.153
09233,White Plains,Chambers County,32.992,-85.399
09267,Whitney,St. Clair County,33.868,-86.291
09268,Whiton,DeKalb County,34.356,-86.079
09279,Wiggins,Covington County,31.316,-86.329
09283,Wilburn,Cullman County,33.952,-87.034
09328,Wilmer,Mobile County,30.823,-88.361
09348,Wing,Covington County,31.028,-86.611
09414,Woodland Mills,Morgan County,34.474,-86.695
09451,Wren,Lawrence County,34.434,-87.294
09452,Wright,Lauderdale County,34.909,-87.990
09486,Yellow Pine,Washington County,31.406,-88.430
09505,Youngtown,Lawrence County,34.483,-87.355
09526,Zion,Pickens County,33.421,-87.877