phoneme,name,county,latitude,longitude
2466,Jackson,Hinds County,32.316,-90.213
2087,Gulfport,Harrison County,30.367,-89.093
3667,Olive Branch,DeSoto County,34.962,-89.830
5033,Tupelo,Lee County,34.258,-88.703
3194,Meridian,Lauderdale County,32.364,-88.704
2060,Greenville,Washington County,33.410,-91.062
2990,Madison,Madison County,32.462,-90.115
1012,Clinton,Hinds County,32.342,-90.322
3829,Pearl,Rankin County,32.275,-90.132
3749,Oxford,Lafayette County,34.367,-89.519
0564,Brandon,Rankin County,32.273,-89.986
4751,Starkville,Oktibbeha County,33.450,-88.818
4213,Ridgeland,Madison County,32.428,-90.132
1081,Columbus,Lowndes County,33.496,-88.427
5139,Vicksburg,Warren County,32.353,-90.878
2248,Hernando,DeSoto County,34.824,-89.994
2755,Laurel,Jones County,31.694,-89.131
2891,Long Beach,Harrison County,30.350,-89.153
0980,Clarksdale,Coahoma County,34.200,-90.571
1117,Corinth,Alcorn County,34.934,-88.522
2062,Greenwood,Leflore County,33.516,-90.180
3442,Natchez,Adams County,31.560,-91.403
2065,Grenada,Grenada County,33.769,-89.808
0709,Byram,Hinds County,32.179,-90.245
3121,McComb,Pike County,31.244,-90.453
0619,Brookhaven,Lincoln County,31.579,-90.441
1007,Cleveland,Bolivar County,33.744,-90.725
0764,Canton,Madison County,32.613,-90.037
5313,West Point,Clay County,33.608,-88.650
2421,Indianola,Sunflower County,33.451,-90.655
0527,Booneville,Prentiss County,34.658,-88.567
4718,St. Martin,Jackson County,30.438,-88.868
3464,New Albany,Union County,34.494,-89.008
0294,Batesville,Panola County,34.312,-89.944
4201,Richland,Rankin County,32.239,-90.158
5250,Waveland,Hancock County,30.287,-89.376
2637,Kosciusko,Attala County,33.058,-89.588
3875,Philadelphia,Neshoba County,32.772,-89.117
2329,Holly Springs,Marshall County,34.768,-89.449
2750,Latimer,Jackson County,30.535,-88.867
2927,Louisville,Winston County,33.124,-89.055
1070,Columbia,Marion County,31.252,-89.838
0807,Carthage,Leake County,32.733,-89.536
3995,Pontotoc,Pontotoc County,34.248,-88.999
4231,Ripley,Tippah County,34.730,-88.951
1753,Forest,Scott County,32.365,-89.474
4399,Saltillo,Lee County,34.376,-88.682
0004,Aberdeen,Monroe County,33.825,-88.544
1209,Crystal Springs,Copiah County,31.987,-90.357
1736,Florence,Rankin County,32.153,-90.131
5255,Waynesboro,Wayne County,31.675,-88.646
1552,Ellisville,Jones County,31.604,-89.196
5445,Winona,Montgomery County,33.482,-89.728
5393,Wiggins,Stone County,30.858,-89.135
1843,Fulton,Itawamba County,34.274,-88.409
2788,Leland,Washington County,33.405,-90.898
3830,Pearl River,Neshoba County,32.783,-89.228
0339,Beechwood,Warren County,32.328,-90.827
2366,Houston,Chickasaw County,33.898,-88.999
3362,Morton,Scott County,32.354,-89.655
2217,Hazlehurst,Copiah County,31.860,-90.396
5078,University,Lafayette County,34.366,-89.525
3494,New Hope,Lowndes County,33.468,-88.327
5237,Water Valley,Yalobusha County,34.151,-89.631
3536,Newton,Newton County,32.321,-89.163
2462,Iuka,Tishomingo County,34.812,-88.190
1611,Escatawpa,Jackson County,30.440,-88.544
3543,Nicholson,Pearl River County,30.477,-89.694
5134,Verona,Lee County,34.194,-88.720
0592,Bridgetown,DeSoto County,34.890,-89.905
2987,Macon,Noxubee County,33.105,-88.561
3653,Okolona,Chickasaw County,34.002,-88.755
2320,Hollandale,Washington County,33.169,-90.854
1065,Collins,Covington County,31.645,-89.555
1422,Durant,Holmes County,33.075,-89.855
1682,Farmington,Alcorn County,34.930,-88.452
2967,Lynchburg,DeSoto County,34.962,-90.096
4545,Shelby,Bolivar County,33.951,-90.768
5067,Union,Neshoba County,32.571,-89.115
4091,Quitman,Clarke County,32.040,-88.728
4074,Purvis,Lamar County,31.143,-89.410
3333,Moorhead,Sunflower County,33.450,-90.506
4536,Sharon,Jones County,31.790,-89.099
3956,Pleasant Hill,DeSoto County,34.914,-89.894
2997,Magnolia,Pike County,31.143,-90.459
4132,Raymond,Hinds County,32.259,-90.423
0371,Belmont,Tishomingo County,34.510,-88.209
2966,Lyman,Harrison County,30.495,-89.126
1388,Drew,Sunflower County,33.810,-90.526
0898,Charleston,Tallahatchie County,34.007,-90.057
3612,Oak Grove,Lamar County,31.286,-89.414
3058,Marion,Lauderdale County,32.417,-88.648
1067,Collinsville,Lauderdale County,32.498,-88.846
1942,Glendale,Forrest County,31.365,-89.306
4465,Sardis,Panola County,34.437,-89.916
1281,Decatur,Newton County,32.439,-89.108
1735,Flora,Madison County,32.543,-90.309
0641,Bruce,Calhoun County,33.992,-89.349
2951,Lumberton,Lamar County,31.006,-89.459
4310,Rosedale,Bolivar County,33.853,-91.028
2810,Lexington,Holmes County,33.113,-90.053
4535,Shannon,Lee County,34.116,-88.712
4832,Summit,Pike County,31.284,-90.468
4539,Shaw,Bolivar County,33.601,-90.772
5175,Wade,Jackson County,30.642,-88.570
1693,Fayette,Jefferson County,31.712,-91.061
1055,Coldwater,Tate County,34.692,-89.977
2396,Hurley,Jackson County,30.661,-88.494
4923,Terry,Hinds County,32.096,-90.294
3317,Monticello,Lawrence County,31.554,-90.107
2719,Lambert,Quitman County,34.202,-90.283
0876,Centreville,Amite County,31.087,-91.065
4003,Port Gibson,Claiborne County,31.961,-90.984
1974,Goodman,Holmes County,32.970,-89.912
0720,Caledonia,Lowndes County,33.683,-88.324
4910,Taylorsville,Smith County,31.830,-89.428
3345,Morgantown,Adams County,31.573,-91.348
1621,Etta,Union County,34.470,-89.228
1086,Como,Panola County,34.511,-89.940
2293,Hillsboro,Scott County,32.459,-89.511
5141,Victoria,Marshall County,34.846,-89.618
5363,White Oak,Tunica County,34.646,-90.354
4107,Raleigh,Smith County,32.033,-89.522
5031,Tunica,Tunica County,34.685,-90.383
1499,Edwards,Hinds County,32.330,-90.606
4046,Prentiss,Jefferson Davis County,31.599,-89.867
2518,Jonestown,Coahoma County,34.320,-90.456
4843,Sunflower,Sunflower County,33.543,-90.537
1527,Elliott,Grenada County,33.683,-89.749
0627,Brooksville,Noxubee County,33.235,-88.582
3884,Pickens,Holmes County,32.884,-89.971
3388,Mount Olive,Covington County,31.761,-89.655
5497,Woodville,Wilkinson County,31.105,-91.300
1273,De Kalb,Kemper County,32.768,-88.651
4786,Stonewall,Clarke County,32.132,-88.793
0693,Burnsville,Tishomingo County,34.841,-88.315
3332,Mooreville,Lee County,34.265,-88.577
3951,Plantersville,Lee County,34.213,-88.665
2434,Inverness,Sunflower County,33.354,-90.593
2230,Helena,Jackson County,30.495,-88.496
0493,Blue Mountain,Tippah County,34.671,-89.026
5028,Tucker,Neshoba County,32.707,-89.054
1041,Coffeeville,Yalobusha County,33.977,-89.676
3201,Metcalfe,Washington County,33.454,-91.007
5089,Vaiden,Carroll County,33.332,-89.741
0065,Algoma,Pontotoc County,34.176,-89.031
4160,Redwater,Leake County,32.767,-89.537
5205,Walnut,Tippah County,34.946,-88.900
4933,Thaxton,Pontotoc County,34.308,-89.178
0325,Beaumont,Perry County,31.169,-88.920
2228,Heidelberg,Jasper County,31.887,-88.984
5087,Utica,Hinds County,32.110,-90.623
4434,Sandersville,Jones County,31.787,-89.032
1167,Crenshaw,Panola County,34.505,-90.195
4556,Sherman,Lee County,34.361,-88.839
3984,Polkville,Smith County,32.194,-89.693
2815,Liberty,Amite County,31.158,-90.812
1018,Cloverdale,Adams County,31.498,-91.421
1195,Crowder,Panola County,34.173,-90.138
2124,Hamilton,Monroe County,33.738,-88.445
4610,Smithville,Monroe County,34.070,-88.391
0536,Bovina,Warren County,32.352,-90.735
0188,Ashland,Benton County,34.833,-89.176
0520,Bond,Stone County,30.894,-89.169
2264,Hickory Flat,Benton County,34.616,-89.188
2189,Hatley,Monroe County,33.977,-88.421
1597,Enterprise,Clarke County,32.174,-88.831
0508,Bogue Chitto,Kemper County,32.832,-88.918
0132,Anguilla,Sharkey County,32.974,-90.825
3426,Myrtle,Union County,34.558,-89.119
5207,Walnut Grove,Leake County,32.590,-89.458
5006,Tremont,Itawamba County,34.235,-88.259
1404,Dumas,Tippah County,34.640,-88.844
1147,Courtland,Panola County,34.241,-89.943
2680,Lake,Newton County,32.330,-89.314
3627,Oakland,Yalobusha County,34.056,-89.916
4753,State Line,Greene County,31.436,-88.473
1667,Falkner,Tippah County,34.842,-88.934
5259,Weir,Choctaw County,33.267,-89.291
0508,Bogue Chitto,Lincoln County,31.439,-90.452
3157,Meadville,Franklin County,31.472,-90.897
0496,Blue Springs,Union County,34.402,-88.873
0517,Bolton,Hinds County,32.349,-90.460
1161,Crawford,Lowndes County,33.302,-88.615
0390,Benton,Yazoo County,32.826,-90.259
2262,Hickory,Newton County,32.318,-89.026
2753,Lauderdale,Lauderdale County,32.521,-88.511
1624,Eudora,DeSoto County,34.830,-90.149
4907,Taylor,Lafayette County,34.272,-89.589
0001,Abbeville,Lafayette County,34.503,-89.503
5264,Webb,Tallahatchie County,33.947,-90.344
1932,Glen,Alcorn County,34.858,-88.418
4970,Tishomingo,Tishomingo County,34.637,-88.232
0796,Carrollton,Carroll County,33.508,-89.920
1617,Ethel,Attala County,33.120,-89.466
3144,McLain,Greene County,31.109,-88.827
0413,Bethlehem,Marshall County,34.578,-89.328
0180,Artesia,Lowndes County,33.415,-88.644
4574,Sidon,Leflore County,33.408,-90.204
2702,Lake View,DeSoto County,34.989,-90.141
1433,Eagle Bend,Warren County,32.521,-91.007
2899,Longview,Oktibbeha County,33.404,-88.921
0162,Arcola,Washington County,33.270,-90.880
3389,Mount Pleasant,Marshall County,34.956,-89.516
2090,Gunnison,Bolivar County,33.944,-90.945
1704,Fernwood,Pike County,31.186,-90.449
0326,Beauregard,Copiah County,31.722,-90.382
2972,Lyon,Coahoma County,34.218,-90.542
1274,De Soto,Clarke County,31.974,-88.713
1408,Duncan,Bolivar County,34.045,-90.745
4506,Sebastopol,Leake County,32.568,-89.334
4834,Sumner,Tallahatchie County,33.971,-90.369
1687,Farrell,Coahoma County,34.264,-90.672
1897,Georgetown,Copiah County,31.872,-90.165
0415,Beulah,Bolivar County,33.787,-90.980
0777,Cary,Sharkey County,32.806,-90.927
1189,Crosby,Amite County,31.274,-91.062
1023,Coahoma,Coahoma County,34.367,-90.523
1821,French Camp,Choctaw County,33.293,-89.400
4581,Silver City,Humphreys County,33.097,-90.497
4811,Sturgis,Oktibbeha County,33.345,-89.045
3342,Morgan City,Leflore County,33.381,-90.350
2412,Independence,Tate County,34.705,-89.809
3056,Marietta,Prentiss County,34.502,-88.469
2948,Lula,Coahoma County,34.453,-90.479
3752,Pace,Bolivar County,33.791,-90.857
1962,Golden,Tishomingo County,34.488,-88.189
3816,Pattison,Claiborne County,31.889,-90.887
4583,Silver Creek,Lawrence County,31.605,-89.998
2925,Louise,Humphreys County,32.982,-90.589
1313,Dennis,Tishomingo County,34.559,-88.226
3787,Paris,Lafayette County,34.179,-89.460
2640,Kossuth,Alcorn County,34.872,-88.646
2636,Kokomo,Marion County,31.198,-90.003
2791,Lena,Leake County,32.594,-89.612
5291,West,Holmes County,33.197,-89.777
3935,Pittsboro,Calhoun County,33.940,-89.338
1944,Glendora,Tallahatchie County,33.829,-90.293
1479,Eden,Yazoo County,32.985,-90.323
0424,Big Creek,Calhoun County,33.853,-89.411
3512,New Site,Prentiss County,34.559,-88.409
2315,Holcomb,Grenada County,33.761,-89.976
1665,Falcon,Quitman County,34.393,-90.256
5239,Waterford,Marshall County,34.648,-89.457
5480,Woodland,Chickasaw County,33.779,-89.051
0958,Church Hill,Jefferson County,31.716,-91.238
3321,Montrose,Jasper County,32.124,-89.236
3755,Paden,Tishomingo County,34.660,-88.266
4768,Stewart,Montgomery County,33.451,-89.436
5451,Winterville,Washington County,33.502,-91.058
4489,Scott,Bolivar County,33.592,-91.074
4161,Redwood,Warren County,32.478,-90.804
1988,Grace,Issaquena County,32.999,-90.956
1410,Dundee,Tunica County,34.524,-90.456
5103,Valley Park,Issaquena County,32.633,-90.867
0224,Austin,Tunica County,34.641,-90.449
0515,Bolivar,Bolivar County,33.660,-91.053
2718,Lamar,Benton County,34.917,-89.318
4785,Stoneville,Washington County,33.424,-90.915
4011,Porterville,Kemper County,32.688,-88.472
1398,Dublin,Coahoma County,34.072,-90.491
5029,Tula,Lafayette County,34.233,-89.362
0002,Abbott,Clay County,33.680,-88.774
0139,Ansley,Hancock County,30.225,-89.484
0226,Avalon,Carroll County,33.655,-90.086
0227,Avera,Greene County,31.296,-88.741
0246,Baird,Sunflower County,33.425,-90.500
0259,Banks,Tunica County,34.826,-90.230
0359,Bellevue,Lamar County,31.310,-89.500
0419,Bexley,George County,30.967,-88.674
0452,Black Hawk,Carroll County,33.326,-90.024
0573,Brazil,Tallahatchie County,34.026,-90.281
0621,Brooklyn,Forrest County,31.056,-89.186
0632,Browning,Leflore County,33.518,-90.120
0637,Brownsville,Hinds County,32.449,-90.437
0666,Buena Vista,Chickasaw County,33.884,-88.838
0714,Caile,Sunflower County,33.300,-90.590
0738,Camden,Madison County,32.782,-89.839
0761,Cannonsburg,Jefferson County,31.634,-91.211
0781,Carlisle,Claiborne County,32.003,-90.784
0787,Carnes,Forrest County,30.994,-89.260
0791,Carpenter,Copiah County,32.034,-90.680
0799,Carson,Jefferson Davis County,31.538,-89.795
0838,Cayce,Marshall County,34.955,-89.618
0884,Chalybeate,Tippah County,34.930,-88.868
0920,Cheraw,Marion County,31.156,-89.843
0932,Chester,Choctaw County,33.359,-89.238
0951,Choctaw,Bolivar County,33.558,-90.813
0951,Choctaw,Neshoba County,32.778,-89.101
1240,Daleville,Lauderdale County,32.570,-88.676
1414,Dunleith,Washington County,33.436,-90.821
1465,Eastport,Tishomingo County,34.886,-88.101
1473,Ebenezer,Holmes County,32.971,-90.091
1490,Edinburg,Leake County,32.799,-89.336
1503,Egremont,Sharkey County,32.861,-90.903
1504,Egypt,Chickasaw County,33.898,-88.730
1803,Franklin,Holmes County,33.036,-90.002
1838,Fruitland Park,Forrest County,30.916,-89.171
1933,Glen Allan,Washington County,33.024,-91.030
1971,Good Hope,Holmes County,33.102,-90.300
2097,Gwin,Holmes County,33.174,-90.223
2120,Hamburg,Franklin County,31.579,-91.067
2166,Harriston,Jefferson County,31.725,-91.032
2167,Harrisville,Simpson County,31.973,-90.078
2328,Holly Ridge,Sunflower County,33.446,-90.753
2331,Holmesville,Pike County,31.204,-90.309
2353,Hopewell,Covington County,31.718,-89.471
2380,Hudsonville,Marshall County,34.861,-89.375
2398,Hurricane,Pontotoc County,34.351,-89.158
2607,Kingston,Adams County,31.406,-91.278
2618,Kirkville,Itawamba County,34.451,-88.490
2709,Lakeshore,Hancock County,30.247,-89.436
2723,Lamont,Bolivar County,33.535,-91.076
2762,Lawrence,Newton County,32.325,-89.233
2806,Lewisburg,DeSoto County,34.862,-89.833
2855,Little Rock,Newton County,32.526,-89.025
2864,Livingston,Madison County,32.553,-90.216
2928,Love,DeSoto County,34.753,-89.970
3050,Marcella,Holmes County,33.129,-90.297
3081,Martinsville,Copiah County,31.791,-90.407
3137,McHenry,Stone County,30.707,-89.138
3195,Merrill,George County,30.979,-88.721
3208,Michigan City,Benton County,34.981,-89.251
3326,Moon Lake,Coahoma County,34.440,-90.495
3345,Morgantown,Marion County,31.313,-89.916
3345,Morgantown,Oktibbeha County,33.306,-88.997
3434,Napanee,Washington County,33.506,-90.871
3559,Norfolk,DeSoto County,34.951,-90.231
3650,Oil City,Yazoo County,32.691,-90.434
3684,Onward,Sharkey County,32.725,-90.942
3713,Osborn,Oktibbeha County,33.521,-88.722
3786,Parchman,Sunflower County,33.932,-90.551
3912,Pine Ridge,Adams County,31.629,-91.345
3955,Pleasant Grove,Panola County,34.439,-90.089
3973,Pocahontas,Hinds County,32.474,-90.286
3975,Point,Lauderdale County,32.311,-88.891
4092,Quito,Leflore County,33.439,-90.301
4119,Randolph,Pontotoc County,34.181,-89.168
4147,Red Lick,Jefferson County,31.793,-90.979
4190,Rome,Sunflower County,33.963,-90.478
4201,Richland,Holmes County,32.974,-89.986
4233,Rising Sun,Leflore County,33.459,-90.209
4275,Rockport,Copiah County,31.795,-90.156
4308,Rose Hill,Jasper County,32.145,-88.996
4360,Ruth,Lincoln County,31.382,-90.316
4428,Sand Hill,Rankin County,32.488,-89.880
4446,Sanford,Covington County,31.487,-89.427
4460,Sarah,Tate County,34.569,-90.210
4472,Savoy,Lauderdale County,32.271,-88.770
4536,Sharon,Madison County,32.658,-89.936
4553,Sherard,Coahoma County,34.216,-90.706
4563,Shipman,George County,30.878,-88.475
4572,Sibley,Adams County,31.379,-91.399
4600,Slayden,Marshall County,34.947,-89.441
4663,Sparta,Chickasaw County,33.769,-88.979
4732,Stafford Springs,Jasper County,31.905,-88.933
4744,Star,Rankin County,32.094,-90.046
4794,Stovall,Coahoma County,34.297,-90.645
4861,Swan Lake,Tallahatchie County,33.875,-90.283
4870,Swiftwater,Washington County,33.337,-91.060
4917,Ten Mile,Stone County,30.766,-89.144
4947,Thornton,Holmes County,33.079,-90.323
4957,Tibbee,Clay County,33.528,-88.631
5021,Troy,Pontotoc County,34.119,-88.885
5112,Vance,Quitman County,34.073,-90.351
5120,Vaughan,Yazoo County,32.806,-90.042
5131,Vernal,Greene County,31.039,-88.611
5224,Warrenton,Warren County,32.248,-90.928
5232,Washington,Adams County,31.579,-91.299
5258,Wayside,Washington County,33.269,-91.034
5391,Whynot,Lauderdale County,32.289,-88.490
5398,Wildwood,Leflore County,33.619,-90.241
5406,Williamsburg,Covington County,31.619,-89.611