phoneme,name,county,latitude,longitude
04232,Jackson,Hinds County,32.316,-90.213
03595,Gulfport,Harrison County,30.367,-89.093
00769,Biloxi,Harrison County,30.396,-88.885
06307,Olive Branch,DeSoto County,34.962,-89.830
08677,Tupelo,Lee County,34.258,-88.703
05469,Meridian,Lauderdale County,32.364,-88.704
03548,Greenville,Washington County,33.410,-91.062
05132,Madison,Madison County,32.462,-90.115
01741,Clinton,Hinds County,32.342,-90.322
06572,Pearl,Rankin County,32.275,-90.132
06437,Oxford,Lafayette County,34.367,-89.519
01006,Brandon,Rankin County,32.273,-89.986
08164,Starkville,Oktibbeha County,33.450,-88.818
07240,Ridgeland,Madison County,32.428,-90.132
01849,Columbus,Lowndes County,33.496,-88.427
08868,Vicksburg,Warren County,32.353,-90.878
03856,Hernando,DeSoto County,34.824,-89.994
04714,Laurel,Jones County,31.694,-89.131
04971,Long Beach,Harrison County,30.350,-89.153
01694,Clarksdale,Coahoma County,34.200,-90.571
01942,Corinth,Alcorn County,34.934,-88.522
03552,Greenwood,Leflore County,33.516,-90.180
05902,Natchez,Adams County,31.560,-91.403
03557,Grenada,Grenada County,33.769,-89.808
01265,Byram,Hinds County,32.179,-90.245
05360,McComb,Pike County,31.244,-90.453
01105,Brookhaven,Lincoln County,31.579,-90.441
01732,Cleveland,Bolivar County,33.744,-90.725
01353,Canton,Madison County,32.613,-90.037
09150,West Point,Clay County,33.608,-88.650
04152,Indianola,Sunflower County,33.451,-90.655
00944,Booneville,Prentiss County,34.658,-88.567
08116,St. Martin,Jackson County,30.438,-88.868
05947,New Albany,Union County,34.494,-89.008
00522,Batesville,Panola County,34.312,-89.944
07222,Richland,Rankin County,32.239,-90.158
09045,Waveland,Hancock County,30.287,-89.376
04533,Kosciusko,Attala County,33.058,-89.588
06662,Philadelphia,Neshoba County,32.772,-89.117
03986,Holly Springs,Marshall County,34.768,-89.449
04704,Latimer,Jackson County,30.535,-88.867
05030,Louisville,Winston County,33.124,-89.055
01835,Columbia,Marion County,31.252,-89.838
01413,Carthage,Leake County,32.733,-89.536
06862,Pontotoc,Pontotoc County,34.248,-88.999
07269,Ripley,Tippah County,34.730,-88.951
03056,Forest,Scott County,32.365,-89.474
07555,Saltillo,Lee County,34.376,-88.682
00008,Aberdeen,Monroe County,33.825,-88.544
02116,Crystal Springs,Copiah County,31.987,-90.357
03027,Florence,Rankin County,32.153,-90.131
09051,Waynesboro,Wayne County,31.675,-88.646
02708,Ellisville,Jones County,31.604,-89.196
09360,Winona,Montgomery County,33.482,-89.728
09279,Wiggins,Stone County,30.858,-89.135
03195,Fulton,Itawamba County,34.274,-88.409
04783,Leland,Washington County,33.405,-90.898
05140,Magee,Simpson County,31.874,-89.734
06575,Pearl River,Neshoba County,32.783,-89.228
00612,Beechwood,Warren County,32.328,-90.827
04050,Houston,Chickasaw County,33.898,-88.999
05750,Morton,Scott County,32.354,-89.655
03804,Hazlehurst,Copiah County,31.860,-90.396
08758,University,Lafayette County,34.366,-89.525
05998,New Hope,Lowndes County,33.468,-88.327
09022,Water Valley,Yalobusha County,34.151,-89.631
06068,Newton,Newton County,32.321,-89.163
04222,Iuka,Tishomingo County,34.812,-88.190
02797,Escatawpa,Jackson County,30.440,-88.544
06079,Nicholson,Pearl River County,30.477,-89.694
08858,Verona,Lee County,34.194,-88.720
01062,Bridgetown,DeSoto County,34.890,-89.905
05125,Macon,Noxubee County,33.105,-88.561
06280,Okolona,Chickasaw County,34.002,-88.755
03975,Hollandale,Washington County,33.169,-90.854
01828,Collins,Covington County,31.645,-89.555
05450,Mendenhall,Simpson County,31.962,-89.870
02501,Durant,Holmes County,33.075,-89.855
03889,Hide-A-Way Lake,Pearl River County,30.565,-89.640
02921,Farmington,Alcorn County,34.930,-88.452
05094,Lynchburg,DeSoto County,34.962,-90.096
07791,Shelby,Bolivar County,33.951,-90.768
08737,Union,Neshoba County,32.571,-89.115
07021,Quitman,Clarke County,32.040,-88.728
06994,Purvis,Lamar County,31.143,-89.410
05709,Moorhead,Sunflower County,33.450,-90.506
05943,Nettleton,Lee County,34.083,-88.626
07772,Sharon,Jones County,31.790,-89.099
06795,Pleasant Hill,DeSoto County,34.914,-89.894
05144,Magnolia,Pike County,31.143,-90.459
07090,Raymond,Hinds County,32.259,-90.423
00664,Belmont,Tishomingo County,34.510,-88.209
05093,Lyman,Harrison County,30.495,-89.126
09107,Wesson,Copiah County,31.700,-90.395
02441,Drew,Sunflower County,33.810,-90.526
01567,Charleston,Tallahatchie County,34.007,-90.057
06214,Oak Grove,Lamar County,31.286,-89.414
05248,Marion,Lauderdale County,32.417,-88.648
01830,Collinsville,Lauderdale County,32.498,-88.846
02276,DeLisle,Harrison County,30.379,-89.264
03352,Glendale,Forrest County,31.365,-89.306
07639,Sardis,Panola County,34.437,-89.916
02239,Decatur,Newton County,32.439,-89.108
01722,Cleary,Rankin County,32.166,-90.181
03025,Flora,Madison County,32.543,-90.309
01141,Bruce,Calhoun County,33.992,-89.349
05073,Lumberton,Lamar County,31.006,-89.459
07396,Rosedale,Bolivar County,33.853,-91.028
04826,Lexington,Holmes County,33.113,-90.053
00021,Ackerman,Choctaw County,33.310,-89.173
07767,Shannon,Lee County,34.116,-88.712
08299,Summit,Pike County,31.284,-90.468
07782,Shaw,Bolivar County,33.601,-90.772
08922,Wade,Jackson County,30.642,-88.570
02938,Fayette,Jefferson County,31.712,-91.061
01810,Coldwater,Tate County,34.692,-89.977
04099,Hurley,Jackson County,30.661,-88.494
08463,Terry,Hinds County,32.096,-90.294
05255,Marks,Quitman County,34.257,-90.272
08968,Walls,DeSoto County,34.958,-90.152
05682,Monticello,Lawrence County,31.554,-90.107
01263,Byhalia,Marshall County,34.872,-89.691
04652,Lambert,Quitman County,34.202,-90.283
01525,Centreville,Amite County,31.087,-91.065
06877,Port Gibson,Claiborne County,31.961,-90.984
03402,Goodman,Holmes County,32.970,-89.912
01286,Caledonia,Lowndes County,33.683,-88.324
08433,Taylorsville,Smith County,31.830,-89.428
05730,Morgantown,Adams County,31.573,-91.348
02819,Etta,Union County,34.470,-89.228
01860,Como,Panola County,34.511,-89.940
03931,Hillsboro,Scott County,32.459,-89.511
08870,Victoria,Marshall County,34.846,-89.618
09230,White Oak,Tunica County,34.646,-90.354
07051,Raleigh,Smith County,32.033,-89.522
08672,Tunica,Tunica County,34.685,-90.383
02632,Edwards,Hinds County,32.330,-90.606
06952,Prentiss,Jefferson Davis County,31.599,-89.867
04316,Jonestown,Coahoma County,34.320,-90.456
08320,Sunflower,Sunflower County,33.543,-90.537
02675,Elliott,Grenada County,33.683,-89.749
01115,Brooksville,Noxubee County,33.235,-88.582
06678,Pickens,Holmes County,32.884,-89.971
05798,Mount Olive,Covington County,31.761,-89.655
03372,Gloster,Amite County,31.197,-91.022
09433,Woodville,Wilkinson County,31.105,-91.300
02229,De Kalb,Kemper County,32.768,-88.651
08223,Stonewall,Clarke County,32.132,-88.793
01232,Burnsville,Tishomingo County,34.841,-88.315
05708,Mooreville,Lee County,34.265,-88.577
06782,Plantersville,Lee County,34.213,-88.665
04182,Inverness,Sunflower County,33.354,-90.593
03822,Helena,Jackson County,30.495,-88.496
00889,Blue Mountain,Tippah County,34.671,-89.026
08664,Tucker,Neshoba County,32.707,-89.054
01794,Coffeeville,Yalobusha County,33.977,-89.676
05488,Metcalfe,Washington County,33.454,-91.007
05105,Maben,Oktibbeha County,33.554,-89.081
08779,Vaiden,Carroll County,33.332,-89.741
00114,Algoma,Pontotoc County,34.176,-89.031
07144,Redwater,Leake County,32.767,-89.537
08971,Walnut,Tippah County,34.946,-88.900
08477,Thaxton,Pontotoc County,34.308,-89.178
07175,Renova,Bolivar County,33.779,-90.721
00582,Beaumont,Perry County,31.169,-88.920
03818,Heidelberg,Jasper County,31.887,-88.984
08773,Utica,Hinds County,32.110,-90.623
07598,Sandersville,Jones County,31.787,-89.032
02042,Crenshaw,Panola County,34.505,-90.195
07811,Sherman,Lee County,34.361,-88.839
06842,Polkville,Smith County,32.194,-89.693
04831,Liberty,Amite County,31.158,-90.812
01753,Cloverdale,Adams County,31.498,-91.421
02092,Crowder,Panola County,34.173,-90.138
03659,Hamilton,Monroe County,33.738,-88.445
00981,Boyle,Bolivar County,33.704,-90.726
07930,Smithville,Monroe County,34.070,-88.391
00961,Bovina,Warren County,32.352,-90.735
00327,Ashland,Benton County,34.833,-89.176
00931,Bond,Stone County,30.894,-89.169
03878,Hickory Flat,Benton County,34.616,-89.188
03763,Hatley,Monroe County,33.977,-88.421
02777,Enterprise,Clarke County,32.174,-88.831
00914,Bogue Chitto,Kemper County,32.832,-88.918
00215,Anguilla,Sharkey County,32.974,-90.825
05875,Myrtle,Union County,34.558,-89.119
08975,Walnut Grove,Leake County,32.590,-89.458
08622,Tremont,Itawamba County,34.235,-88.259
02475,Dumas,Tippah County,34.640,-88.844
01996,Courtland,Panola County,34.241,-89.943
04594,Lake,Newton County,32.330,-89.314
06234,Oakland,Yalobusha County,34.056,-89.916
08166,State Line,Greene County,31.436,-88.473
04641,Lakeview,DeSoto County,34.989,-90.140
02893,Falkner,Tippah County,34.842,-88.934
09056,Weir,Choctaw County,33.267,-89.291
00914,Bogue Chitto,Lincoln County,31.439,-90.452
05417,Meadville,Franklin County,31.472,-90.897
00892,Blue Springs,Union County,34.402,-88.873
00927,Bolton,Hinds County,32.349,-90.460
02031,Crawford,Lowndes County,33.302,-88.615
00692,Benton,Yazoo County,32.826,-90.259
03874,Hickory,Newton County,32.318,-89.026
04710,Lauderdale,Lauderdale County,32.521,-88.511
01676,Clara,Wayne County,31.581,-88.696
02823,Eudora,DeSoto County,34.830,-90.149
08429,Taylor,Lafayette County,34.272,-89.589
00003,Abbeville,Lafayette County,34.503,-89.503
05994,New Hebron,Lawrence County,31.731,-89.979
09062,Webb,Tallahatchie County,33.947,-90.344
03337,Glen,Alcorn County,34.858,-88.418
08552,Tishomingo,Tishomingo County,34.637,-88.232
00687,Benoit,Bolivar County,33.651,-91.010
01401,Carrollton,Carroll County,33.508,-89.920
00060,Agricola,George County,30.808,-88.520
02815,Ethel,Attala County,33.120,-89.466
05355,McLain,Greene County,31.109,-88.827
00731,Bethlehem,Marshall County,34.578,-89.328
05625,Mize,Smith County,31.868,-89.556
00304,Artesia,Lowndes County,33.415,-88.644
05756,Moselle,Jones County,31.503,-89.279
07845,Sidon,Leflore County,33.408,-90.204
04626,Lake View,DeSoto County,34.989,-90.141
07735,Seminary,Covington County,31.562,-89.498
02519,Eagle Bend,Warren County,32.521,-91.007
04985,Longview,Oktibbeha County,33.404,-88.921
00264,Arcola,Washington County,33.270,-90.880
05801,Mount Pleasant,Marshall County,34.956,-89.516
03602,Gunnison,Bolivar County,33.944,-90.945
02957,Fernwood,Pike County,31.186,-90.449
00583,Beauregard,Copiah County,31.722,-90.382
05099,Lyon,Coahoma County,34.218,-90.542
02231,De Soto,Clarke County,31.974,-88.713
09200,Wheeler,Prentiss County,34.580,-88.608
02481,Duncan,Bolivar County,34.045,-90.745
06865,Pope,Panola County,34.215,-89.948
07716,Sebastopol,Leake County,32.568,-89.334
02103,Cruger,Holmes County,33.321,-90.232
08302,Sumner,Tallahatchie County,33.971,-90.369
02927,Farrell,Coahoma County,34.264,-90.672
03279,Georgetown,Copiah County,31.872,-90.165
00734,Beulah,Bolivar County,33.787,-90.980
05197,Mantee,Webster County,33.732,-89.055
01376,Cary,Sharkey County,32.806,-90.927
02077,Crosby,Amite County,31.274,-91.062
01760,Coahoma,Coahoma County,34.367,-90.523
03160,French Camp,Choctaw County,33.293,-89.400
07860,Silver City,Humphreys County,33.097,-90.497
07112,Red Banks,Marshall County,34.828,-89.564
08268,Sturgis,Oktibbeha County,33.345,-89.045
05726,Morgan City,Leflore County,33.381,-90.350
04130,Independence,Tate County,34.705,-89.809
05245,Marietta,Prentiss County,34.502,-88.469
05068,Lula,Coahoma County,34.453,-90.479
02574,Eastabuchie,Jones County,31.436,-89.283
06442,Pace,Bolivar County,33.791,-90.857
03383,Golden,Tishomingo County,34.488,-88.189
06542,Pattison,Claiborne County,31.889,-90.887
07862,Silver Creek,Lawrence County,31.605,-89.998
05028,Louise,Humphreys County,32.982,-90.589
02293,Dennis,Tishomingo County,34.559,-88.226
06499,Paris,Lafayette County,34.179,-89.460
04536,Kossuth,Alcorn County,34.872,-88.646
04529,Kokomo,Marion County,31.198,-90.003
04750,Lena,Leake County,32.594,-89.612
09108,West,Holmes County,33.197,-89.777
06763,Pittsboro,Calhoun County,33.940,-89.338
03356,Glendora,Tallahatchie County,33.829,-90.293
02604,Eden,Yazoo County,32.985,-90.323
00748,Big Creek,Calhoun County,33.853,-89.411
02676,Elizabeth,Washington County,33.424,-90.881
06033,New Site,Prentiss County,34.559,-88.409
02203,Darling,Quitman County,34.359,-90.274
00905,Bobo,Coahoma County,34.132,-90.676
03970,Holcomb,Grenada County,33.761,-89.976
02890,Falcon,Quitman County,34.393,-90.256
09025,Waterford,Marshall County,34.648,-89.457
09411,Woodland,Chickasaw County,33.779,-89.051
01660,Church Hill,Jefferson County,31.716,-91.238
05688,Montrose,Jasper County,32.124,-89.236
06448,Paden,Tishomingo County,34.660,-88.266
08194,Stewart,Montgomery County,33.451,-89.436
09369,Winterville,Washington County,33.502,-91.058
07687,Scott,Bolivar County,33.592,-91.074
02574,Eastabuchie,Forrest County,31.429,-89.290
07146,Redwood,Warren County,32.478,-90.804
03430,Grace,Issaquena County,32.999,-90.956
02484,Dundee,Tunica County,34.524,-90.456
08800,Valley Park,Issaquena County,32.633,-90.867
02370,Doddsville,Sunflower County,33.658,-90.525
04745,Leaf,Greene County,31.026,-88.796
04228,Jacinto,Alcorn County,34.760,-88.428
00373,Austin,Tunica County,34.641,-90.449
00924,Bolivar,Bolivar County,33.660,-91.053
04649,Lamar,Benton County,34.917,-89.318
08222,Stoneville,Washington County,33.424,-90.915
06890,Porterville,Kemper County,32.688,-88.472
02460,Dublin,Coahoma County,34.072,-90.491
08667,Tula,Lafayette County,34.233,-89.362
00004,Abbott,Clay County,33.680,-88.774
00125,Allen,Quitman County,34.146,-90.234
00154,Alpine,Union County,34.495,-88.798
00172,Alva,Montgomery County,33.638,-89.507
00199,Amy,Jones County,31.777,-89.258
00226,Ansley,Hancock County,30.225,-89.484
00342,Athens,Monroe County,33.872,-88.442
00347,Atlanta,Chickasaw County,33.798,-89.147
00360,Auburn,Lincoln County,31.359,-90.608
00369,Ora,Covington County,31.658,-89.574
00377,Avalon,Carroll County,33.655,-90.086
00380,Avera,Greene County,31.296,-88.741
00386,Avon,Washington County,33.230,-91.047
00415,Bailey,Lauderdale County,32.468,-88.723
00420,Baird,Sunflower County,33.425,-90.500
00440,Ballentine,Panola County,34.394,-90.096
00455,Banks,Tunica County,34.826,-90.230
00457,Banner,Calhoun County,34.089,-89.385
00473,Barksdale,Quitman County,34.224,-90.395
00501,Barton,Marshall County,34.964,-89.689
00513,Basin,George County,30.803,-88.663
00528,Battlefield,Newton County,32.547,-88.940
00578,Beatrice,Stone County,30.739,-88.947
00596,Becker,Monroe County,33.933,-88.481
00621,Belen,Quitman County,34.273,-90.354
00645,Bellefontaine,Webster County,33.649,-89.310
00649,Bellevue,Lamar County,31.310,-89.500
00650,Bellewood,Humphreys County,33.232,-90.559
00690,Bently,Calhoun County,33.758,-89.233
00697,Berclair,Leflore County,33.472,-90.365
00741,Bexley,George County,30.967,-88.674
00770,Binford,Monroe County,33.753,-88.581
00782,Birdie,Quitman County,34.392,-90.382
00806,Black Hawk,Carroll County,33.326,-90.024
00830,Blaine,Sunflower County,33.608,-90.522
00905,Bobo,Quitman County,34.284,-90.176
00963,Bowdre,Tunica County,34.797,-90.332
00979,Boyer,Sunflower County,33.537,-90.638
00993,Bradley,Oktibbeha County,33.374,-88.980
01023,Brazil,Tallahatchie County,34.026,-90.281
01042,Brewer,Lee County,34.148,-88.684
01079,Bristow,Monroe County,34.005,-88.364
01109,Brooklyn,Forrest County,31.056,-89.186
01123,Browning,Leflore County,33.518,-90.120
01135,Brownsville,Hinds County,32.449,-90.437
01187,Buena Vista,Chickasaw County,33.884,-88.838
01211,Burdett,Washington County,33.348,-90.915
01231,Burnside,Neshoba County,32.853,-89.103
01259,Buxton,Panola County,34.548,-90.198
01277,Caile,Sunflower County,33.300,-90.590
01309,Camden,Madison County,32.782,-89.839
01330,Canaan,Benton County,34.930,-89.127
01347,Cannonsburg,Jefferson County,31.634,-91.211
01381,Carlisle,Claiborne County,32.003,-90.784
01386,Carmichael,Clarke County,31.952,-88.585
01389,Carnes,Forrest County,30.994,-89.260
01391,Carolina,Itawamba County,34.118,-88.482
01394,Carpenter,Copiah County,32.034,-90.680
01405,Carson,Jefferson Davis County,31.538,-89.795
01410,Carter,Yazoo County,32.989,-90.449
01424,Cayce,Marshall County,34.955,-89.618
01426,Caseyville,Lincoln County,31.673,-90.656
01468,Cayuga,Hinds County,32.159,-90.694
01482,Cedar Grove,Newton County,32.349,-89.186
01540,Chalybeate,Tippah County,34.930,-88.868
01577,Chatham,Washington County,33.101,-91.098
01594,Cheraw,Marion County,31.156,-89.843
01597,Cherry Creek,Pontotoc County,34.351,-88.988
01609,Chester,Choctaw County,33.359,-89.238
01645,Choctaw,Bolivar County,33.558,-90.813
01645,Choctaw,Neshoba County,32.778,-89.101
01654,Christmas,Bolivar County,33.776,-90.978
01679,Claremont,Coahoma County,34.121,-90.524
01704,Clay,Itawamba County,34.270,-88.337
01709,Clayton,Tunica County,34.600,-90.416
01752,Clover Hill,Coahoma County,34.275,-90.544
01790,Cockrum,DeSoto County,34.803,-89.812
01815,Coles,Amite County,31.277,-91.032
01890,Conn,Copiah County,31.898,-90.710
01922,Coosa,Leake County,32.842,-89.422
01942,Corinth,Perry County,31.344,-89.140
01982,Cottonville,Tate County,34.659,-90.185
02006,Cowart,Tallahatchie County,33.985,-90.178
02083,Cross Roads,Rankin County,32.249,-89.771
02084,Crossroads,George County,30.885,-88.711
02123,Cullum,Kemper County,32.641,-88.608
02170,Daleville,Lauderdale County,32.570,-88.676
02254,Deerbrook,Noxubee County,33.235,-88.487
02291,Denmark,Lafayette County,34.311,-89.347
02299,Denton,Quitman County,34.146,-90.313
02368,Dockery,Sunflower County,33.729,-90.617
02407,Dorsey,Itawamba County,34.252,-88.510
02469,Duffee,Newton County,32.489,-88.927
02490,Dunleith,Washington County,33.436,-90.821
02513,Dwyer,Sunflower County,33.564,-90.529
02530,Eagles Nest,Coahoma County,34.292,-90.467
02561,East Lincoln,Lincoln County,31.485,-90.292
02580,Eastland,Sunflower County,33.651,-90.522
02585,Eastport,Tishomingo County,34.886,-88.101
02595,Ebenezer,Holmes County,32.971,-90.091
02620,Edinburg,Leake County,32.799,-89.336
02634,Effie,Tallahatchie County,33.935,-90.177
02640,Egremont,Sharkey County,32.861,-90.903
02641,Egypt,Chickasaw County,33.898,-88.730
02641,Egypt,Holmes County,33.341,-90.277
02761,Energy,Clarke County,32.180,-88.550
02767,Enid,Tallahatchie County,34.116,-89.939
02777,Enterprise,Union County,34.467,-89.157
02795,Erwin,Washington County,33.104,-91.044
02800,Eskridge,Montgomery County,33.575,-89.701
02806,Essex,Quitman County,34.330,-90.275
02834,Evansville,Tunica County,34.640,-90.389
02882,Fairview,Sunflower County,33.509,-90.747
02902,Fame,Webster County,33.664,-89.201
02906,Fannin,Rankin County,32.417,-89.957
03018,Flinn,Monroe County,34.046,-88.429
03020,Flint Hill,Lowndes County,33.716,-88.276
03036,Flowers,Warren County,32.389,-90.674
03069,Forreston,Lowndes County,33.337,-88.314
03133,Franklin,Holmes County,33.036,-90.002
03187,Fruitland Park,Forrest County,30.916,-89.171
03297,Gholson,Noxubee County,32.936,-88.734
03302,Gibson,Monroe County,33.840,-88.684
03338,Glen Allan,Washington County,33.024,-91.030
03363,Glenville,Panola County,34.528,-89.740
03395,Good Hope,Holmes County,33.102,-90.300
03395,Good Hope,Leake County,32.628,-89.629
03395,Good Hope,Marion County,31.363,-89.764
03395,Good Hope,Neshoba County,32.728,-89.157
03395,Good Hope,Perry County,31.404,-88.949
03421,Goss,Marion County,31.356,-89.889
03434,Grady,Webster County,33.513,-89.225
03535,Greenfield,Rankin County,32.249,-90.053
03611,Gwin,Holmes County,33.174,-90.223
03655,Hamburg,Franklin County,31.579,-91.067
03696,Hardy,Grenada County,33.882,-89.829
03728,Harriston,Jefferson County,31.725,-91.032
03730,Harrisville,Simpson County,31.973,-90.078
03879,Hickory Grove,Oktibbeha County,33.477,-88.707
03908,Highpoint,Winston County,33.188,-89.146
03948,Hinkle,Alcorn County,34.779,-88.621
03979,Hollis,Calhoun County,33.863,-89.242
03985,Holly Ridge,Sunflower County,33.446,-90.753
03987,Hollywood,Tunica County,34.745,-90.358
03990,Holmesville,Pike County,31.204,-90.309
04005,Homewood,Scott County,32.240,-89.506
04024,Hopewell,Benton County,34.968,-89.048
04024,Hopewell,Clay County,33.657,-88.854
04024,Hopewell,Copiah County,31.948,-90.215
04024,Hopewell,Covington County,31.718,-89.471
04024,Hopewell,Marion County,31.336,-89.661
04029,Hopson,Coahoma County,34.159,-90.546
04031,Horatio,Panola County,34.438,-90.056
04054,Howard,Holmes County,33.123,-90.191
04065,Hub,Marion County,31.146,-89.750
04075,Hudsonville,Marshall County,34.861,-89.375
04098,Huntsville,Montgomery County,33.348,-89.461
04101,Hurricane,Pontotoc County,34.351,-89.158
04102,Hustler,Amite County,31.282,-90.698
04167,Ingomar,Union County,34.409,-89.037
04391,Kendrick,Alcorn County,34.970,-88.382
04431,Kewanee,Lauderdale County,32.424,-88.438
04474,Kingston,Adams County,31.406,-91.278
04492,Kirkville,Itawamba County,34.451,-88.490
04492,Kirkville,Pike County,31.213,-90.497
04523,Knoxville,Franklin County,31.379,-91.121
04575,Lackey,Monroe County,33.803,-88.462
04602,Lake Como,Jasper County,31.962,-89.213
04635,Lakeshore,Hancock County,30.247,-89.436
04657,Lamont,Bolivar County,33.535,-91.076
04674,Langford,Rankin County,32.347,-89.972
04731,Lawrence,Newton County,32.325,-89.233
04771,Leesburg,Rankin County,32.441,-89.760
04774,Leetown,Hancock County,30.559,-89.519
04817,Leverett,Tallahatchie County,33.883,-90.076
04822,Lewisburg,DeSoto County,34.862,-89.833
04881,Linn,Sunflower County,33.660,-90.616
04906,Little Rock,Newton County,32.526,-89.025
04915,Litton,Bolivar County,33.646,-90.837
04920,Livingston,Madison County,32.553,-90.216
04923,Loyd,Calhoun County,33.958,-89.222
04946,Lodi,Humphreys County,33.046,-90.410
04946,Lodi,Montgomery County,33.550,-89.521
04983,Longstreet,Quitman County,34.113,-90.330
04984,Longtown,Panola County,34.511,-90.124
05017,Lost Lake,Tunica County,34.784,-90.244
05031,Love,DeSoto County,34.753,-89.970
05057,Lucien,Franklin County,31.517,-90.664
05062,Lux,Covington County,31.445,-89.401
05065,Ludlow,Scott County,32.572,-89.713
05146,Mahon,Marshall County,34.815,-89.515
05148,Mahned,Perry County,31.209,-89.081
05231,Marcella,Holmes County,33.129,-90.297
05284,Martinsville,Copiah County,31.791,-90.407
05309,Matherville,Wayne County,31.866,-88.566
05319,Maud,Tunica County,34.562,-90.437
05326,Maxie,Forrest County,30.978,-89.196
05336,Mayhew,Lowndes County,33.485,-88.634
05347,McAdams,Attala County,33.021,-89.688
05352,McBride,Jefferson County,31.766,-90.782
05381,McHenry,Stone County,30.707,-89.138
05399,McNeill,Pearl River County,30.669,-89.638
05400,McNutt,Leflore County,33.647,-90.372
05433,Meehan,Lauderdale County,32.328,-88.866
05474,Merrill,George County,30.979,-88.721
05500,Michigan City,Benton County,34.981,-89.251
05528,Midway,Copiah County,31.717,-90.556
05528,Midway,Hinds County,32.169,-90.376
05528,Midway,Leake County,32.807,-89.441
05528,Midway,Scott County,32.546,-89.532
05528,Midway,Tishomingo County,34.731,-88.225
05528,Midway,Yazoo County,32.886,-90.192
05594,Mineral Wells,DeSoto County,34.991,-89.866
05597,Mingo,Tishomingo County,34.632,-88.150
05608,Minot,Sunflower County,33.942,-90.490
05651,Money,Leflore County,33.651,-90.209
05674,Monterey,Rankin County,32.185,-90.081
05679,Montgomery,Holmes County,33.297,-90.327
05686,Montpelier,Clay County,33.718,-88.948
05696,Moon Lake,Coahoma County,34.440,-90.495
05730,Morgantown,Marion County,31.313,-89.916
05730,Morgantown,Oktibbeha County,33.306,-88.997
05753,Moscow,Kemper County,32.710,-88.800
05759,Moss,Jasper County,31.815,-89.178
05841,Muldrow,Oktibbeha County,33.547,-88.704
05855,Murphy,Washington County,33.121,-90.701
05865,Muskegon,Scott County,32.348,-89.352
05889,Napanee,Washington County,33.506,-90.871
05893,Napoleon,Hancock County,30.326,-89.627
05922,Neely,Greene County,31.165,-88.755
05938,Nesbit,DeSoto County,34.882,-90.009
05991,New Harmony,Union County,34.394,-88.920
06114,Norfolk,DeSoto County,34.951,-90.231
06124,Norris,Scott County,32.294,-89.436
06273,Oil City,Yazoo County,32.691,-90.434
06279,Oklahoma,Carroll County,33.334,-90.168
06297,Oldham,Tishomingo County,34.773,-88.128
06332,Onward,Sharkey County,32.725,-90.942
06383,Osborn,Oktibbeha County,33.521,-88.722
06454,Paynes,Tallahatchie County,33.921,-90.069
06497,Parchman,Sunflower County,33.932,-90.551
06534,Patmos,Sharkey County,32.813,-90.728
06547,Paulding,Jasper County,32.031,-89.037
06623,Percy,Washington County,33.109,-90.879
06654,Peyton,Claiborne County,31.838,-90.802
06672,Phoenix,Yazoo County,32.581,-90.563
06710,Pinckneyville,Wilkinson County,31.016,-91.481
06726,Pine Ridge,Adams County,31.629,-91.345
06743,Piney Woods,Rankin County,32.063,-89.993
06749,Pinola,Simpson County,31.877,-89.962
06759,Pisgah,Rankin County,32.470,-89.870
06764,Pittsburg,Tishomingo County,34.551,-88.206
06794,Pleasant Grove,Panola County,34.439,-90.089
06821,Plum Grove,Lowndes County,33.310,-88.440
06823,Pluto,Holmes County,33.053,-90.381
06826,Pocahontas,Hinds County,32.474,-90.286
06829,Point,Lauderdale County,32.311,-88.891
06931,Prairie,Monroe County,33.797,-88.668
06955,Preston,Kemper County,32.883,-88.829
06961,Prichard,Tunica County,34.699,-90.244
06971,Progress,Pike County,31.046,-90.327
06985,Pulaski,Scott County,32.272,-89.602
07014,Quentin,Franklin County,31.506,-90.754
07017,Quincy,Monroe County,33.910,-88.367
07022,Quito,Leflore County,33.439,-90.301
07066,Randolph,Pontotoc County,34.181,-89.168
07122,Red Lick,Jefferson County,31.793,-90.979
07148,Reid,Calhoun County,34.002,-89.195
07157,Reform,Choctaw County,33.431,-89.155
07158,Refuge,Washington County,33.304,-91.136
07204,Rome,Sunflower County,33.963,-90.478
07209,Rich,Coahoma County,34.416,-90.445
07222,Richland,Holmes County,32.974,-89.986
07253,Riggins,Monroe County,34.051,-88.253
07271,Rising Sun,Leflore County,33.459,-90.209
07284,Riverdale,Grenada County,33.843,-89.825
07290,Riverview,Quitman County,34.284,-90.249
07335,Rockport,Copiah County,31.795,-90.156
07390,Rose Hill,Jasper County,32.145,-88.996
07390,Rose Hill,Warren County,32.359,-90.807
07404,Rosetta,Wilkinson County,31.317,-91.101
07426,Round Lake,Bolivar County,34.053,-90.853
07432,Roundaway,Coahoma County,34.014,-90.598
07432,Roundaway,Sunflower County,33.585,-90.606
07447,Ruby,Copiah County,31.946,-90.248
07447,Ruby,Leflore County,33.695,-90.228
07452,Rudyard,Coahoma County,34.335,-90.537
07475,Russell,Lauderdale County,32.411,-88.594
07483,Ruth,Lincoln County,31.382,-90.316
07536,Salem,Benton County,34.852,-89.211
07589,Sand Hill,Copiah County,31.734,-90.306
07589,Sand Hill,Greene County,31.350,-88.767
07589,Sand Hill,Jones County,31.621,-89.282
07589,Sand Hill,Rankin County,32.488,-89.880
07602,Sandtown,Neshoba County,32.795,-89.002
07607,Sandy Hook,Marion County,31.036,-89.805
07615,Sanford,Covington County,31.487,-89.427
07632,Sapa,Webster County,33.547,-89.202
07633,Sarah,Tate County,34.569,-90.210
07635,Saratoga,Simpson County,31.797,-89.677
07640,Sarepta,Calhoun County,34.124,-89.287
07648,Savage,Tate County,34.630,-90.223
07652,Savoy,Lauderdale County,32.271,-88.770
07681,Scobey,Yalobusha County,33.941,-89.866
07686,Scotland,Yazoo County,32.705,-90.221
07763,Shake Rag,Chickasaw County,34.002,-88.825
07770,Sharkey,Tallahatchie County,33.905,-90.265
07772,Sharon,Madison County,32.658,-89.936
07806,Sherard,Coahoma County,34.216,-90.706
07813,Sherwood,Choctaw County,33.488,-89.134
07821,Shipman,George County,30.878,-88.475
07828,Shoccoe,Madison County,32.610,-89.901
07833,Short,Tishomingo County,34.940,-88.198
07841,Sibley,Adams County,31.379,-91.399
07850,Sykes,Clarke County,32.094,-88.592
07866,Silver Run,Stone County,30.734,-89.346
07903,Slayden,Marshall County,34.947,-89.441
07923,Smithdale,Amite County,31.340,-90.683
08029,Sparta,Chickasaw County,33.769,-88.979
08065,Springdale,Lafayette County,34.222,-89.609
08073,Springville,Pontotoc County,34.232,-89.104
08135,Stafford Springs,Jasper County,31.905,-88.933
08151,Stanton,Adams County,31.616,-91.240
08155,Star,Rankin County,32.094,-90.046
08180,Steiner,Sunflower County,33.616,-90.618
08185,Stephenville,Sunflower County,33.548,-90.672
08237,Stovall,Coahoma County,34.297,-90.645
08249,Stratton,Newton County,32.500,-89.134
08255,Stringtown,Bolivar County,33.575,-90.984
08256,Strong,Monroe County,33.695,-88.604
08324,Sunnyside,Leflore County,33.696,-90.295
08354,Swan Lake,Tallahatchie County,33.875,-90.283
08362,Sweatman,Montgomery County,33.634,-89.580
08370,Swiftwater,Washington County,33.337,-91.060
08403,Tallula,Issaquena County,32.779,-91.114
08439,Teasdale,Tallahatchie County,34.116,-90.022
08452,Ten Mile,Stone County,30.766,-89.144
08470,Texas,Stone County,30.886,-89.272
08495,Thomastown,Leake County,32.864,-89.669
08501,Thorn,Chickasaw County,33.943,-89.103
08506,Thornton,Holmes County,33.079,-90.323
08523,Tibbee,Clay County,33.528,-88.631
08531,Tilden,Itawamba County,34.187,-88.352
08551,Tyro,Tate County,34.584,-89.705
08583,Topeka,Lawrence County,31.415,-90.188
08635,Trinity,Lowndes County,33.346,-88.462
08652,Troy,Pontotoc County,34.119,-88.885
08689,Turon,Itawamba County,34.104,-88.325
08696,Tuscola,Leake County,32.620,-89.528
08733,Una,Clay County,33.797,-88.807
08739,Union Church,Jefferson County,31.683,-90.787
08797,Valley Hill,Carroll County,33.504,-90.061
08816,Vance,Quitman County,34.073,-90.351
08832,Vaughan,Yazoo County,32.806,-90.042
08854,Vernal,Greene County,31.039,-88.611
08856,Vernon,Jasper County,31.910,-89.153
08856,Vernon,Madison County,32.590,-90.330
08856,Vernon,Winston County,32.986,-88.931
08864,Veto,Franklin County,31.578,-90.771
08966,Wallis,Forrest County,31.156,-89.238
08971,Walnut,Quitman County,34.149,-90.399
09006,Warrenton,Warren County,32.248,-90.928
09014,Washington,Adams County,31.579,-91.299
09046,Waverly,Clay County,33.568,-88.504
09047,Waxhaw,Bolivar County,33.917,-90.969
09054,Wayside,Washington County,33.269,-91.034
09089,Wells,Lowndes County,33.598,-88.394
09187,Westville,Monroe County,33.854,-88.386
09260,Whitfield,Jones County,31.445,-89.074
09260,Whitfield,Rankin County,32.236,-90.072
09273,Whynot,Lauderdale County,32.289,-88.490
09279,Wiggins,Leake County,32.702,-89.637
09291,Wildwood,Leflore County,33.619,-90.241
09295,Wilkinson,Wilkinson County,31.223,-91.239
09302,Williamsburg,Covington County,31.619,-89.611
09308,Williamsville,Attala County,33.027,-89.567
09339,Winborn,Benton County,34.631,-89.273
09349,Wingate,Perry County,31.203,-89.001
09417,Woodlawn,Lowndes County,33.623,-88.313
09451,Wren,Monroe County,33.972,-88.600
09511,Zama,Attala County,32.975,-89.380
09524,Zero,Lauderdale County,32.300,-88.651