phoneme,name,county,latitude,longitude
0435,Billings,Yellowstone County,45.783,-108.501
2029,Great Falls,Cascade County,47.500,-111.301
0702,Butte,Silver Bow County,45.896,-112.660
2230,Helena,Lewis and Clark County,46.593,-112.036
0345,Belgrade,Gallatin County,45.776,-111.177
0120,Anaconda,Deer Lodge County,46.095,-113.142
3229,Miles City,Custer County,46.408,-105.841
2864,Livingston,Park County,45.662,-110.561
1635,Evergreen,Flathead County,48.226,-114.276
2755,Laurel,Yellowstone County,45.669,-108.772
2873,Lockwood,Yellowstone County,45.819,-108.415
4573,Sidney,Richland County,47.717,-104.156
2808,Lewistown,Fergus County,47.062,-109.428
1790,Four Corners,Gallatin County,45.630,-111.186
1079,Columbia Falls,Flathead County,48.372,-114.182
2124,Hamilton,Ravalli County,46.247,-114.160
0433,Bigfork,Flathead County,48.063,-114.073
1343,Dillon,Beaverhead County,45.216,-112.638
2144,Hardin,Big Horn County,45.732,-107.612
1930,Glasgow,Valley County,48.197,-106.637
4545,Shelby,Toole County,48.505,-111.857
1289,Deer Lodge,Powell County,46.396,-112.730
2812,Libby,Lincoln County,48.388,-115.556
2710,Lakeside,Flathead County,48.019,-114.225
1097,Conrad,Pondera County,48.170,-111.946
3018,Manhattan,Gallatin County,45.857,-111.332
4767,Stevensville,Ravalli County,46.510,-114.093
4949,Three Forks,Gallatin County,45.892,-111.552
4997,Townsend,Broadwater County,46.319,-111.521
1081,Columbus,Stillwater County,45.637,-109.252
3009,Malta,Phillips County,48.360,-107.874
0247,Baker,Fallon County,46.367,-104.285
4334,Roundup,Musselshell County,46.445,-108.542
1824,Frenchtown,Missoula County,47.015,-114.230
4837,Sun Prairie,Cascade County,47.537,-111.481
1133,Corvallis,Ravalli County,46.314,-114.113
1767,Forsyth,Rosebud County,46.266,-106.678
1628,Eureka,Lincoln County,48.880,-115.053
0534,Boulder,Jefferson County,46.237,-112.121
0947,Chinook,Blaine County,48.590,-109.231
4630,Somers,Flathead County,48.080,-114.222
3946,Plains,Sanders County,47.460,-114.883
2204,Hays,Blaine County,47.989,-108.694
3058,Marion,Flathead County,48.106,-114.663
2828,Lincoln,Lewis and Clark County,46.955,-112.682
5390,Wye,Missoula County,46.953,-114.121
3788,Park City,Stillwater County,45.633,-108.918
5368,White Sulphur Springs,Meagher County,46.548,-110.902
5371,Whitehall,Jefferson County,45.871,-112.097
0959,Churchill,Gallatin County,45.751,-111.304
0632,Browning,Glacier County,48.557,-113.013
1736,Florence,Ravalli County,46.632,-114.079
1593,Ennis,Madison County,45.349,-111.730
4851,Superior,Mineral County,47.192,-114.892
1660,Fairview,Richland County,47.856,-104.045
3876,Philipsburg,Granite County,46.332,-113.294
0932,Chester,Liberty County,48.511,-110.967
5120,Vaughn,Cascade County,47.561,-111.546
5021,Troy,Lincoln County,48.463,-115.890
1868,Gardiner,Park County,45.032,-110.706
4552,Shepherd,Yellowstone County,45.944,-108.342
5005,Trego,Lincoln County,48.705,-114.869
1012,Clinton,Missoula County,46.769,-113.713
4045,Pray,Park County,45.380,-110.682
5060,Ulm,Cascade County,47.431,-111.507
3997,Poplar,Roosevelt County,48.113,-105.198
5140,Victor,Ravalli County,46.417,-114.150
2150,Harlem,Blaine County,48.533,-108.784
0188,Ashland,Rosebud County,45.594,-106.271
1650,Fairfield,Teton County,47.615,-111.980
1212,Culbertson,Roosevelt County,48.144,-104.517
4555,Sheridan,Madison County,45.455,-112.197
3408,Muddy,Big Horn County,45.622,-106.760
5347,Wheatland,Broadwater County,45.962,-111.577
0590,Bridger,Carbon County,45.296,-108.914
5198,Walkerville,Silver Bow County,46.034,-112.536
5359,White Haven,Lincoln County,48.345,-115.517
0813,Cascade,Cascade County,47.271,-111.701
2513,Joliet,Carbon County,45.485,-108.970
0429,Big Sandy,Chouteau County,48.179,-110.112
0964,Circle,McCone County,47.417,-105.592
2364,Hot Springs,Sanders County,47.609,-114.669
4923,Terry,Prairie County,46.793,-105.312
2394,Huntley,Yellowstone County,45.899,-108.302
5504,Worden,Yellowstone County,45.960,-108.161
0293,Batavia,Flathead County,48.182,-114.413
0779,Carlton,Missoula County,46.676,-114.079
0047,Alberton,Mineral County,47.002,-114.473
5094,Valier,Pondera County,48.308,-112.250
1808,Frazer,Valley County,48.059,-106.042
2485,Jefferson City,Jefferson County,46.388,-112.028
4737,Stanford,Judith Basin County,47.154,-110.218
0328,Beaver Creek,Hill County,48.554,-109.792
4242,Riverbend,Mineral County,47.152,-114.833
4716,St. Marie,Valley County,48.402,-106.533
0289,Basin,Jefferson County,46.271,-112.264
0611,Brockton,Roosevelt County,48.151,-104.917
2522,Jordan,Garfield County,47.321,-106.910
5047,Twin Bridges,Madison County,45.544,-112.331
1111,Coram,Flathead County,48.418,-114.046
4346,Rudyard,Hill County,48.560,-110.554
1671,Fallon,Prairie County,46.836,-105.119
4589,Simms,Cascade County,47.492,-111.928
1339,Dixon,Sanders County,47.317,-114.314
4253,Roberts,Carbon County,45.359,-109.168
4470,Savage,Richland County,47.454,-104.343
2520,Joplin,Liberty County,48.561,-110.772
3439,Nashua,Valley County,48.132,-106.356
1426,Dutton,Teton County,47.843,-111.712
1092,Condon,Missoula County,47.528,-113.711
1394,Drummond,Granite County,46.667,-113.147
2250,Herron,Hill County,48.525,-109.779
2250,Heron,Sanders County,48.059,-115.957
5018,Trout Creek,Sanders County,47.837,-115.598
0900,Charlo,Lake County,47.439,-114.172
3164,Medicine Lake,Sheridan County,48.501,-104.505
0219,Augusta,Lewis and Clark County,47.493,-112.392
2603,Kings Point,Lake County,47.768,-114.151
4367,Ryegate,Golden Valley County,46.297,-109.259
4687,Springhill,Gallatin County,45.839,-111.035
0343,Belfry,Carbon County,45.142,-109.005
5419,Willow Creek,Gallatin County,45.825,-111.645
5532,York,Lewis and Clark County,46.722,-111.752
2282,Highwood,Chouteau County,47.584,-110.790
4189,Rhodes,Flathead County,48.279,-114.474
2623,Klein,Musselshell County,46.404,-108.549
5165,Virginia City,Madison County,45.294,-111.946
2823,Lima,Beaverhead County,44.637,-112.592
1317,Denton,Fergus County,47.320,-109.947
5076,Unionville,Lewis and Clark County,46.541,-112.085
1899,Geraldine,Chouteau County,47.604,-110.266
2497,Jette,Lake County,47.717,-114.192
3327,Moore,Fergus County,46.976,-109.697
1160,Crane,Richland County,47.576,-104.262
1551,Elliston,Powell County,46.562,-112.431
2302,Hinsdale,Valley County,48.394,-107.085
2310,Hobson,Judith Basin County,47.001,-109.875
1777,Fort Smith,Big Horn County,45.313,-107.937
3966,Plevna,Fallon County,46.418,-104.521
5321,Westby,Sheridan County,48.870,-104.052
0119,Amsterdam,Gallatin County,45.758,-111.320
4198,Richey,Dawson County,47.644,-105.075
1560,Elmo,Lake County,47.831,-114.350
4370,Saco,Phillips County,48.457,-107.343
1227,Custer,Yellowstone County,46.129,-107.555
3783,Paradise,Sanders County,47.389,-114.802
0547,Box Elder,Hill County,48.317,-110.013
0232,Avon,Powell County,46.597,-112.602
0590,Bridger,Gallatin County,45.804,-110.896
0609,Broadview,Yellowstone County,46.098,-108.877
4296,Rollins,Lake County,47.906,-114.198
0052,Alder,Madison County,45.324,-112.107
4339,Roy,Fergus County,47.331,-108.960
5040,Turtle Lake,Lake County,47.669,-114.074
2301,Hingham,Hill County,48.555,-110.422
3903,Pine Creek,Park County,45.507,-110.564
5456,Wisdom,Beaverhead County,45.618,-113.451
4284,Rocky Point,Lake County,47.735,-114.180
1353,Dodson,Phillips County,48.396,-108.244
1270,Dayton,Lake County,47.866,-114.279
1797,Fox Lake,Richland County,47.683,-104.622
5448,Winston,Broadwater County,46.477,-111.659
1480,Edgar,Carbon County,45.465,-108.854
0401,Birney,Rosebud County,45.322,-106.515
4861,Swan Lake,Lake County,47.929,-113.845
4509,Sedan,Gallatin County,45.959,-110.851
1795,Fox,Carbon County,45.277,-109.217
2883,Loma,Chouteau County,47.937,-110.504
0559,Brady,Pondera County,48.036,-111.840
0804,Carter,Chouteau County,47.781,-110.956
5038,Turner,Blaine County,48.844,-108.407
1874,Garrison,Powell County,46.523,-112.812
3086,Marysville,Lewis and Clark County,46.751,-112.300
3737,Outlook,Sheridan County,48.888,-104.778
4185,Rexford,Lincoln County,48.899,-115.172
1283,Decker,Big Horn County,45.012,-106.863
5379,Whitewater,Phillips County,48.759,-107.628
2878,Logan,Gallatin County,45.884,-111.427
4309,Rosebud,Rosebud County,46.274,-106.445
2148,Hardy,Cascade County,47.186,-111.806
4719,St. Mary,Glacier County,48.744,-113.428
2642,Kremlin,Hill County,48.570,-110.087
2434,Inverness,Hill County,48.557,-110.684
0011,Acton,Yellowstone County,45.931,-108.681
3566,Norris,Madison County,45.568,-111.691
1615,Essex,Flathead County,48.278,-113.607
0142,Antelope,Sheridan County,48.690,-104.458
4684,Springdale,Park County,45.738,-110.227
1156,Craig,Lewis and Clark County,47.074,-111.963
2466,Jackson,Beaverhead County,45.368,-113.409
0776,Cardwell,Jefferson County,45.860,-111.952
2342,Homestead,Sheridan County,48.421,-104.539
2163,Harrison,Madison County,45.701,-111.786
4179,Reserve,Sheridan County,48.606,-104.460
2957,Luther,Carbon County,45.284,-109.429
5552,Zurich,Blaine County,48.584,-109.031
0708,Bynum,Teton County,47.979,-112.312
1932,Glen,Beaverhead County,45.477,-112.691
1082,Comanche,Yellowstone County,45.998,-108.773
4809,Stryker,Lincoln County,48.674,-114.770
5463,Wolf Creek,Lewis and Clark County,47.006,-112.069
1923,Gilman,Lewis and Clark County,47.509,-112.365
5143,Vida,McCone County,47.834,-105.491
3283,Moccasin,Judith Basin County,47.053,-109.911
5087,Utica,Judith Basin County,46.968,-110.093
1040,Coffee Creek,Fergus County,47.348,-110.082
0550,Boyd,Carbon County,45.458,-109.066
1301,Dell,Beaverhead County,44.727,-112.697
4305,Roscoe,Carbon County,45.350,-109.497
0612,Brockway,McCone County,47.300,-105.763
2840,Lindsay,Dawson County,47.219,-105.154
0479,Bloomfield,Dawson County,47.413,-104.917
1875,Garryowen,Big Horn County,45.528,-107.418
3333,Moorhead,Powder River County,45.065,-105.871
0174,Armington,Cascade County,47.366,-110.904
0543,Bowler,Carbon County,45.205,-108.719
0667,Buffalo,Fergus County,46.821,-109.829
0806,Carterville,Rosebud County,46.299,-106.468
1031,Coalwood,Powder River County,45.728,-105.591
1112,Corbin,Jefferson County,46.381,-112.062
1117,Corinth,Big Horn County,45.856,-107.965
1278,Dean,Stillwater County,45.404,-109.690
1538,Elkhorn,Jefferson County,46.275,-111.946
1618,Ethridge,Toole County,48.558,-112.121
1756,Forest Grove,Fergus County,46.991,-109.080
2127,Hammond,Carter County,45.226,-104.918
2253,Hesper,Yellowstone County,45.742,-108.709
2576,Kirby,Big Horn County,45.333,-106.982
2910,Loring,Phillips County,48.792,-107.862
3011,Mammoth,Madison County,45.670,-112.017
3119,McLeod,Sweet Grass County,45.663,-110.116
3170,Melville,Sweet Grass County,46.103,-109.954
3253,Milltown,Missoula County,46.871,-113.882
3364,Mosby,Garfield County,46.992,-107.884
3725,Oswego,Valley County,48.059,-105.881
3981,Polaris,Beaverhead County,45.370,-113.119
4058,Proctor,Lake County,47.892,-114.305
4132,Raymond,Sheridan County,48.876,-104.580
4225,Ringling,Meagher County,46.272,-110.807
4245,Riverside,Ravalli County,46.275,-114.158
4432,Sand Springs,Garfield County,47.101,-107.486
4433,Sanders,Treasure County,46.291,-107.097
4469,Saugus,Prairie County,46.692,-105.492
5115,Vandalia,Valley County,48.354,-106.909
5219,Warm Springs,Deer Lodge County,46.181,-112.785
5221,Warren,Carbon County,45.060,-108.658