phoneme,name,county,latitude,longitude
0621,Brooklyn,Kings County,40.625,-73.952
3018,Manhattan,New York County,40.728,-73.994
2233,Hempstead,Nassau County,40.634,-73.609
0619,Brookhaven,Suffolk County,40.857,-72.960
0667,Buffalo,Erie County,42.886,-78.878
4258,Rochester,Monroe County,43.155,-77.616
2393,Huntington,Suffolk County,40.884,-73.377
4881,Syracuse,Onondaga County,43.048,-76.147
0115,Amherst,Erie County,43.012,-78.757
0044,Albany,Albany County,42.653,-73.756
2030,Greece,Monroe County,43.250,-77.701
3393,Mount Vernon,Westchester County,40.913,-73.837
4653,Southampton,Suffolk County,40.882,-72.462
0578,Brentwood,Suffolk County,40.781,-73.246
5087,Utica,Oneida County,43.101,-75.233
0989,Clay,Onondaga County,43.179,-76.192
5365,White Plains,Westchester County,41.034,-73.763
5067,Union,Broome County,42.126,-76.032
2804,Levittown,Nassau County,40.726,-73.514
5021,Troy,Rensselaer County,42.728,-73.692
4366,Rye,Westchester County,41.006,-73.688
3540,Niagara Falls,Niagara County,43.094,-79.057
2239,Henrietta,Monroe County,43.054,-77.640
4025,Poughkeepsie,Dutchess County,41.667,-73.911
3389,Mount Pleasant,Westchester County,41.112,-73.816
1818,Freeport,Nassau County,40.658,-73.583
1111,Coram,Suffolk County,40.869,-73.001
3844,Penfield,Monroe County,43.151,-77.444
0597,Brighton,Monroe County,43.148,-77.551
1561,Elmont,Nassau County,40.701,-73.713
5535,Yorktown,Westchester County,41.270,-73.818
0413,Bethlehem,Albany County,42.585,-73.827
2891,Long Beach,Nassau County,40.588,-73.658
3479,New City,Rockland County,41.148,-73.989
0250,Baldwin,Nassau County,40.656,-73.609
0859,Salina,Onondaga County,43.105,-76.171
4681,Spring Valley,Rockland County,41.113,-74.044
0971,Clarence,Erie County,43.025,-78.646
5074,Uniondale,Nassau County,40.700,-73.593
3523,Newburgh,Orange County,41.557,-74.057
4190,Rome,Oneida County,43.213,-75.456
2461,Ithaca,Tompkins County,42.441,-76.497
0300,Bay Shore,Suffolk County,40.725,-73.245
0961,Cicero,Onondaga County,43.172,-76.056
3637,Oceanside,Nassau County,40.639,-73.640
5204,Wallkill,Orange County,41.489,-74.400
4326,Rotterdam,Schenectady County,42.812,-74.012
3218,Middletown,Orange County,41.446,-74.423
3938,Pittsford,Monroe County,43.075,-77.528
1949,Glenville,Schenectady County,42.888,-73.989
0941,Chili,Monroe County,43.086,-77.745
2163,Harrison,Westchester County,40.969,-73.713
1451,East Hampton,Suffolk County,41.092,-72.106
2476,Jamestown,Chautauqua County,42.097,-79.235
4463,Saratoga Springs,Saratoga County,43.083,-73.785
4564,Shirley,Suffolk County,40.801,-72.868
2839,Lindenhurst,Suffolk County,40.687,-73.373
2314,Holbrook,Suffolk County,40.812,-73.078
1290,Deer Park,Suffolk County,40.762,-73.329
3947,Plainview,Nassau County,40.776,-73.467
0214,Auburn,Cayuga County,42.932,-76.566
4609,Smithtown,Suffolk County,40.856,-73.201
1275,De Witt,Onondaga County,43.054,-76.072
3163,Medford,Suffolk County,40.818,-73.000
1863,Garden City,Nassau County,40.727,-73.634
3682,Onondaga,Onondaga County,42.981,-76.223
3491,New Hartford,Oneida County,43.058,-75.282
3263,Mineola,Nassau County,40.749,-73.641
1995,Grand Island,Erie County,43.018,-78.963
4630,Somers,Westchester County,41.304,-73.723
4513,Selden,Suffolk County,40.866,-73.036
2871,Lockport,Niagara County,43.171,-78.690
3644,Ogden,Monroe County,43.170,-77.814
3954,Plattsburgh,Clinton County,44.699,-73.453
0480,Blooming Grove,Orange County,41.394,-74.183
5346,Wheatfield,Niagara County,43.095,-78.884
3170,Melville,Suffolk County,40.793,-73.415
4302,Roosevelt,Nassau County,40.679,-73.589
3478,New Castle,Westchester County,41.183,-73.773
5376,Whitestown,Oneida County,43.136,-75.336
5431,Wilton,Saratoga County,43.153,-73.727
3009,Malta,Saratoga County,42.982,-73.789
5489,Woodmere,Nassau County,40.632,-73.713
1131,Cortland,Cortland County,42.601,-76.180
1888,Geddes,Onondaga County,43.077,-76.225
4942,Thompson,Sullivan County,41.647,-74.677
4007,Port Washington,Nassau County,40.826,-73.698
0363,Bellmore,Nassau County,40.669,-73.527
3830,Pearl River,Rockland County,41.059,-74.022
2676,LaGrange,Dutchess County,41.685,-73.796
3802,Parma,Monroe County,43.269,-77.800
2602,Kings Park,Suffolk County,40.886,-73.257
3478,New Cassel,Nassau County,40.759,-73.570
4500,Seaford,Nassau County,40.666,-73.488
2506,Johnson City,Broome County,42.116,-75.959
1630,Evans,Erie County,42.655,-79.005
2563,Kenmore,Erie County,42.966,-78.870
1319,Depew,Erie County,42.904,-78.692
4824,Sullivan,Madison County,43.091,-75.884
4787,Stony Point,Rockland County,41.252,-74.004
1682,Farmington,Ontario County,42.989,-77.309
2490,Jericho,Nassau County,40.792,-73.540
5108,Van Buren,Onondaga County,43.120,-76.355
2748,Latham,Albany County,42.747,-73.759
4709,St. James,Suffolk County,40.879,-73.157
0222,Aurora,Erie County,42.739,-78.639
0314,Beacon,Dutchess County,41.505,-73.970
0159,Arcadia,Wayne County,43.098,-77.083
1588,Endicott,Broome County,42.098,-76.049
4284,Rocky Point,Suffolk County,40.953,-72.925
4866,Sweden,Monroe County,43.177,-77.926
3989,Pomfret,Chautauqua County,42.409,-79.331
4210,Ridge,Suffolk County,40.894,-72.896
2569,Kent,Putnam County,41.458,-73.725
1126,Cornwall,Orange County,41.414,-74.061
2604,Kingsbury,Washington County,43.335,-73.551
4394,Salisbury,Nassau County,40.746,-73.560
0646,Brunswick,Rensselaer County,42.746,-73.585
1412,Dunkirk,Chautauqua County,42.480,-79.334
1891,Geneva,Ontario County,42.863,-76.983
3092,Massena,St. Lawrence County,44.962,-74.835
5476,Woodbury,Orange County,41.328,-74.102
0253,Ballston,Saratoga County,42.951,-73.887
2280,Highlands,Orange County,41.370,-74.006
3030,Manorville,Suffolk County,40.874,-72.808
1571,Elwood,Suffolk County,40.845,-73.335
4903,Tarrytown,Westchester County,41.076,-73.859
1556,Elma,Erie County,42.828,-78.648
3812,Patterson,Putnam County,41.484,-73.588
1843,Fulton,Oswego County,43.323,-76.417
2867,Lloyd,Ulster County,41.714,-73.995
0755,Canandaigua,Ontario County,42.862,-77.314
4925,Terryville,Suffolk County,40.909,-73.065
4601,Sleepy Hollow,Westchester County,41.086,-73.858
0916,Chenango,Broome County,42.216,-75.902
2435,Inwood,Nassau County,40.622,-73.747
3679,Oneida,Madison County,43.093,-75.651
1657,Fairmount,Onondaga County,43.047,-76.239
3692,Orange Lake,Orange County,41.540,-74.098
2922,Loudonville,Albany County,42.705,-73.755
0035,Airmont,Rockland County,41.101,-74.116
2616,Kirkland,Oneida County,43.037,-75.385
3645,Ogdensburg,St. Lawrence County,44.694,-75.486
2725,Lancaster,Erie County,42.901,-78.670
3877,Philipstown,Putnam County,41.412,-73.921
1813,Fredonia,Chautauqua County,42.440,-79.332
2120,Hamburg,Erie County,42.716,-78.829
0051,Alden,Erie County,42.907,-78.521
3961,Pleasant Valley,Dutchess County,41.771,-73.805
2244,Herkimer,Herkimer County,43.061,-75.000
3299,Monroe,Orange County,41.331,-74.187
4658,Southport,Chemung County,42.050,-76.877
0509,Bohemia,Suffolk County,40.769,-73.115
2060,Greenville,Westchester County,40.993,-73.820
3015,Manchester,Ontario County,42.987,-77.194
2185,Hastings,Oswego County,43.320,-76.157
4689,Springs,Suffolk County,41.016,-72.159
4174,Rensselaer,Rensselaer County,42.643,-73.743
3529,Newfane,Niagara County,43.290,-78.693
5214,Walworth,Wayne County,43.155,-77.313
1161,Crawford,Orange County,41.571,-74.316
5476,Woodbury,Nassau County,40.826,-73.468
4774,Stillwater,Saratoga County,42.969,-73.687
3179,Mendon,Monroe County,42.982,-77.556
3522,Newark,Wayne County,43.047,-77.095
0305,Bayport,Suffolk County,40.738,-73.051
3063,Marlborough,Ulster County,41.636,-73.987
2792,Lenox,Madison County,43.112,-75.757
1547,Ellicott,Chautauqua County,42.133,-79.236
3519,New Windsor,Orange County,41.477,-74.024
2126,Hamlin,Monroe County,43.322,-77.920
2287,Hillcrest,Rockland County,41.128,-74.041
0283,Barton,Tioga County,42.083,-76.493
1681,Farmingdale,Nassau County,40.733,-73.445
4429,Sand Lake,Rensselaer County,42.630,-73.543
2596,Kinderhook,Columbia County,42.411,-73.683
1375,Dover,Dutchess County,41.679,-73.569
4021,Potsdam,St. Lawrence County,44.670,-74.981
1090,Concord,Erie County,42.545,-78.703
5239,Waterford,Saratoga County,42.804,-73.687
5132,Vernon,Oneida County,43.066,-75.535
2510,Johnstown,Fulton County,43.007,-74.368
1890,Geneseo,Livingston County,42.796,-77.817
2051,Greenfield,Saratoga County,43.138,-73.872
1609,Erwin,Steuben County,42.138,-77.141
4623,Sodus,Wayne County,43.218,-77.049
4004,Port Jefferson,Suffolk County,40.946,-73.069
0532,Boston,Erie County,42.653,-78.755
3539,Niagara,Niagara County,43.115,-78.981
0049,Albion,Orleans County,43.226,-78.209
3160,Mechanicstown,Orange County,41.443,-74.388
0426,Big Flats,Chemung County,42.138,-76.914
2769,Le Roy,Genesee County,42.993,-77.966
1479,Eden,Erie County,42.655,-78.882
4341,Royalton,Niagara County,43.156,-78.556
3725,Oswego,Oswego County,43.402,-76.555
3964,Pleasantville,Westchester County,41.133,-73.793
2865,Livonia,Livingston County,42.809,-77.654
3773,Palmyra,Wayne County,43.080,-77.189
4258,Rochester,Ulster County,41.813,-74.271
3591,Northport,Suffolk County,40.901,-73.343
3317,Monticello,Sullivan County,41.656,-74.689
0070,Allegany,Cattaraugus County,42.091,-78.532
5240,Waterloo,Seneca County,42.919,-76.913
3622,Oakdale,Suffolk County,40.744,-73.139
4487,Scotia,Schenectady County,42.826,-73.964
2257,Hewlett,Nassau County,40.643,-73.696
4097,Radisson,Onondaga County,43.188,-76.293
3836,Pelham,Westchester County,40.910,-73.808
0310,Baywood,Suffolk County,40.750,-73.291
4902,Tappan,Rockland County,41.022,-73.947
5160,Viola,Rockland County,41.136,-74.082
0764,Canton,St. Lawrence County,44.596,-75.169
4642,South Hill,Tompkins County,42.429,-76.495
5282,Wellsville,Allegany County,42.118,-77.925
3843,Pendleton,Niagara County,43.104,-78.765
5027,Tuckahoe,Westchester County,40.950,-73.827
1802,Frankfort,Herkimer County,43.041,-75.137
2138,Hanover,Chautauqua County,42.487,-79.114
0981,Clarkson,Monroe County,43.245,-77.932
3601,Norwich,Chenango County,42.531,-75.524
5407,Williamson,Wayne County,43.246,-77.194
5190,Walden,Orange County,41.561,-74.188
0783,Carmel,Putnam County,41.430,-73.680
3257,Milo,Yates County,42.610,-77.008
0232,Avon,Livingston County,42.898,-77.721
2762,Lawrence,Nassau County,40.616,-73.730
0715,Cairo,Greene County,42.299,-74.016
0309,Bayville,Nassau County,40.911,-73.562
1559,Elmira,Chemung County,42.095,-76.779
3864,Peru,Clinton County,44.581,-73.564
0842,Cazenovia,Madison County,42.916,-75.862
3873,Phelps,Ontario County,42.957,-77.047
5229,Warwick,Orange County,41.256,-74.360
1117,Corinth,Saratoga County,43.229,-73.922
2452,Irvington,Westchester County,41.039,-73.868
4216,Ridgeway,Orleans County,43.262,-78.377
1994,Granby,Oswego County,43.290,-76.442
4010,Porter,Niagara County,43.258,-78.970
2275,Highland,Ulster County,41.721,-73.960
5313,West Point,Orange County,41.391,-73.956
1724,Flanders,Suffolk County,40.903,-72.618
3384,Mount Hope,Orange County,41.456,-74.527
1698,Fenton,Broome County,42.202,-75.803
5495,Woodstock,Ulster County,42.055,-74.165
1456,East Rochester,Monroe County,43.109,-77.487
2340,Homer,Cortland County,42.662,-76.170
0293,Batavia,Genesee County,42.997,-78.228
2396,Hurley,Ulster County,41.959,-74.123
2017,Granville,Washington County,43.422,-73.306
2776,Lee,Oneida County,43.325,-75.519
2713,Lakeview,Nassau County,40.685,-73.653
1660,Fairview,Dutchess County,41.724,-73.920
0732,Calverton,Suffolk County,40.906,-72.743
2124,Hamilton,Madison County,42.793,-75.489
0867,Centerport,Suffolk County,40.885,-73.376
3165,Medina,Orleans County,43.220,-78.387
2299,Hilton,Monroe County,43.288,-77.793
1123,Corning,Steuben County,42.149,-77.014
2379,Hudson,Columbia County,42.253,-73.791
1065,Collins,Erie County,42.492,-78.868
5334,Westmoreland,Oneida County,43.121,-75.439
4387,Salamanca,Cattaraugus County,42.158,-78.715
5134,Verona,Oneida County,43.159,-75.627
5242,Watertown,Jefferson County,43.933,-75.919
4462,Saratoga,Saratoga County,43.054,-73.644
5429,Wilson,Niagara County,43.273,-78.813
4315,Rosendale,Ulster County,41.847,-74.080
5235,Washingtonville,Orange County,41.428,-74.166
3856,Perry,Wyoming County,42.754,-78.011
1983,Goshen,Orange County,41.402,-74.324
5268,Webster,Monroe County,43.212,-77.430
4201,Richland,Oswego County,43.551,-76.165
0736,Cambria,Niagara County,43.177,-78.820
2074,Groton,Tompkins County,42.583,-76.360
0209,Attica,Wyoming County,42.821,-78.246
2973,Lyons,Wayne County,43.094,-77.004
4219,Riga,Monroe County,43.077,-77.873
0295,Bath,Steuben County,42.337,-77.318
3940,Pittstown,Rensselaer County,42.863,-73.519
2603,Kings Point,Nassau County,40.820,-73.735
4573,Sidney,Delaware County,42.307,-75.276
0119,Amsterdam,Montgomery County,42.956,-74.166
5411,Williamsville,Erie County,42.964,-78.738
2619,Kirkwood,Broome County,42.091,-75.799
3575,North Hills,Nassau County,40.781,-73.677
1659,Fairport,Monroe County,43.099,-77.442
1906,Ghent,Columbia County,42.315,-73.649
5227,Warsaw,Wyoming County,42.738,-78.132
3008,Malone,Franklin County,44.849,-74.295
3203,Mexico,Oswego County,43.455,-76.205
3593,Northumberland,Saratoga County,43.162,-73.628
5213,Walton,Delaware County,42.174,-75.127
5300,West Hills,Suffolk County,40.816,-73.432
1883,Gates,Monroe County,43.156,-77.692
2032,Greene,Chenango County,42.308,-75.754
2815,Liberty,Sullivan County,41.801,-74.747
3580,North Salem,Westchester County,41.334,-73.614
5145,Vienna,Oneida County,43.232,-75.772
3057,Marilla,Erie County,42.824,-78.528
3001,Maine,Broome County,42.196,-76.017
4497,Sea Cliff,Nassau County,40.849,-73.645
1338,Dickinson,Broome County,42.130,-75.910
3680,Oneonta,Otsego County,42.425,-75.100
0165,Ardsley,Westchester County,41.011,-73.844
0014,Adams,Jefferson County,43.845,-76.054
1300,Delhi,Delaware County,42.272,-74.908
2457,Island Park,Nassau County,40.604,-73.655
2673,LaFayette,Onondaga County,42.908,-76.103
2226,Hector,Schuyler County,42.458,-76.784
5062,Ulysses,Tompkins County,42.513,-76.617
0062,Alfred,Allegany County,42.233,-77.795
2938,Lowville,Lewis County,43.814,-75.518
4545,Shelby,Orleans County,43.173,-78.387
5347,Wheatland,Monroe County,43.009,-77.816
2061,Greenwich,Washington County,43.148,-73.476
1060,Colesville,Broome County,42.179,-75.650
1741,Flower Hill,Nassau County,40.807,-73.681
0994,Clayton,Jefferson County,44.204,-76.080
3421,Murray,Orleans County,43.258,-78.057
0738,Camden,Oneida County,43.345,-75.774
2060,Greenville,Orange County,41.374,-74.598
3309,Montebello,Rockland County,41.136,-74.118
2202,Hawthorne,Westchester County,41.107,-73.796
3693,Orangeburg,Rockland County,41.046,-73.950
2853,Little Falls,Herkimer County,43.043,-74.860
0887,Champion,Jefferson County,43.973,-75.706
3058,Marion,Wayne County,43.166,-77.191
3441,Nassau,Rensselaer County,42.548,-73.545
5325,Westfield,Chautauqua County,42.268,-79.600
2055,Greenport,Columbia County,42.230,-73.796
5232,Washington,Dutchess County,41.791,-73.677
0528,Boonville,Oneida County,43.459,-75.285
3260,Milton,Saratoga County,43.034,-73.853
4966,Tioga,Tioga County,42.106,-76.369
3387,Mount Morris,Livingston County,42.665,-77.905
2494,Jerusalem,Yates County,42.613,-77.158
1251,Dansville,Livingston County,42.561,-77.696
4012,Portland,Chautauqua County,42.370,-79.460
0903,Charlton,Saratoga County,42.959,-73.991
0650,Brutus,Cayuga County,43.046,-76.546
5251,Waverly,Tioga County,42.010,-76.527
1694,Fayetteville,Onondaga County,43.030,-76.004
3787,Paris,Oneida County,42.973,-75.272
3666,Olive,Ulster County,41.947,-74.265
5008,Trenton,Oneida County,43.260,-75.206
2850,Lisbon,St. Lawrence County,44.697,-75.306
3841,Pembroke,Genesee County,43.002,-78.385
0158,Arcade,Wyoming County,42.571,-78.370
3262,Minden,Montgomery County,42.931,-74.697
4692,Springville,Erie County,42.508,-78.667
5064,Unadilla,Otsego County,42.368,-75.332
1468,Eaton,Madison County,42.890,-75.630
0907,Chatham,Columbia County,42.426,-73.582
5309,West Monroe,Oswego County,43.306,-76.089
0932,Chester,Orange County,41.363,-74.271
2823,Lima,Livingston County,42.896,-77.609
1546,Ellery,Chautauqua County,42.190,-79.354
0720,Caledonia,Livingston County,42.959,-77.815
1012,Clinton,Dutchess County,41.864,-73.820
0410,Bethel,Sullivan County,41.689,-74.855
5371,Whitehall,Washington County,43.539,-73.385
0912,Chautauqua,Chautauqua County,42.242,-79.506
2726,Lansing,Tompkins County,42.484,-76.480
0198,Athens,Greene County,42.277,-73.859
5462,Wolcott,Wayne County,43.274,-76.766
5223,Warrensburg,Warren County,43.503,-73.797
1291,Deerfield,Oneida County,43.185,-75.151
4554,Sherburne,Chenango County,42.694,-75.481
2172,Hartland,Niagara County,43.258,-78.555
3990,Pomona,Rockland County,41.167,-74.043
4779,Stockholm,St. Lawrence County,44.746,-74.856
2353,Hopewell,Ontario County,42.893,-77.196
4461,Saranac,Clinton County,44.654,-73.810
3316,Montgomery,Orange County,41.528,-74.237
5328,Westhampton,Suffolk County,40.825,-72.666
5534,Yorkshire,Cattaraugus County,42.479,-78.520
5045,Tuxedo,Orange County,41.242,-74.172
3063,Marlboro,Ulster County,41.606,-73.972
0058,Alexandria,Jefferson County,44.320,-75.878
4603,Sloan,Erie County,42.893,-78.794
5253,Wayland,Steuben County,42.525,-77.598
1348,Dix,Schuyler County,42.334,-76.899
1742,Floyd,Oneida County,43.239,-75.324
4737,Stanford,Dutchess County,41.899,-73.673
2864,Livingston,Columbia County,42.139,-73.797
3729,Otsego,Otsego County,42.759,-74.963
5373,Whitesboro,Oneida County,43.122,-75.292
0167,Argyle,Washington County,43.232,-73.479
2876,Locust Valley,Nassau County,40.876,-73.597
1693,Fayette,Seneca County,42.843,-76.859
3863,Perth,Fulton County,43.005,-74.204
3289,Mohawk,Montgomery County,42.956,-74.402
2458,Islandia,Suffolk County,40.804,-73.169
3749,Oxford,Chenango County,42.397,-75.596
3743,Owasco,Cayuga County,42.894,-76.493
2197,Haviland,Dutchess County,41.767,-73.902
2688,Lake George,Warren County,43.434,-73.723
3763,Palermo,Oswego County,43.367,-76.260
4351,Rush,Monroe County,42.971,-77.673
3321,Montrose,Westchester County,41.252,-73.932
1247,Danby,Tompkins County,42.332,-76.472
0795,Carroll,Chautauqua County,42.040,-79.099
1660,Fairview,Westchester County,41.043,-73.797
4749,Starkey,Yates County,42.524,-76.945
4203,Richmond,Ontario County,42.792,-77.524
1550,Ellisburg,Jefferson County,43.747,-76.113
4245,Riverside,Suffolk County,40.881,-72.678
1590,Enfield,Tompkins County,42.442,-76.621
4273,Rockland,Sullivan County,41.963,-74.789
0790,Caroline,Tompkins County,42.358,-76.335
3218,Middletown,Delaware County,42.160,-74.628
0807,Carthage,Jefferson County,43.978,-75.609
3337,Moravia,Cayuga County,42.737,-76.413
5137,Veteran,Chemung County,42.247,-76.793
4482,Schuyler,Herkimer County,43.113,-75.096
0972,Clarendon,Orleans County,43.174,-78.056
2319,Holland,Erie County,42.670,-78.524
0386,Bennington,Wyoming County,42.817,-78.388
3521,New York Mills,Oneida County,43.105,-75.291
4764,Sterling,Cayuga County,43.315,-76.659
3762,Palatine,Montgomery County,42.951,-74.537
0212,Au Sable,Clinton County,44.504,-73.534
1210,Cuba,Allegany County,42.208,-78.243
3624,Oakfield,Genesee County,43.085,-78.275
0932,Chester,Warren County,43.686,-73.875
0394,Bergen,Genesee County,43.096,-77.956
3020,Manheim,Herkimer County,43.058,-74.799
2927,Louisville,St. Lawrence County,44.908,-75.012
4362,Rutland,Jefferson County,43.944,-75.786
0245,Bainbridge,Chenango County,42.297,-75.477
4557,Sherrill,Oneida County,43.074,-75.598
5195,Wales,Erie County,42.739,-78.518
1257,Darien,Genesee County,42.909,-78.382
4319,Roslyn,Nassau County,40.800,-73.651
2715,Lakewood,Chautauqua County,42.104,-79.333
3571,North East,Dutchess County,41.946,-73.547
0390,Benton,Yates County,42.722,-77.050
1261,Davenport,Delaware County,42.454,-74.902
3492,New Haven,Oswego County,43.472,-76.318
1737,Florida,Orange County,41.332,-74.357
0038,Akron,Erie County,43.021,-78.495
0628,Brookville,Nassau County,40.813,-73.567
0779,Carlton,Orleans County,43.340,-78.207
3704,Orleans,Jefferson County,44.224,-75.955
5010,Triangle,Broome County,42.355,-75.928
1806,Franklinville,Cattaraugus County,42.304,-78.498
3472,New Bremen,Lewis County,43.852,-75.368
4940,Thomaston,Nassau County,40.786,-73.714
5140,Victor,Ontario County,42.983,-77.409
1918,Guilford,Chenango County,42.402,-75.451
4464,Sardinia,Erie County,42.557,-78.532
1737,Florida,Montgomery County,42.895,-74.201
2159,Harriman,Orange County,41.308,-74.145
4780,Stockport,Columbia County,42.317,-73.755
0398,Berne,Albany County,42.604,-74.130
1423,Durham,Greene County,42.374,-74.153
3604,Nunda,Livingston County,42.572,-77.883
0171,Arlington,Dutchess County,41.696,-73.897
4518,Seneca,Ontario County,42.833,-77.074
1458,East Williston,Nassau County,40.758,-73.635
1311,Denmark,Lewis County,43.905,-75.623
5536,Yorkville,Oneida County,43.113,-75.271
2631,Knox,Albany County,42.685,-74.106
4583,Silver Creek,Chautauqua County,42.544,-79.167
2560,Kendall,Orleans County,43.329,-78.052
0221,Aurelius,Cayuga County,42.929,-76.668
2055,Greenport,Suffolk County,41.103,-72.359
4631,Somerset,Niagara County,43.336,-78.548
2705,Lakeland,Onondaga County,43.090,-76.240
4555,Sheridan,Chautauqua County,42.490,-79.226
1932,Glen,Montgomery County,42.901,-74.351
2807,Lewiston,Niagara County,43.173,-79.036
3495,New Lebanon,Columbia County,42.471,-73.445
3891,Piermont,Rockland County,41.042,-73.918
0580,Brewster,Putnam County,41.397,-73.617
0267,Barker,Broome County,42.265,-75.911
3585,Northampton,Fulton County,43.158,-74.171
2077,Groveland,Livingston County,42.710,-77.769
2482,Jay,Essex County,44.378,-73.696
1728,Fleming,Cayuga County,42.874,-76.578
0933,Chesterfield,Essex County,44.454,-73.449
3289,Mohawk,Herkimer County,43.011,-75.004
4731,Stafford,Genesee County,42.990,-78.084
4547,Sheldon,Wyoming County,42.746,-78.377
2831,Lincoln Park,Ulster County,41.951,-73.994
0019,Addison,Steuben County,42.132,-77.234
1273,De Kalb,St. Lawrence County,44.476,-75.365
2759,Laurens,Otsego County,42.536,-75.118
2824,Lyme,Jefferson County,44.025,-76.229
4067,Pulaski,Oswego County,43.567,-76.128
2863,Liverpool,Onondaga County,43.106,-76.218
0603,Bristol,Ontario County,42.808,-77.426
3318,Montour,Schuyler County,42.340,-76.826
4306,Rose,Wayne County,43.160,-76.900
0441,Byron,Genesee County,43.085,-78.067
4358,Russia,Herkimer County,43.302,-75.069
1462,Easton,Washington County,43.030,-73.536
0654,Buchanan,Westchester County,41.262,-73.938
3225,Milan,Dutchess County,41.978,-73.783
5204,Wallkill,Ulster County,41.606,-74.184
0618,Brookfield,Madison County,42.808,-75.343
2698,Lake Placid,Essex County,44.279,-73.980
1815,Freedom,Cattaraugus County,42.471,-78.377
4338,Roxbury,Delaware County,42.316,-74.528
2275,Highland,Sullivan County,41.569,-74.887
4446,Sanford,Broome County,42.093,-75.495
1929,Glasco,Ulster County,42.044,-73.947
3882,Phoenix,Oswego County,43.231,-76.301
4688,Springport,Cayuga County,42.853,-76.672
1298,Delaware,Sullivan County,41.755,-75.000
3980,Poland,Chautauqua County,42.130,-79.121
3862,Persia,Cattaraugus County,42.420,-78.918
5296,West End,Otsego County,42.459,-75.100
2170,Hartford,Washington County,43.356,-73.413
0960,Churchville,Monroe County,43.104,-77.884
0117,Amity,Allegany County,42.226,-78.003
1792,Fowler,St. Lawrence County,44.276,-75.403
1021,Clyde,Wayne County,43.084,-76.869
2402,Hyde Park,Dutchess County,41.785,-73.933
0257,Bangor,Franklin County,44.838,-74.430
2442,Ira,Cayuga County,43.209,-76.531
1150,Covert,Seneca County,42.584,-76.697
2504,Johnsburg,Warren County,43.614,-74.067
3174,Melrose Park,Cayuga County,42.909,-76.540
2302,Hinsdale,Cattaraugus County,42.167,-78.372
3188,Mentz,Cayuga County,43.041,-76.634
5086,Urbana,Steuben County,42.410,-77.227
1465,Eastport,Suffolk County,40.826,-72.732
2153,Harmony,Chautauqua County,42.050,-79.458
4066,Providence,Saratoga County,43.117,-74.045
4783,Stone Ridge,Ulster County,41.853,-74.139
3358,Morristown,St. Lawrence County,44.539,-75.630
4199,Richfield,Otsego County,42.851,-75.048
1991,Grafton,Rensselaer County,42.764,-73.456
2386,Hume,Allegany County,42.482,-78.122
0970,Clermont,Columbia County,42.086,-73.855
0130,Angola,Erie County,42.638,-79.028
0049,Albion,Oswego County,43.489,-76.031
0515,Bolivar,Allegany County,42.016,-78.132
4493,Scottsville,Monroe County,43.026,-77.745
0517,Bolton,Warren County,43.579,-73.658
4262,Rock Hill,Sullivan County,41.626,-74.598
4781,Stockton,Chautauqua County,42.299,-79.357
1198,Crown Point,Essex County,43.964,-73.583
0219,Augusta,Oneida County,42.977,-75.502
1051,Cold Spring,Putnam County,41.420,-73.955
4734,Stamford,Delaware County,42.339,-74.666
4777,Stockbridge,Madison County,42.986,-75.591
2481,Java,Wyoming County,42.657,-78.385
2103,Hadley,Saratoga County,43.337,-73.906
3875,Philadelphia,Jefferson County,44.143,-75.705
0187,Ashford,Cattaraugus County,42.454,-78.652
1397,Dryden,Tompkins County,42.491,-76.297
1901,Germantown,Columbia County,42.137,-73.870
0737,Cambridge,Washington County,43.008,-73.446
3071,Marshall,Oneida County,42.967,-75.386
3683,Ontario,Wayne County,43.221,-77.283
0566,Brant,Erie County,42.595,-79.025
3456,Nelson,Madison County,42.886,-75.745
3214,Middlefield,Otsego County,42.697,-74.856
5438,Winfield,Herkimer County,42.897,-75.166
2869,Locke,Cayuga County,42.655,-76.419
4356,Russell,St. Lawrence County,44.402,-75.141
3663,Olean,Cattaraugus County,42.061,-78.424
1106,Cooperstown,Otsego County,42.701,-74.924
0334,Bedford,Westchester County,41.204,-73.644
2397,Huron,Wayne County,43.246,-76.891
1013,Clintondale,Ulster County,41.695,-74.051
5537,Youngstown,Niagara County,43.247,-79.050
2828,Lincoln,Madison County,43.032,-75.734
2294,Hillsdale,Columbia County,42.229,-73.521
4394,Salisbury,Herkimer County,43.222,-74.801
4022,Potter,Yates County,42.714,-77.181
4953,Throop,Cayuga County,42.984,-76.619
0700,Butler,Wayne County,43.177,-76.765
1251,Dansville,Steuben County,42.465,-77.662
1892,Genoa,Cayuga County,42.647,-76.569
0276,Barre,Orleans County,43.179,-78.211
5323,Western,Oneida County,43.350,-75.411
5264,Webb,Herkimer County,43.822,-75.040
0397,Berlin,Rensselaer County,42.660,-73.373
1050,Colchester,Delaware County,42.040,-74.953
5245,Watson,Lewis County,43.830,-75.237
3595,Northville,Suffolk County,40.970,-72.619
0781,Carlisle,Schoharie County,42.739,-74.439
2225,Hebron,Washington County,43.258,-73.349
1904,Gerry,Chautauqua County,42.227,-79.231
3085,Maryland,Otsego County,42.551,-74.866
0411,Bethany,Genesee County,42.920,-78.127
1022,Clymer,Chautauqua County,42.049,-79.582
2321,Holley,Orleans County,43.226,-78.027
2762,Lawrence,St. Lawrence County,44.746,-74.676
3215,Middleport,Niagara County,43.213,-78.476
4139,Reading,Schuyler County,42.420,-76.939
2466,Jackson,Washington County,43.080,-73.383
0205,Atlantic Beach,Nassau County,40.589,-73.729
1410,Dundee,Yates County,42.523,-76.977
4536,Sharon,Schoharie County,42.777,-74.613
5339,Westville,Franklin County,44.941,-74.383
2191,Houghton,Allegany County,42.423,-78.157
0754,Canadice,Ontario County,42.719,-77.559
1270,Dayton,Cattaraugus County,42.377,-78.995
1012,Clinton,Oneida County,43.048,-75.379
0096,Altamont,Albany County,42.701,-74.034
5478,Woodhull,Steuben County,42.050,-77.394
4636,South Bristol,Ontario County,42.695,-77.406
5142,Victory,Cayuga County,43.210,-76.648
2775,Ledyard,Cayuga County,42.745,-76.674
1853,Gallatin,Columbia County,42.062,-73.711
1889,Genesee,Allegany County,42.046,-78.245
5055,Tyrone,Schuyler County,42.442,-77.044
0831,Catharine,Schuyler County,42.338,-76.734
0223,Austerlitz,Columbia County,42.315,-73.518
1335,Diana,Lewis County,44.108,-75.373
3971,Plymouth,Chenango County,42.605,-75.605
4528,Seward,Schoharie County,42.708,-74.583
2475,Jamesport,Suffolk County,40.950,-72.581
0040,Alabama,Genesee County,43.090,-78.366
2811,Leyden,Lewis County,43.534,-75.382
0751,Canaan,Columbia County,42.403,-73.457
1070,Columbia,Herkimer County,42.929,-75.046
3432,Nanticoke,Broome County,42.285,-76.027
0589,Bridgeport,Madison County,43.159,-75.964
3602,Norwood,St. Lawrence County,44.751,-74.994
4663,Sparta,Livingston County,42.628,-77.698
0279,Barrington,Yates County,42.523,-77.053
0901,Charlotte,Chautauqua County,42.305,-79.237
5243,Waterville,Oneida County,42.931,-75.380
5510,Wright,Schoharie County,42.675,-74.207
4484,Scipio,Cayuga County,42.790,-76.572
3359,Morrisville,Madison County,42.899,-75.640
0087,Almond,Allegany County,42.341,-77.782
1149,Coventry,Chenango County,42.291,-75.629
1548,Ellington,Chautauqua County,42.218,-79.116
3191,Meredith,Delaware County,42.364,-74.939
0188,Ashland,Chemung County,42.019,-76.750
0594,Bridgewater,Oneida County,42.904,-75.265
2358,Horicon,Warren County,43.718,-73.706
0396,Berkshire,Tioga County,42.297,-76.166
3114,Mayville,Chautauqua County,42.254,-79.504
1650,Fairfield,Herkimer County,43.131,-74.938
3260,Milton,Ulster County,41.660,-73.957
3236,Millbrook,Dutchess County,41.785,-73.694
2852,Litchfield,Herkimer County,42.968,-75.164
0449,Black Brook,Clinton County,44.524,-73.818
3690,Orange,Schuyler County,42.343,-77.036
2480,Jasper,Steuben County,42.144,-77.533
3357,Morrisonville,Clinton County,44.693,-73.562
5041,Tuscarora,Steuben County,42.049,-77.257
2416,Indian Lake,Hamilton County,43.797,-74.361
3216,Middlesex,Yates County,42.718,-77.289
2369,Howard,Steuben County,42.339,-77.514
0898,Charleston,Montgomery County,42.825,-74.356
1490,Edinburg,Saratoga County,43.223,-74.070
2028,Great Bend,Jefferson County,44.034,-75.719
4686,Springfield,Otsego County,42.833,-74.867
3213,Middlebury,Wyoming County,42.824,-78.133
5410,Williamstown,Oswego County,43.455,-75.888
2774,Lebanon,Madison County,42.780,-75.626
0611,Brocton,Chautauqua County,42.389,-79.441
3701,Oriskany,Oneida County,43.157,-75.333
3937,Pittsfield,Otsego County,42.614,-75.271
0479,Bloomfield,Ontario County,42.899,-77.424
0597,Brighton,Franklin County,44.469,-74.247
3080,Martinsburg,Lewis County,43.726,-75.540
3585,Northampton,Suffolk County,40.889,-72.690
1736,Florence,Oneida County,43.419,-75.740
3694,Orangeville,Wyoming County,42.744,-78.251
4981,Tompkins,Delaware County,42.116,-75.273
2805,Lewis,Essex County,44.318,-73.581
4989,Torrey,Yates County,42.670,-76.955
4427,Sanborn,Niagara County,43.137,-78.885
0364,Bellmont,Franklin County,44.761,-74.131
1151,Covington,Wyoming County,42.833,-78.015
0110,Amboy,Oswego County,43.377,-75.918
2794,Leon,Cattaraugus County,42.300,-79.001
5122,Venice,Cayuga County,42.722,-76.543
4610,Smithville,Chenango County,42.410,-75.761
3091,Masonville,Delaware County,42.228,-75.338
4956,Thurston,Steuben County,42.225,-77.279
2522,Jordan,Onondaga County,43.065,-76.473
2568,Kensington,Nassau County,40.793,-73.722
1843,Fulton,Schoharie County,42.589,-74.451
0796,Carrollton,Cattaraugus County,42.056,-78.638
4431,Sand Ridge,Oswego County,43.256,-76.230
1820,Fremont,Sullivan County,41.874,-75.034
3315,Montezuma,Cayuga County,43.013,-76.698
3977,Point Lookout,Nassau County,40.592,-73.581
5027,Tuckahoe,Suffolk County,40.899,-72.411
3574,North Haven,Suffolk County,41.013,-72.313
1915,Gilboa,Schoharie County,42.431,-74.454
2550,Keene,Essex County,44.123,-73.883
3546,Niles,Cayuga County,42.817,-76.404
5349,Wheeler,Steuben County,42.437,-77.339
2121,Hamden,Delaware County,42.201,-74.981
4606,Smithfield,Madison County,42.965,-75.664
1432,Eagle,Wyoming County,42.565,-78.254
4954,Thurman,Warren County,43.492,-73.986
2355,Hopkinton,St. Lawrence County,44.537,-74.661
4829,Summerhill,Cayuga County,42.653,-76.321
5073,Union Springs,Cayuga County,42.840,-76.693
1803,Franklin,Franklin County,44.520,-74.070
4000,Port Byron,Cayuga County,43.035,-76.624
3498,New Lisbon,Otsego County,42.625,-75.133
2412,Independence,Allegany County,42.044,-77.794
2459,Italy,Yates County,42.619,-77.312
4832,Summit,Schoharie County,42.574,-74.599
1680,Farmersville,Cattaraugus County,42.384,-78.406
3710,Orwell,Oswego County,43.563,-75.954
4766,Steuben,Oneida County,43.353,-75.264
4489,Scott,Cortland County,42.738,-76.236
4628,Solon,Cortland County,42.616,-76.023
0688,Burlington,Otsego County,42.717,-75.145
5455,Wirt,Allegany County,42.124,-78.134
0691,Burns,Allegany County,42.436,-77.782
3698,Orient,Suffolk County,41.139,-72.303
4200,Richford,Tioga County,42.375,-76.194
5221,Warren,Herkimer County,42.899,-74.938
4972,Tivoli,Dutchess County,42.058,-73.909
3728,Otisville,Orange County,41.473,-74.538
1331,Dexter,Jefferson County,44.008,-76.044
3595,Northville,Fulton County,43.226,-74.172
0481,Bloomingburg,Sullivan County,41.554,-74.440
0170,Arkwright,Chautauqua County,42.389,-79.248
5054,Tyre,Seneca County,42.989,-76.789
5254,Wayne,Steuben County,42.432,-77.140
3177,Mina,Chautauqua County,42.125,-79.700
5025,Truxton,Cortland County,42.710,-76.024
1822,French Creek,Chautauqua County,42.042,-79.711
3894,Pike,Wyoming County,42.567,-78.136
3435,Naples,Ontario County,42.615,-77.402
0983,Clarksville,Allegany County,42.140,-78.248
1517,Elbridge,Onondaga County,43.035,-76.448
4342,Ruby,Ulster County,42.018,-74.015
3648,Ohio,Herkimer County,43.571,-74.841
4119,Randolph,Cattaraugus County,42.162,-78.975
0639,Brownville,Jefferson County,44.007,-75.984
1253,Danube,Herkimer County,42.982,-74.796
4231,Ripley,Chautauqua County,42.267,-79.711
0870,Centerville,Allegany County,42.475,-78.268
2607,Kingston,Ulster County,41.978,-74.039
3945,Plainfield,Otsego County,42.828,-75.195
2986,Macomb,St. Lawrence County,44.439,-75.571
1338,Dickinson,Franklin County,44.728,-74.540
5251,Waverly,Franklin County,44.526,-74.545
0126,Andover,Allegany County,42.156,-77.796
2132,Hancock,Delaware County,41.954,-75.280
3045,Marathon,Cortland County,42.442,-76.032
1081,Columbus,Chenango County,42.692,-75.370
4389,Salem,Washington County,43.172,-73.328
3470,New Berlin,Chenango County,42.624,-75.332
2499,Jewett,Greene County,42.238,-74.231
0739,Cameron,Steuben County,42.227,-77.422
1820,Fremont,Steuben County,42.395,-77.610
5435,Windsor,Broome County,42.076,-75.640
3244,Millerton,Dutchess County,41.954,-73.511
4877,Sylvan Beach,Oneida County,43.196,-75.730
5426,Wilmington,Essex County,44.388,-73.815
4049,Preston,Chenango County,42.503,-75.610
2755,Laurel,Suffolk County,40.970,-72.562
2130,Hampton,Washington County,43.551,-73.291
0371,Belmont,Allegany County,42.223,-78.034
1641,Exeter,Otsego County,42.799,-75.078
0231,Avoca,Steuben County,42.410,-77.421
3559,Norfolk,St. Lawrence County,44.801,-74.991
3031,Mansfield,Cattaraugus County,42.305,-78.767
4329,Round Lake,Saratoga County,42.939,-73.790
1829,Friendship,Allegany County,42.206,-78.138
2805,Lewis,Lewis County,43.477,-75.565
1762,Forestburgh,Sullivan County,41.562,-74.710
1269,Day,Saratoga County,43.321,-74.028
5326,Westford,Otsego County,42.646,-74.826
2995,Madrid,St. Lawrence County,44.750,-75.131
0250,Baldwin,Chemung County,42.102,-76.657
1205,Crystal Beach,Ontario County,42.814,-77.264
0556,Bradford,Steuben County,42.334,-77.145
0025,Afton,Chenango County,42.228,-75.527
1868,Gardiner,Ulster County,41.680,-74.150
3109,Mayfield,Fulton County,43.105,-74.265
1445,Earlville,Chenango County,42.740,-75.544
3530,Newfield,Tompkins County,42.362,-76.591
4321,Rossie,St. Lawrence County,44.325,-75.624
2737,Lapeer,Cortland County,42.456,-76.112
3131,McDonough,Chenango County,42.502,-75.728
3932,Pitcairn,St. Lawrence County,44.222,-75.270
2897,Long Lake,Hamilton County,43.966,-74.635
2969,Lyndonville,Orleans County,43.327,-78.389
2295,Hillside,Ulster County,41.918,-74.035
4043,Prattsville,Greene County,42.320,-74.414
1642,Fair Haven,Cayuga County,43.316,-76.702
2810,Lexington,Greene County,42.209,-74.368
5503,Worcester,Otsego County,42.591,-74.750
5547,Zena,Ulster County,42.017,-74.076
0085,Alma,Allegany County,42.048,-78.016
0758,Candor,Tioga County,42.233,-76.342
0099,Altona,Clinton County,44.888,-73.656
2714,Lakeville,Livingston County,42.836,-77.705
3733,Otto,Cattaraugus County,42.399,-78.844
5034,Turin,Lewis County,43.661,-75.427
1819,Freetown,Cortland County,42.520,-76.023
4938,Theresa,Jefferson County,44.215,-75.797
2062,Greenwood,Steuben County,42.147,-77.662
4789,Stony Creek,Warren County,43.415,-74.027
3269,Minerva,Essex County,43.855,-74.118
5341,Wethersfield,Wyoming County,42.648,-78.245
4008,Portage,Livingston County,42.560,-77.995
3600,Norway,Herkimer County,43.229,-74.951
4483,Scio,Allegany County,42.171,-77.979
1007,Cleveland,Oswego County,43.240,-75.884
5119,Varna,Tompkins County,42.455,-76.438
1765,Forestville,Chautauqua County,42.468,-79.177
4586,Silver Springs,Wyoming County,42.661,-78.086
3255,Millwood,Westchester County,41.192,-73.797
0129,Angelica,Allegany County,42.307,-78.016
4666,Spencer,Tioga County,42.210,-76.493
5471,Woodridge,Sullivan County,41.711,-74.574
4748,Stark,Herkimer County,42.928,-74.824
3722,Ossian,Livingston County,42.514,-77.770
0744,Campbell,Steuben County,42.233,-77.197
1746,Fonda,Montgomery County,42.955,-74.377
2387,Humphrey,Cattaraugus County,42.231,-78.497
0188,Ashland,Greene County,42.319,-74.335
1094,Conesville,Schoharie County,42.398,-74.338
3820,Pavilion,Genesee County,42.876,-78.023
5279,Wells,Hamilton County,43.476,-74.285
2838,Lyndon,Cattaraugus County,42.314,-78.369
5142,Victory,Saratoga County,43.092,-73.592
1010,Clifton,St. Lawrence County,44.201,-74.886
0225,Ava,Oneida County,43.414,-75.441
0342,Belfast,Allegany County,42.343,-78.111
1424,Durhamville,Oneida County,43.121,-75.671
4556,Sherman,Chautauqua County,42.159,-79.595
4353,Rushville,Ontario County,42.761,-77.228
2668,Lacona,Oswego County,43.643,-76.069
1109,Copenhagen,Lewis County,43.893,-75.674
1897,Georgetown,Madison County,42.787,-75.744
4332,Round Top,Greene County,42.269,-74.027
1053,Coldspring,Cattaraugus County,42.056,-78.845
0536,Bovina,Delaware County,42.274,-74.757
5076,Unionville,Orange County,41.302,-74.562
1012,Clinton,Clinton County,44.938,-73.920
2232,Hemlock,Livingston County,42.794,-77.606
2107,Hague,Warren County,43.691,-73.550
3656,Old Forge,Herkimer County,43.710,-74.974
3457,Nelsonville,Putnam County,41.425,-73.947
2060,Greenville,Greene County,42.415,-74.022
2433,Interlaken,Seneca County,42.617,-76.725
4439,Sandy Creek,Oswego County,43.644,-76.086
1615,Essex,Essex County,44.294,-73.395
0222,Aurora,Cayuga County,42.754,-76.702
4003,Port Gibson,Ontario County,43.035,-77.157
0564,Brandon,Franklin County,44.735,-74.415
4746,Star Lake,St. Lawrence County,44.160,-75.032
1513,Elba,Genesee County,43.077,-78.187
1530,Elizabethtown,Essex County,44.216,-73.591
1709,Fillmore,Allegany County,42.466,-78.115
0934,Chestertown,Warren County,43.653,-73.801
1981,Gorham,Ontario County,42.799,-77.132
0267,Barker,Niagara County,43.330,-78.555
4900,Tannersville,Greene County,42.196,-74.134
4971,Titusville,Dutchess County,41.668,-73.874
0818,Cassadaga,Chautauqua County,42.344,-79.309
2979,Machias,Cattaraugus County,42.420,-78.494
4075,Putnam,Washington County,43.747,-73.418
3534,Newport,Herkimer County,43.186,-75.014
3468,New Baltimore,Greene County,42.446,-73.788
3643,Odessa,Schuyler County,42.337,-76.789
4471,Savannah,Wayne County,43.067,-76.760
2177,Hartsville,Steuben County,42.222,-77.660
2272,High Falls,Ulster County,41.827,-74.126
2136,Hannibal,Oswego County,43.321,-76.579
0833,Cato,Cayuga County,43.168,-76.573
3741,Ovid,Seneca County,42.676,-76.823
1386,Dresden,Washington County,43.591,-73.469
4799,Stratford,Fulton County,43.210,-74.610
2180,Hartwick,Otsego County,42.660,-75.049
3355,Morris,Otsego County,42.549,-75.245
2008,Granger,Allegany County,42.480,-78.011
4567,Shoreham,Suffolk County,40.957,-72.908
0146,Antwerp,Jefferson County,44.199,-75.607
1606,Erin,Chemung County,42.186,-76.670
0553,Boylston,Oswego County,43.658,-75.953
3915,Pine Valley,Chemung County,42.225,-76.846
0057,Alexander,Genesee County,42.901,-78.257
4804,Strykersville,Wyoming County,42.705,-78.448
5473,Woodbourne,Sullivan County,41.760,-74.594
2075,Grove,Allegany County,42.480,-77.894
5280,Wellsburg,Chemung County,42.016,-76.727
4143,Red Creek,Wayne County,43.247,-76.724
1312,Denning,Ulster County,41.955,-74.482
0071,Allen,Allegany County,42.397,-78.004
5163,Virgil,Cortland County,42.511,-76.194
0927,Cherry Valley,Otsego County,42.796,-74.753
2826,Limestone,Cattaraugus County,42.027,-78.629
3980,Poland,Herkimer County,43.226,-75.061
2162,Harrisburg,Lewis County,43.837,-75.666
4154,Redfield,Oswego County,43.587,-75.829
1499,Edwards,St. Lawrence County,44.325,-75.251
2245,Hermon,St. Lawrence County,44.467,-75.230
0840,Cayuga,Cayuga County,42.919,-76.726
3542,Nichols,Tioga County,42.022,-76.367
3777,Panama,Chautauqua County,42.075,-79.483
5099,Valley Falls,Rensselaer County,42.903,-73.563
2786,Leicester,Livingston County,42.772,-77.897
4352,Rushford,Allegany County,42.392,-78.254
0923,Cherry Creek,Chautauqua County,42.294,-79.100
2469,Jacksonville,Tompkins County,42.508,-76.615
4693,Springwater,Livingston County,42.637,-77.596
4907,Taylor,Cortland County,42.596,-75.919
0475,Bliss,Wyoming County,42.577,-78.253
4305,Roscoe,Sullivan County,41.933,-74.913
5532,York,Livingston County,42.871,-77.885
3219,Middleville,Herkimer County,43.139,-74.968
4245,Riverside,Steuben County,42.156,-77.083
4171,Remsen,Oneida County,43.327,-75.187
3527,Newcomb,Essex County,44.007,-74.100
2390,Hunter,Greene County,42.214,-74.219
4197,Richburg,Allegany County,42.088,-78.153
2351,Hope,Hamilton County,43.323,-74.235
4301,Romulus,Seneca County,42.752,-76.834
1242,Dalton,Livingston County,42.541,-77.953
3230,Milford,Otsego County,42.591,-74.945
3858,Perrysburg,Cattaraugus County,42.456,-79.002
2307,Hobart,Delaware County,42.371,-74.670
2142,Harbor Hills,Nassau County,40.791,-73.747
5521,Wyoming,Wyoming County,42.826,-78.090
2486,Jeffersonville,Sullivan County,41.781,-74.934
2777,Leeds,Greene County,42.255,-73.902
1281,Decatur,Otsego County,42.657,-74.706
1684,Farnham,Erie County,42.594,-79.091
1379,Downsville,Delaware County,42.081,-74.996
3398,Mountain Dale,Sullivan County,41.690,-74.531
1613,Esperance,Schoharie County,42.761,-74.257
4061,Prospect,Oneida County,43.304,-75.152
0680,Burdett,Schuyler County,42.420,-76.849
5316,West Union,Steuben County,42.044,-77.688
0995,Clayville,Oneida County,42.980,-75.251
0358,Belleville,Jefferson County,43.783,-76.119
2851,Lisle,Broome County,42.351,-76.003
1914,Gilbertsville,Otsego County,42.471,-75.326
5216,Ward,Allegany County,42.225,-77.902
3028,Mannsville,Jefferson County,43.713,-76.063
3900,Pinckney,Lewis County,43.834,-75.789
2990,Madison,Madison County,42.899,-75.512
4450,Santa Clara,Franklin County,44.498,-74.363
1029,Colton,St. Lawrence County,44.553,-74.940
0473,Blenheim,Schoharie County,42.488,-74.523
3906,Pine Hill,Ulster County,42.133,-74.480
1453,East Kingston,Ulster County,41.954,-73.968
2363,Hortonville,Sullivan County,41.764,-75.030
1386,Dresden,Yates County,42.684,-76.956
3145,McLean,Tompkins County,42.552,-76.291
4161,Redwood,Jefferson County,44.301,-75.801
3194,Meridian,Cayuga County,43.166,-76.537
3249,Millport,Chemung County,42.265,-76.835
2114,Hall,Ontario County,42.794,-77.066
2127,Hammond,St. Lawrence County,44.449,-75.694
2877,Lodi,Seneca County,42.614,-76.822
1803,Franklin,Delaware County,42.341,-75.165
2234,Henderson,Jefferson County,43.847,-76.182
5434,Windham,Greene County,42.307,-74.252
1794,Fowlerville,Livingston County,42.893,-77.846
4206,Richville,St. Lawrence County,44.417,-75.392
3443,Natural Bridge,Jefferson County,44.069,-75.494
0860,Cementon,Greene County,42.135,-73.925
4155,Redford,Clinton County,44.608,-73.804
3576,North Hudson,Essex County,44.027,-73.758
2565,Kennedy,Chautauqua County,42.157,-79.102
4650,South Valley,Cattaraugus County,42.045,-79.003
3715,Osceola,Lewis County,43.540,-75.681
5338,Westport,Essex County,44.184,-73.436
0484,Bloomville,Delaware County,42.333,-74.808
1848,Gainesville,Wyoming County,42.641,-78.134
0387,Benson,Hamilton County,43.290,-74.366
4861,Swan Lake,Sullivan County,41.751,-74.778
0593,Bridgeville,Sullivan County,41.634,-74.619
4612,Smyrna,Chenango County,42.687,-75.571
5505,Worth,Jefferson County,43.744,-75.845
1522,Eldred,Sullivan County,41.527,-74.884
3785,Parc,Clinton County,44.667,-73.454
4287,Rodman,Jefferson County,43.851,-75.941
2484,Jefferson,Schoharie County,42.481,-74.610
0682,Burke,Franklin County,44.905,-74.169
5180,Wadsworth,Livingston County,42.820,-77.897
0114,Ames,Montgomery County,42.838,-74.602
0272,Barneveld,Oneida County,43.272,-75.190
5452,Winthrop,St. Lawrence County,44.795,-74.787
5362,White Lake,Oneida County,43.536,-75.145
4023,Pottersville,Warren County,43.731,-73.819
4492,Scottsburg,Livingston County,42.664,-77.714
2907,Lorraine,Jefferson County,43.766,-75.959
3304,Montague,Lewis County,43.715,-75.717
0969,Clare,St. Lawrence County,44.357,-75.013
3338,Morehouse,Hamilton County,43.447,-74.695
3748,Oxbow,Jefferson County,44.287,-75.623
5362,White Lake,Sullivan County,41.677,-74.828
5496,Woodsville,Livingston County,42.576,-77.732
2389,Hunt,Livingston County,42.547,-77.994
4145,Red House,Cattaraugus County,42.070,-78.735
2848,Linwood,Livingston County,42.895,-77.949