phoneme,name,county,latitude,longitude
0621,Brooklyn,Kings County,40.625,-73.952
3016,Manhattan,New York County,40.728,-73.994
2232,Hempstead,Nassau County,40.634,-73.609
0619,Brookhaven,Suffolk County,40.857,-72.960
0667,Buffalo,Erie County,42.886,-78.878
4256,Rochester,Monroe County,43.155,-77.616
2391,Huntington,Suffolk County,40.884,-73.377
4879,Syracuse,Onondaga County,43.048,-76.147
0114,Amherst,Erie County,43.012,-78.757
0044,Albany,Albany County,42.653,-73.756
2030,Greece,Monroe County,43.250,-77.701
3390,Mount Vernon,Westchester County,40.913,-73.837
4645,Southampton,Suffolk County,40.882,-72.462
0578,Brentwood,Suffolk County,40.781,-73.246
5085,Utica,Oneida County,43.101,-75.233
0989,Clay,Onondaga County,43.179,-76.192
5363,White Plains,Westchester County,41.034,-73.763
5065,Union,Broome County,42.126,-76.032
2802,Levittown,Nassau County,40.726,-73.514
5019,Troy,Rensselaer County,42.728,-73.692
4364,Rye,Westchester County,41.006,-73.688
3539,Niagara Falls,Niagara County,43.094,-79.057
2238,Henrietta,Monroe County,43.054,-77.640
4023,Poughkeepsie,Dutchess County,41.667,-73.911
3386,Mount Pleasant,Westchester County,41.112,-73.816
1819,Freeport,Nassau County,40.658,-73.583
1111,Coram,Suffolk County,40.869,-73.001
3842,Penfield,Monroe County,43.151,-77.444
0597,Brighton,Monroe County,43.148,-77.551
1563,Elmont,Nassau County,40.701,-73.713
5532,Yorktown,Westchester County,41.270,-73.818
0413,Bethlehem,Albany County,42.585,-73.827
2889,Long Beach,Nassau County,40.588,-73.658
3478,New City,Rockland County,41.148,-73.989
0249,Baldwin,Nassau County,40.656,-73.609
0859,Salina,Onondaga County,43.105,-76.171
4673,Spring Valley,Rockland County,41.113,-74.044
0971,Clarence,Erie County,43.025,-78.646
5072,Uniondale,Nassau County,40.700,-73.593
3522,Newburgh,Orange County,41.557,-74.057
4188,Rome,Oneida County,43.213,-75.456
2459,Ithaca,Tompkins County,42.441,-76.497
0300,Bay Shore,Suffolk County,40.725,-73.245
0961,Cicero,Onondaga County,43.172,-76.056
3636,Oceanside,Nassau County,40.639,-73.640
5202,Wallkill,Orange County,41.489,-74.400
4324,Rotterdam,Schenectady County,42.812,-74.012
3215,Middletown,Orange County,41.446,-74.423
3936,Pittsford,Monroe County,43.075,-77.528
1950,Glenville,Schenectady County,42.888,-73.989
0941,Chili,Monroe County,43.086,-77.745
2163,Harrison,Westchester County,40.969,-73.713
1453,East Hampton,Suffolk County,41.092,-72.106
2474,Jamestown,Chautauqua County,42.097,-79.235
4456,Saratoga Springs,Saratoga County,43.083,-73.785
4556,Shirley,Suffolk County,40.801,-72.868
2837,Lindenhurst,Suffolk County,40.687,-73.373
2312,Holbrook,Suffolk County,40.812,-73.078
1291,Deer Park,Suffolk County,40.762,-73.329
3945,Plainview,Nassau County,40.776,-73.467
0213,Auburn,Cayuga County,42.932,-76.566
4601,Smithtown,Suffolk County,40.856,-73.201
1276,De Witt,Onondaga County,43.054,-76.072
3161,Medford,Suffolk County,40.818,-73.000
1864,Garden City,Nassau County,40.727,-73.634
3681,Onondaga,Onondaga County,42.981,-76.223
3490,New Hartford,Oneida County,43.058,-75.282
3260,Mineola,Nassau County,40.749,-73.641
1995,Grand Island,Erie County,43.018,-78.963
4622,Somers,Westchester County,41.304,-73.723
4506,Selden,Suffolk County,40.866,-73.036
2869,Lockport,Niagara County,43.171,-78.690
3643,Ogden,Monroe County,43.170,-77.814
3952,Plattsburgh,Clinton County,44.699,-73.453
0481,Blooming Grove,Orange County,41.394,-74.183
5344,Wheatfield,Niagara County,43.095,-78.884
3168,Melville,Suffolk County,40.793,-73.415
4300,Roosevelt,Nassau County,40.679,-73.589
3477,New Castle,Westchester County,41.183,-73.773
5374,Whitestown,Oneida County,43.136,-75.336
5429,Wilton,Saratoga County,43.153,-73.727
3007,Malta,Saratoga County,42.982,-73.789
5486,Woodmere,Nassau County,40.632,-73.713
1131,Cortland,Cortland County,42.601,-76.180
1889,Geddes,Onondaga County,43.077,-76.225
4940,Thompson,Sullivan County,41.647,-74.677
4005,Port Washington,Nassau County,40.826,-73.698
0363,Bellmore,Nassau County,40.669,-73.527
3828,Pearl River,Rockland County,41.059,-74.022
2674,LaGrange,Dutchess County,41.685,-73.796
3800,Parma,Monroe County,43.269,-77.800
2600,Kings Park,Suffolk County,40.886,-73.257
3477,New Cassel,Nassau County,40.759,-73.570
4493,Seaford,Nassau County,40.666,-73.488
2504,Johnson City,Broome County,42.116,-75.959
1631,Evans,Erie County,42.655,-79.005
2561,Kenmore,Erie County,42.966,-78.870
1320,Depew,Erie County,42.904,-78.692
4822,Sullivan,Madison County,43.091,-75.884
4785,Stony Point,Rockland County,41.252,-74.004
1683,Farmington,Ontario County,42.989,-77.309
2488,Jericho,Nassau County,40.792,-73.540
5106,Van Buren,Onondaga County,43.120,-76.355
2746,Latham,Albany County,42.747,-73.759
4703,St. James,Suffolk County,40.879,-73.157
0221,Aurora,Erie County,42.739,-78.639
0314,Beacon,Dutchess County,41.505,-73.970
0158,Arcadia,Wayne County,43.098,-77.083
1589,Endicott,Broome County,42.098,-76.049
4282,Rocky Point,Suffolk County,40.953,-72.925
4864,Sweden,Monroe County,43.177,-77.926
3987,Pomfret,Chautauqua County,42.409,-79.331
4208,Ridge,Suffolk County,40.894,-72.896
2567,Kent,Putnam County,41.458,-73.725
1126,Cornwall,Orange County,41.414,-74.061
2602,Kingsbury,Washington County,43.335,-73.551
4387,Salisbury,Nassau County,40.746,-73.560
0646,Brunswick,Rensselaer County,42.746,-73.585
1414,Dunkirk,Chautauqua County,42.480,-79.334
1892,Geneva,Ontario County,42.863,-76.983
3090,Massena,St. Lawrence County,44.962,-74.835
5473,Woodbury,Orange County,41.328,-74.102
0252,Ballston,Saratoga County,42.951,-73.887
2278,Highlands,Orange County,41.370,-74.006
3028,Manorville,Suffolk County,40.874,-72.808
1573,Elwood,Suffolk County,40.845,-73.335
4901,Tarrytown,Westchester County,41.076,-73.859
1558,Elma,Erie County,42.828,-78.648
3810,Patterson,Putnam County,41.484,-73.588
1844,Fulton,Oswego County,43.323,-76.417
2865,Lloyd,Ulster County,41.714,-73.995
0755,Canandaigua,Ontario County,42.862,-77.314
4923,Terryville,Suffolk County,40.909,-73.065
4593,Sleepy Hollow,Westchester County,41.086,-73.858
0916,Chenango,Broome County,42.216,-75.902
2433,Inwood,Nassau County,40.622,-73.747
3678,Oneida,Madison County,43.093,-75.651
1658,Fairmount,Onondaga County,43.047,-76.239
3691,Orange Lake,Orange County,41.540,-74.098
2920,Loudonville,Albany County,42.705,-73.755
0035,Airmont,Rockland County,41.101,-74.116
2614,Kirkland,Oneida County,43.037,-75.385
3644,Ogdensburg,St. Lawrence County,44.694,-75.486
2723,Lancaster,Erie County,42.901,-78.670
3875,Philipstown,Putnam County,41.412,-73.921
1814,Fredonia,Chautauqua County,42.440,-79.332
2120,Hamburg,Erie County,42.716,-78.829
0051,Alden,Erie County,42.907,-78.521
3959,Pleasant Valley,Dutchess County,41.771,-73.805
2243,Herkimer,Herkimer County,43.061,-75.000
3296,Monroe,Orange County,41.331,-74.187
4650,Southport,Chemung County,42.050,-76.877
0509,Bohemia,Suffolk County,40.769,-73.115
2060,Greenville,Westchester County,40.993,-73.820
3013,Manchester,Ontario County,42.987,-77.194
2185,Hastings,Oswego County,43.320,-76.157
4681,Springs,Suffolk County,41.016,-72.159
4172,Rensselaer,Rensselaer County,42.643,-73.743
3528,Newfane,Niagara County,43.290,-78.693
5212,Walworth,Wayne County,43.155,-77.313
1161,Crawford,Orange County,41.571,-74.316
5473,Woodbury,Nassau County,40.826,-73.468
4772,Stillwater,Saratoga County,42.969,-73.687
3177,Mendon,Monroe County,42.982,-77.556
3521,Newark,Wayne County,43.047,-77.095
0305,Bayport,Suffolk County,40.738,-73.051
3061,Marlborough,Ulster County,41.636,-73.987
2790,Lenox,Madison County,43.112,-75.757
1549,Ellicott,Chautauqua County,42.133,-79.236
3518,New Windsor,Orange County,41.477,-74.024
2126,Hamlin,Monroe County,43.322,-77.920
2285,Hillcrest,Rockland County,41.128,-74.041
0283,Barton,Tioga County,42.083,-76.493
1682,Farmingdale,Nassau County,40.733,-73.445
4422,Sand Lake,Rensselaer County,42.630,-73.543
2594,Kinderhook,Columbia County,42.411,-73.683
1377,Dover,Dutchess County,41.679,-73.569
4019,Potsdam,St. Lawrence County,44.670,-74.981
1090,Concord,Erie County,42.545,-78.703
5237,Waterford,Saratoga County,42.804,-73.687
5130,Vernon,Oneida County,43.066,-75.535
2508,Johnstown,Fulton County,43.007,-74.368
1891,Geneseo,Livingston County,42.796,-77.817
2051,Greenfield,Saratoga County,43.138,-73.872
1610,Erwin,Steuben County,42.138,-77.141
4615,Sodus,Wayne County,43.218,-77.049
4002,Port Jefferson,Suffolk County,40.946,-73.069
0532,Boston,Erie County,42.653,-78.755
3538,Niagara,Niagara County,43.115,-78.981
0049,Albion,Orleans County,43.226,-78.209
3158,Mechanicstown,Orange County,41.443,-74.388
0426,Big Flats,Chemung County,42.138,-76.914
2767,Le Roy,Genesee County,42.993,-77.966
1481,Eden,Erie County,42.655,-78.882
4339,Royalton,Niagara County,43.156,-78.556
3723,Oswego,Oswego County,43.402,-76.555
3962,Pleasantville,Westchester County,41.133,-73.793
2863,Livonia,Livingston County,42.809,-77.654
3771,Palmyra,Wayne County,43.080,-77.189
4256,Rochester,Ulster County,41.813,-74.271
3590,Northport,Suffolk County,40.901,-73.343
3314,Monticello,Sullivan County,41.656,-74.689
0070,Allegany,Cattaraugus County,42.091,-78.532
5238,Waterloo,Seneca County,42.919,-76.913
3621,Oakdale,Suffolk County,40.744,-73.139
4480,Scotia,Schenectady County,42.826,-73.964
2256,Hewlett,Nassau County,40.643,-73.696
4095,Radisson,Onondaga County,43.188,-76.293
3834,Pelham,Westchester County,40.910,-73.808
0310,Baywood,Suffolk County,40.750,-73.291
4900,Tappan,Rockland County,41.022,-73.947
5158,Viola,Rockland County,41.136,-74.082
0764,Canton,St. Lawrence County,44.596,-75.169
4634,South Hill,Tompkins County,42.429,-76.495
5280,Wellsville,Allegany County,42.118,-77.925
3841,Pendleton,Niagara County,43.104,-78.765
5025,Tuckahoe,Westchester County,40.950,-73.827
1803,Frankfort,Herkimer County,43.041,-75.137
2138,Hanover,Chautauqua County,42.487,-79.114
0981,Clarkson,Monroe County,43.245,-77.932
3600,Norwich,Chenango County,42.531,-75.524
5405,Williamson,Wayne County,43.246,-77.194
5188,Walden,Orange County,41.561,-74.188
0783,Carmel,Putnam County,41.430,-73.680
3254,Milo,Yates County,42.610,-77.008
0231,Avon,Livingston County,42.898,-77.721
2760,Lawrence,Nassau County,40.616,-73.730
0715,Cairo,Greene County,42.299,-74.016
0309,Bayville,Nassau County,40.911,-73.562
1561,Elmira,Chemung County,42.095,-76.779
3862,Peru,Clinton County,44.581,-73.564
0842,Cazenovia,Madison County,42.916,-75.862
3871,Phelps,Ontario County,42.957,-77.047
5227,Warwick,Orange County,41.256,-74.360
1117,Corinth,Saratoga County,43.229,-73.922
2450,Irvington,Westchester County,41.039,-73.868
4214,Ridgeway,Orleans County,43.262,-78.377
1994,Granby,Oswego County,43.290,-76.442
4008,Porter,Niagara County,43.258,-78.970
2273,Highland,Ulster County,41.721,-73.960
5311,West Point,Orange County,41.391,-73.956
1725,Flanders,Suffolk County,40.903,-72.618
3381,Mount Hope,Orange County,41.456,-74.527
1699,Fenton,Broome County,42.202,-75.803
5492,Woodstock,Ulster County,42.055,-74.165
1458,East Rochester,Monroe County,43.109,-77.487
2338,Homer,Cortland County,42.662,-76.170
0293,Batavia,Genesee County,42.997,-78.228
2394,Hurley,Ulster County,41.959,-74.123
2017,Granville,Washington County,43.422,-73.306
2774,Lee,Oneida County,43.325,-75.519
2711,Lakeview,Nassau County,40.685,-73.653
1661,Fairview,Dutchess County,41.724,-73.920
0732,Calverton,Suffolk County,40.906,-72.743
2124,Hamilton,Madison County,42.793,-75.489
0867,Centerport,Suffolk County,40.885,-73.376
3163,Medina,Orleans County,43.220,-78.387
2297,Hilton,Monroe County,43.288,-77.793
1123,Corning,Steuben County,42.149,-77.014
2377,Hudson,Columbia County,42.253,-73.791
1065,Collins,Erie County,42.492,-78.868
5332,Westmoreland,Oneida County,43.121,-75.439
4380,Salamanca,Cattaraugus County,42.158,-78.715
5132,Verona,Oneida County,43.159,-75.627
5240,Watertown,Jefferson County,43.933,-75.919
4455,Saratoga,Saratoga County,43.054,-73.644
5427,Wilson,Niagara County,43.273,-78.813
4313,Rosendale,Ulster County,41.847,-74.080
5233,Washingtonville,Orange County,41.428,-74.166
3854,Perry,Wyoming County,42.754,-78.011
1983,Goshen,Orange County,41.402,-74.324
5266,Webster,Monroe County,43.212,-77.430
4199,Richland,Oswego County,43.551,-76.165
0736,Cambria,Niagara County,43.177,-78.820
2074,Groton,Tompkins County,42.583,-76.360
0208,Attica,Wyoming County,42.821,-78.246
2971,Lyons,Wayne County,43.094,-77.004
4217,Riga,Monroe County,43.077,-77.873
0295,Bath,Steuben County,42.337,-77.318
3938,Pittstown,Rensselaer County,42.863,-73.519
2601,Kings Point,Nassau County,40.820,-73.735
4565,Sidney,Delaware County,42.307,-75.276
0118,Amsterdam,Montgomery County,42.956,-74.166
5409,Williamsville,Erie County,42.964,-78.738
2617,Kirkwood,Broome County,42.091,-75.799
3574,North Hills,Nassau County,40.781,-73.677
1660,Fairport,Monroe County,43.099,-77.442
1907,Ghent,Columbia County,42.315,-73.649
5225,Warsaw,Wyoming County,42.738,-78.132
3006,Malone,Franklin County,44.849,-74.295
3201,Mexico,Oswego County,43.455,-76.205
3592,Northumberland,Saratoga County,43.162,-73.628
5211,Walton,Delaware County,42.174,-75.127
5298,West Hills,Suffolk County,40.816,-73.432
1884,Gates,Monroe County,43.156,-77.692
2032,Greene,Chenango County,42.308,-75.754
2813,Liberty,Sullivan County,41.801,-74.747
3579,North Salem,Westchester County,41.334,-73.614
5143,Vienna,Oneida County,43.232,-75.772
3055,Marilla,Erie County,42.824,-78.528
2999,Maine,Broome County,42.196,-76.017
4490,Sea Cliff,Nassau County,40.849,-73.645
1340,Dickinson,Broome County,42.130,-75.910
3679,Oneonta,Otsego County,42.425,-75.100
0164,Ardsley,Westchester County,41.011,-73.844
0014,Adams,Jefferson County,43.845,-76.054
1301,Delhi,Delaware County,42.272,-74.908
2455,Island Park,Nassau County,40.604,-73.655
2671,LaFayette,Onondaga County,42.908,-76.103
2225,Hector,Schuyler County,42.458,-76.784
5060,Ulysses,Tompkins County,42.513,-76.617
0062,Alfred,Allegany County,42.233,-77.795
2936,Lowville,Lewis County,43.814,-75.518
4538,Shelby,Orleans County,43.173,-78.387
5345,Wheatland,Monroe County,43.009,-77.816
2061,Greenwich,Washington County,43.148,-73.476
1060,Colesville,Broome County,42.179,-75.650
1742,Flower Hill,Nassau County,40.807,-73.681
0994,Clayton,Jefferson County,44.204,-76.080
3419,Murray,Orleans County,43.258,-78.057
0738,Camden,Oneida County,43.345,-75.774
2060,Greenville,Orange County,41.374,-74.598
3306,Montebello,Rockland County,41.136,-74.118
2202,Hawthorne,Westchester County,41.107,-73.796
3692,Orangeburg,Rockland County,41.046,-73.950
2851,Little Falls,Herkimer County,43.043,-74.860
0887,Champion,Jefferson County,43.973,-75.706
3056,Marion,Wayne County,43.166,-77.191
3439,Nassau,Rensselaer County,42.548,-73.545
5323,Westfield,Chautauqua County,42.268,-79.600
2055,Greenport,Columbia County,42.230,-73.796
5230,Washington,Dutchess County,41.791,-73.677
0528,Boonville,Oneida County,43.459,-75.285
3257,Milton,Saratoga County,43.034,-73.853
4964,Tioga,Tioga County,42.106,-76.369
3384,Mount Morris,Livingston County,42.665,-77.905
2492,Jerusalem,Yates County,42.613,-77.158
1252,Dansville,Livingston County,42.561,-77.696
4010,Portland,Chautauqua County,42.370,-79.460
0903,Charlton,Saratoga County,42.959,-73.991
0650,Brutus,Cayuga County,43.046,-76.546
5249,Waverly,Tioga County,42.010,-76.527
1695,Fayetteville,Onondaga County,43.030,-76.004
3785,Paris,Oneida County,42.973,-75.272
3665,Olive,Ulster County,41.947,-74.265
5006,Trenton,Oneida County,43.260,-75.206
2848,Lisbon,St. Lawrence County,44.697,-75.306
3839,Pembroke,Genesee County,43.002,-78.385
0157,Arcade,Wyoming County,42.571,-78.370
3259,Minden,Montgomery County,42.931,-74.697
4684,Springville,Erie County,42.508,-78.667
5062,Unadilla,Otsego County,42.368,-75.332
1470,Eaton,Madison County,42.890,-75.630
0907,Chatham,Columbia County,42.426,-73.582
5307,West Monroe,Oswego County,43.306,-76.089
0932,Chester,Orange County,41.363,-74.271
2821,Lima,Livingston County,42.896,-77.609
1548,Ellery,Chautauqua County,42.190,-79.354
0720,Caledonia,Livingston County,42.959,-77.815
1012,Clinton,Dutchess County,41.864,-73.820
0410,Bethel,Sullivan County,41.689,-74.855
5369,Whitehall,Washington County,43.539,-73.385
0912,Chautauqua,Chautauqua County,42.242,-79.506
2724,Lansing,Tompkins County,42.484,-76.480
0197,Athens,Greene County,42.277,-73.859
5459,Wolcott,Wayne County,43.274,-76.766
5221,Warrensburg,Warren County,43.503,-73.797
1292,Deerfield,Oneida County,43.185,-75.151
4546,Sherburne,Chenango County,42.694,-75.481
2172,Hartland,Niagara County,43.258,-78.555
3988,Pomona,Rockland County,41.167,-74.043
4777,Stockholm,St. Lawrence County,44.746,-74.856
2351,Hopewell,Ontario County,42.893,-77.196
4454,Saranac,Clinton County,44.654,-73.810
3313,Montgomery,Orange County,41.528,-74.237
5326,Westhampton,Suffolk County,40.825,-72.666
5531,Yorkshire,Cattaraugus County,42.479,-78.520
5043,Tuxedo,Orange County,41.242,-74.172
3061,Marlboro,Ulster County,41.606,-73.972
0058,Alexandria,Jefferson County,44.320,-75.878
4595,Sloan,Erie County,42.893,-78.794
5251,Wayland,Steuben County,42.525,-77.598
1350,Dix,Schuyler County,42.334,-76.899
1743,Floyd,Oneida County,43.239,-75.324
4735,Stanford,Dutchess County,41.899,-73.673
2862,Livingston,Columbia County,42.139,-73.797
3727,Otsego,Otsego County,42.759,-74.963
5371,Whitesboro,Oneida County,43.122,-75.292
0166,Argyle,Washington County,43.232,-73.479
2874,Locust Valley,Nassau County,40.876,-73.597
1694,Fayette,Seneca County,42.843,-76.859
3861,Perth,Fulton County,43.005,-74.204
3286,Mohawk,Montgomery County,42.956,-74.402
2456,Islandia,Suffolk County,40.804,-73.169
3747,Oxford,Chenango County,42.397,-75.596
3741,Owasco,Cayuga County,42.894,-76.493
2197,Haviland,Dutchess County,41.767,-73.902
2686,Lake George,Warren County,43.434,-73.723
3761,Palermo,Oswego County,43.367,-76.260
4349,Rush,Monroe County,42.971,-77.673
3318,Montrose,Westchester County,41.252,-73.932
1248,Danby,Tompkins County,42.332,-76.472
0795,Carroll,Chautauqua County,42.040,-79.099
1661,Fairview,Westchester County,41.043,-73.797
4747,Starkey,Yates County,42.524,-76.945
4201,Richmond,Ontario County,42.792,-77.524
1552,Ellisburg,Jefferson County,43.747,-76.113
4243,Riverside,Suffolk County,40.881,-72.678
1591,Enfield,Tompkins County,42.442,-76.621
4271,Rockland,Sullivan County,41.963,-74.789
0790,Caroline,Tompkins County,42.358,-76.335
3215,Middletown,Delaware County,42.160,-74.628
0807,Carthage,Jefferson County,43.978,-75.609
3334,Moravia,Cayuga County,42.737,-76.413
5135,Veteran,Chemung County,42.247,-76.793
4475,Schuyler,Herkimer County,43.113,-75.096
0972,Clarendon,Orleans County,43.174,-78.056
2317,Holland,Erie County,42.670,-78.524
0386,Bennington,Wyoming County,42.817,-78.388
3520,New York Mills,Oneida County,43.105,-75.291
4762,Sterling,Cayuga County,43.315,-76.659
3760,Palatine,Montgomery County,42.951,-74.537
0211,Au Sable,Clinton County,44.504,-73.534
1210,Cuba,Allegany County,42.208,-78.243
3623,Oakfield,Genesee County,43.085,-78.275
0932,Chester,Warren County,43.686,-73.875
0394,Bergen,Genesee County,43.096,-77.956
3018,Manheim,Herkimer County,43.058,-74.799
2925,Louisville,St. Lawrence County,44.908,-75.012
4360,Rutland,Jefferson County,43.944,-75.786
0244,Bainbridge,Chenango County,42.297,-75.477
4549,Sherrill,Oneida County,43.074,-75.598
5193,Wales,Erie County,42.739,-78.518
1258,Darien,Genesee County,42.909,-78.382
4317,Roslyn,Nassau County,40.800,-73.651
2713,Lakewood,Chautauqua County,42.104,-79.333
3570,North East,Dutchess County,41.946,-73.547
0390,Benton,Yates County,42.722,-77.050
1262,Davenport,Delaware County,42.454,-74.902
3491,New Haven,Oswego County,43.472,-76.318
1738,Florida,Orange County,41.332,-74.357
0038,Akron,Erie County,43.021,-78.495
0628,Brookville,Nassau County,40.813,-73.567
0779,Carlton,Orleans County,43.340,-78.207
3703,Orleans,Jefferson County,44.224,-75.955
5008,Triangle,Broome County,42.355,-75.928
1807,Franklinville,Cattaraugus County,42.304,-78.498
3471,New Bremen,Lewis County,43.852,-75.368
4938,Thomaston,Nassau County,40.786,-73.714
5138,Victor,Ontario County,42.983,-77.409
1919,Guilford,Chenango County,42.402,-75.451
4457,Sardinia,Erie County,42.557,-78.532
1738,Florida,Montgomery County,42.895,-74.201
2159,Harriman,Orange County,41.308,-74.145
4778,Stockport,Columbia County,42.317,-73.755
0398,Berne,Albany County,42.604,-74.130
1425,Durham,Greene County,42.374,-74.153
3603,Nunda,Livingston County,42.572,-77.883
0170,Arlington,Dutchess County,41.696,-73.897
4511,Seneca,Ontario County,42.833,-77.074
1460,East Williston,Nassau County,40.758,-73.635
1312,Denmark,Lewis County,43.905,-75.623
5533,Yorkville,Oneida County,43.113,-75.271
2629,Knox,Albany County,42.685,-74.106
4575,Silver Creek,Chautauqua County,42.544,-79.167
2558,Kendall,Orleans County,43.329,-78.052
0220,Aurelius,Cayuga County,42.929,-76.668
2055,Greenport,Suffolk County,41.103,-72.359
4623,Somerset,Niagara County,43.336,-78.548
2703,Lakeland,Onondaga County,43.090,-76.240
4547,Sheridan,Chautauqua County,42.490,-79.226
1933,Glen,Montgomery County,42.901,-74.351
2805,Lewiston,Niagara County,43.173,-79.036
3494,New Lebanon,Columbia County,42.471,-73.445
3889,Piermont,Rockland County,41.042,-73.918
0580,Brewster,Putnam County,41.397,-73.617
0266,Barker,Broome County,42.265,-75.911
3584,Northampton,Fulton County,43.158,-74.171
2077,Groveland,Livingston County,42.710,-77.769
2480,Jay,Essex County,44.378,-73.696
1729,Fleming,Cayuga County,42.874,-76.578
0933,Chesterfield,Essex County,44.454,-73.449
3286,Mohawk,Herkimer County,43.011,-75.004
4729,Stafford,Genesee County,42.990,-78.084
4540,Sheldon,Wyoming County,42.746,-78.377
2829,Lincoln Park,Ulster County,41.951,-73.994
0019,Addison,Steuben County,42.132,-77.234
1274,De Kalb,St. Lawrence County,44.476,-75.365
2757,Laurens,Otsego County,42.536,-75.118
2822,Lyme,Jefferson County,44.025,-76.229
4065,Pulaski,Oswego County,43.567,-76.128
2861,Liverpool,Onondaga County,43.106,-76.218
0603,Bristol,Ontario County,42.808,-77.426
3315,Montour,Schuyler County,42.340,-76.826
4304,Rose,Wayne County,43.160,-76.900
0442,Byron,Genesee County,43.085,-78.067
4356,Russia,Herkimer County,43.302,-75.069
1464,Easton,Washington County,43.030,-73.536
0654,Buchanan,Westchester County,41.262,-73.938
3222,Milan,Dutchess County,41.978,-73.783
5202,Wallkill,Ulster County,41.606,-74.184
0618,Brookfield,Madison County,42.808,-75.343
2696,Lake Placid,Essex County,44.279,-73.980
1816,Freedom,Cattaraugus County,42.471,-78.377
4336,Roxbury,Delaware County,42.316,-74.528
2273,Highland,Sullivan County,41.569,-74.887
4439,Sanford,Broome County,42.093,-75.495
1930,Glasco,Ulster County,42.044,-73.947
3880,Phoenix,Oswego County,43.231,-76.301
4680,Springport,Cayuga County,42.853,-76.672
1299,Delaware,Sullivan County,41.755,-75.000
3978,Poland,Chautauqua County,42.130,-79.121
3860,Persia,Cattaraugus County,42.420,-78.918
5294,West End,Otsego County,42.459,-75.100
2170,Hartford,Washington County,43.356,-73.413
0960,Churchville,Monroe County,43.104,-77.884
0116,Amity,Allegany County,42.226,-78.003
1793,Fowler,St. Lawrence County,44.276,-75.403
1021,Clyde,Wayne County,43.084,-76.869
2400,Hyde Park,Dutchess County,41.785,-73.933
0256,Bangor,Franklin County,44.838,-74.430
2440,Ira,Cayuga County,43.209,-76.531
1150,Covert,Seneca County,42.584,-76.697
2502,Johnsburg,Warren County,43.614,-74.067
3172,Melrose Park,Cayuga County,42.909,-76.540
2300,Hinsdale,Cattaraugus County,42.167,-78.372
3186,Mentz,Cayuga County,43.041,-76.634
5084,Urbana,Steuben County,42.410,-77.227
1467,Eastport,Suffolk County,40.826,-72.732
2153,Harmony,Chautauqua County,42.050,-79.458
4064,Providence,Saratoga County,43.117,-74.045
4781,Stone Ridge,Ulster County,41.853,-74.139
3355,Morristown,St. Lawrence County,44.539,-75.630
4197,Richfield,Otsego County,42.851,-75.048
1991,Grafton,Rensselaer County,42.764,-73.456
2384,Hume,Allegany County,42.482,-78.122
0970,Clermont,Columbia County,42.086,-73.855
0129,Angola,Erie County,42.638,-79.028
0049,Albion,Oswego County,43.489,-76.031
0515,Bolivar,Allegany County,42.016,-78.132
4486,Scottsville,Monroe County,43.026,-77.745
0517,Bolton,Warren County,43.579,-73.658
4260,Rock Hill,Sullivan County,41.626,-74.598
4779,Stockton,Chautauqua County,42.299,-79.357
1198,Crown Point,Essex County,43.964,-73.583
0218,Augusta,Oneida County,42.977,-75.502
1051,Cold Spring,Putnam County,41.420,-73.955
4732,Stamford,Delaware County,42.339,-74.666
4775,Stockbridge,Madison County,42.986,-75.591
2479,Java,Wyoming County,42.657,-78.385
2103,Hadley,Saratoga County,43.337,-73.906
3873,Philadelphia,Jefferson County,44.143,-75.705
0186,Ashford,Cattaraugus County,42.454,-78.652
1399,Dryden,Tompkins County,42.491,-76.297
1902,Germantown,Columbia County,42.137,-73.870
0737,Cambridge,Washington County,43.008,-73.446
3069,Marshall,Oneida County,42.967,-75.386
3682,Ontario,Wayne County,43.221,-77.283
0566,Brant,Erie County,42.595,-79.025
3454,Nelson,Madison County,42.886,-75.745
3211,Middlefield,Otsego County,42.697,-74.856
5436,Winfield,Herkimer County,42.897,-75.166
2867,Locke,Cayuga County,42.655,-76.419
4354,Russell,St. Lawrence County,44.402,-75.141
3662,Olean,Cattaraugus County,42.061,-78.424
1106,Cooperstown,Otsego County,42.701,-74.924
0334,Bedford,Westchester County,41.204,-73.644
2395,Huron,Wayne County,43.246,-76.891
1013,Clintondale,Ulster County,41.695,-74.051
5534,Youngstown,Niagara County,43.247,-79.050
2826,Lincoln,Madison County,43.032,-75.734
2292,Hillsdale,Columbia County,42.229,-73.521
4387,Salisbury,Herkimer County,43.222,-74.801
4020,Potter,Yates County,42.714,-77.181
4951,Throop,Cayuga County,42.984,-76.619
0700,Butler,Wayne County,43.177,-76.765
1252,Dansville,Steuben County,42.465,-77.662
1893,Genoa,Cayuga County,42.647,-76.569
0275,Barre,Orleans County,43.179,-78.211
5321,Western,Oneida County,43.350,-75.411
5262,Webb,Herkimer County,43.822,-75.040
0397,Berlin,Rensselaer County,42.660,-73.373
1050,Colchester,Delaware County,42.040,-74.953
5243,Watson,Lewis County,43.830,-75.237
3594,Northville,Suffolk County,40.970,-72.619
0781,Carlisle,Schoharie County,42.739,-74.439
2224,Hebron,Washington County,43.258,-73.349
1905,Gerry,Chautauqua County,42.227,-79.231
3083,Maryland,Otsego County,42.551,-74.866
0411,Bethany,Genesee County,42.920,-78.127
1022,Clymer,Chautauqua County,42.049,-79.582
2319,Holley,Orleans County,43.226,-78.027
2760,Lawrence,St. Lawrence County,44.746,-74.676
3212,Middleport,Niagara County,43.213,-78.476
4137,Reading,Schuyler County,42.420,-76.939
2464,Jackson,Washington County,43.080,-73.383
0204,Atlantic Beach,Nassau County,40.589,-73.729
1412,Dundee,Yates County,42.523,-76.977
4529,Sharon,Schoharie County,42.777,-74.613
5337,Westville,Franklin County,44.941,-74.383
2191,Houghton,Allegany County,42.423,-78.157
0754,Canadice,Ontario County,42.719,-77.559
1271,Dayton,Cattaraugus County,42.377,-78.995
1012,Clinton,Oneida County,43.048,-75.379
0095,Altamont,Albany County,42.701,-74.034
5475,Woodhull,Steuben County,42.050,-77.394
4628,South Bristol,Ontario County,42.695,-77.406
5140,Victory,Cayuga County,43.210,-76.648
2773,Ledyard,Cayuga County,42.745,-76.674
1854,Gallatin,Columbia County,42.062,-73.711
1890,Genesee,Allegany County,42.046,-78.245
5053,Tyrone,Schuyler County,42.442,-77.044
0831,Catharine,Schuyler County,42.338,-76.734
0222,Austerlitz,Columbia County,42.315,-73.518
1337,Diana,Lewis County,44.108,-75.373
3969,Plymouth,Chenango County,42.605,-75.605
4521,Seward,Schoharie County,42.708,-74.583
2473,Jamesport,Suffolk County,40.950,-72.581
0040,Alabama,Genesee County,43.090,-78.366
2809,Leyden,Lewis County,43.534,-75.382
0751,Canaan,Columbia County,42.403,-73.457
1070,Columbia,Herkimer County,42.929,-75.046
3430,Nanticoke,Broome County,42.285,-76.027
0589,Bridgeport,Madison County,43.159,-75.964
3601,Norwood,St. Lawrence County,44.751,-74.994
4655,Sparta,Livingston County,42.628,-77.698
0278,Barrington,Yates County,42.523,-77.053
0901,Charlotte,Chautauqua County,42.305,-79.237
5241,Waterville,Oneida County,42.931,-75.380
5507,Wright,Schoharie County,42.675,-74.207
4477,Scipio,Cayuga County,42.790,-76.572
3356,Morrisville,Madison County,42.899,-75.640
0087,Almond,Allegany County,42.341,-77.782
1149,Coventry,Chenango County,42.291,-75.629
1550,Ellington,Chautauqua County,42.218,-79.116
3189,Meredith,Delaware County,42.364,-74.939
0187,Ashland,Chemung County,42.019,-76.750
0594,Bridgewater,Oneida County,42.904,-75.265
2356,Horicon,Warren County,43.718,-73.706
0396,Berkshire,Tioga County,42.297,-76.166
3112,Mayville,Chautauqua County,42.254,-79.504
1651,Fairfield,Herkimer County,43.131,-74.938
3257,Milton,Ulster County,41.660,-73.957
3233,Millbrook,Dutchess County,41.785,-73.694
1321,Deposit,Broome County,42.064,-75.423
2850,Litchfield,Herkimer County,42.968,-75.164
0450,Black Brook,Clinton County,44.524,-73.818
1321,Deposit,Delaware County,42.095,-75.370
3689,Orange,Schuyler County,42.343,-77.036
2478,Jasper,Steuben County,42.144,-77.533
3354,Morrisonville,Clinton County,44.693,-73.562
5039,Tuscarora,Steuben County,42.049,-77.257
2414,Indian Lake,Hamilton County,43.797,-74.361
3213,Middlesex,Yates County,42.718,-77.289
2367,Howard,Steuben County,42.339,-77.514
0898,Charleston,Montgomery County,42.825,-74.356
1492,Edinburg,Saratoga County,43.223,-74.070
2028,Great Bend,Jefferson County,44.034,-75.719
4678,Springfield,Otsego County,42.833,-74.867
3210,Middlebury,Wyoming County,42.824,-78.133
5408,Williamstown,Oswego County,43.455,-75.888
2772,Lebanon,Madison County,42.780,-75.626
0611,Brocton,Chautauqua County,42.389,-79.441
3700,Oriskany,Oneida County,43.157,-75.333
3935,Pittsfield,Otsego County,42.614,-75.271
0480,Bloomfield,Ontario County,42.899,-77.424
0597,Brighton,Franklin County,44.469,-74.247
3078,Martinsburg,Lewis County,43.726,-75.540
3584,Northampton,Suffolk County,40.889,-72.690
1737,Florence,Oneida County,43.419,-75.740
3693,Orangeville,Wyoming County,42.744,-78.251
4979,Tompkins,Delaware County,42.116,-75.273
2803,Lewis,Essex County,44.318,-73.581
4987,Torrey,Yates County,42.670,-76.955
4420,Sanborn,Niagara County,43.137,-78.885
0364,Bellmont,Franklin County,44.761,-74.131
1151,Covington,Wyoming County,42.833,-78.015
0109,Amboy,Oswego County,43.377,-75.918
2792,Leon,Cattaraugus County,42.300,-79.001
5120,Venice,Cayuga County,42.722,-76.543
4602,Smithville,Chenango County,42.410,-75.761
3089,Masonville,Delaware County,42.228,-75.338
4954,Thurston,Steuben County,42.225,-77.279
2520,Jordan,Onondaga County,43.065,-76.473
2566,Kensington,Nassau County,40.793,-73.722
1844,Fulton,Schoharie County,42.589,-74.451
0796,Carrollton,Cattaraugus County,42.056,-78.638
4424,Sand Ridge,Oswego County,43.256,-76.230
1821,Fremont,Sullivan County,41.874,-75.034
3312,Montezuma,Cayuga County,43.013,-76.698
3975,Point Lookout,Nassau County,40.592,-73.581
5025,Tuckahoe,Suffolk County,40.899,-72.411
3573,North Haven,Suffolk County,41.013,-72.313
1916,Gilboa,Schoharie County,42.431,-74.454
2548,Keene,Essex County,44.123,-73.883
3545,Niles,Cayuga County,42.817,-76.404
5347,Wheeler,Steuben County,42.437,-77.339
2121,Hamden,Delaware County,42.201,-74.981
4598,Smithfield,Madison County,42.965,-75.664
1434,Eagle,Wyoming County,42.565,-78.254
4952,Thurman,Warren County,43.492,-73.986
2353,Hopkinton,St. Lawrence County,44.537,-74.661
4827,Summerhill,Cayuga County,42.653,-76.321
5071,Union Springs,Cayuga County,42.840,-76.693
1804,Franklin,Franklin County,44.520,-74.070
3998,Port Byron,Cayuga County,43.035,-76.624
3497,New Lisbon,Otsego County,42.625,-75.133
2410,Independence,Allegany County,42.044,-77.794
2457,Italy,Yates County,42.619,-77.312
4830,Summit,Schoharie County,42.574,-74.599
1681,Farmersville,Cattaraugus County,42.384,-78.406
3708,Orwell,Oswego County,43.563,-75.954
4764,Steuben,Oneida County,43.353,-75.264
4482,Scott,Cortland County,42.738,-76.236
4620,Solon,Cortland County,42.616,-76.023
0688,Burlington,Otsego County,42.717,-75.145
5452,Wirt,Allegany County,42.124,-78.134
0691,Burns,Allegany County,42.436,-77.782
3697,Orient,Suffolk County,41.139,-72.303
4198,Richford,Tioga County,42.375,-76.194
5219,Warren,Herkimer County,42.899,-74.938
4970,Tivoli,Dutchess County,42.058,-73.909
3726,Otisville,Orange County,41.473,-74.538
1333,Dexter,Jefferson County,44.008,-76.044
3594,Northville,Fulton County,43.226,-74.172
0482,Bloomingburg,Sullivan County,41.554,-74.440
0169,Arkwright,Chautauqua County,42.389,-79.248
5052,Tyre,Seneca County,42.989,-76.789
5252,Wayne,Steuben County,42.432,-77.140
3175,Mina,Chautauqua County,42.125,-79.700
5023,Truxton,Cortland County,42.710,-76.024
1823,French Creek,Chautauqua County,42.042,-79.711
3892,Pike,Wyoming County,42.567,-78.136
3433,Naples,Ontario County,42.615,-77.402
0983,Clarksville,Allegany County,42.140,-78.248
1519,Elbridge,Onondaga County,43.035,-76.448
4340,Ruby,Ulster County,42.018,-74.015
3647,Ohio,Herkimer County,43.571,-74.841
4117,Randolph,Cattaraugus County,42.162,-78.975
0639,Brownville,Jefferson County,44.007,-75.984
1254,Danube,Herkimer County,42.982,-74.796
4229,Ripley,Chautauqua County,42.267,-79.711
0870,Centerville,Allegany County,42.475,-78.268
2605,Kingston,Ulster County,41.978,-74.039
3943,Plainfield,Otsego County,42.828,-75.195
2984,Macomb,St. Lawrence County,44.439,-75.571
1340,Dickinson,Franklin County,44.728,-74.540
5249,Waverly,Franklin County,44.526,-74.545
0125,Andover,Allegany County,42.156,-77.796
2132,Hancock,Delaware County,41.954,-75.280
3043,Marathon,Cortland County,42.442,-76.032
1081,Columbus,Chenango County,42.692,-75.370
4382,Salem,Washington County,43.172,-73.328
3469,New Berlin,Chenango County,42.624,-75.332
2497,Jewett,Greene County,42.238,-74.231
0739,Cameron,Steuben County,42.227,-77.422
1821,Fremont,Steuben County,42.395,-77.610
5433,Windsor,Broome County,42.076,-75.640
3241,Millerton,Dutchess County,41.954,-73.511
4875,Sylvan Beach,Oneida County,43.196,-75.730
5424,Wilmington,Essex County,44.388,-73.815
4047,Preston,Chenango County,42.503,-75.610
2753,Laurel,Suffolk County,40.970,-72.562
2130,Hampton,Washington County,43.551,-73.291
0371,Belmont,Allegany County,42.223,-78.034
1642,Exeter,Otsego County,42.799,-75.078
0230,Avoca,Steuben County,42.410,-77.421
3558,Norfolk,St. Lawrence County,44.801,-74.991
3029,Mansfield,Cattaraugus County,42.305,-78.767
4327,Round Lake,Saratoga County,42.939,-73.790
1830,Friendship,Allegany County,42.206,-78.138
2803,Lewis,Lewis County,43.477,-75.565
1763,Forestburgh,Sullivan County,41.562,-74.710
1270,Day,Saratoga County,43.321,-74.028
5324,Westford,Otsego County,42.646,-74.826
2993,Madrid,St. Lawrence County,44.750,-75.131
0249,Baldwin,Chemung County,42.102,-76.657
1205,Crystal Beach,Ontario County,42.814,-77.264
0556,Bradford,Steuben County,42.334,-77.145
0025,Afton,Chenango County,42.228,-75.527
1869,Gardiner,Ulster County,41.680,-74.150
3107,Mayfield,Fulton County,43.105,-74.265
1447,Earlville,Chenango County,42.740,-75.544
3529,Newfield,Tompkins County,42.362,-76.591
4319,Rossie,St. Lawrence County,44.325,-75.624
2735,Lapeer,Cortland County,42.456,-76.112
3129,McDonough,Chenango County,42.502,-75.728
3930,Pitcairn,St. Lawrence County,44.222,-75.270
2895,Long Lake,Hamilton County,43.966,-74.635
2967,Lyndonville,Orleans County,43.327,-78.389
2293,Hillside,Ulster County,41.918,-74.035
4041,Prattsville,Greene County,42.320,-74.414
1643,Fair Haven,Cayuga County,43.316,-76.702
2808,Lexington,Greene County,42.209,-74.368
5500,Worcester,Otsego County,42.591,-74.750
5544,Zena,Ulster County,42.017,-74.076
0085,Alma,Allegany County,42.048,-78.016
0758,Candor,Tioga County,42.233,-76.342
0098,Altona,Clinton County,44.888,-73.656
2712,Lakeville,Livingston County,42.836,-77.705
3731,Otto,Cattaraugus County,42.399,-78.844
5032,Turin,Lewis County,43.661,-75.427
1820,Freetown,Cortland County,42.520,-76.023
4936,Theresa,Jefferson County,44.215,-75.797
2062,Greenwood,Steuben County,42.147,-77.662
4787,Stony Creek,Warren County,43.415,-74.027
3266,Minerva,Essex County,43.855,-74.118
5339,Wethersfield,Wyoming County,42.648,-78.245
4006,Portage,Livingston County,42.560,-77.995
3599,Norway,Herkimer County,43.229,-74.951
4476,Scio,Allegany County,42.171,-77.979
1007,Cleveland,Oswego County,43.240,-75.884
5117,Varna,Tompkins County,42.455,-76.438
1766,Forestville,Chautauqua County,42.468,-79.177
4578,Silver Springs,Wyoming County,42.661,-78.086
3252,Millwood,Westchester County,41.192,-73.797
0128,Angelica,Allegany County,42.307,-78.016
4658,Spencer,Tioga County,42.210,-76.493
5468,Woodridge,Sullivan County,41.711,-74.574
4746,Stark,Herkimer County,42.928,-74.824
3720,Ossian,Livingston County,42.514,-77.770
0744,Campbell,Steuben County,42.233,-77.197
1747,Fonda,Montgomery County,42.955,-74.377
2385,Humphrey,Cattaraugus County,42.231,-78.497
0187,Ashland,Greene County,42.319,-74.335
1094,Conesville,Schoharie County,42.398,-74.338
3818,Pavilion,Genesee County,42.876,-78.023
5277,Wells,Hamilton County,43.476,-74.285
2836,Lyndon,Cattaraugus County,42.314,-78.369
5140,Victory,Saratoga County,43.092,-73.592
1010,Clifton,St. Lawrence County,44.201,-74.886
0224,Ava,Oneida County,43.414,-75.441
0342,Belfast,Allegany County,42.343,-78.111
1426,Durhamville,Oneida County,43.121,-75.671
4548,Sherman,Chautauqua County,42.159,-79.595
4351,Rushville,Ontario County,42.761,-77.228
2666,Lacona,Oswego County,43.643,-76.069
1109,Copenhagen,Lewis County,43.893,-75.674
1898,Georgetown,Madison County,42.787,-75.744
4330,Round Top,Greene County,42.269,-74.027
1053,Coldspring,Cattaraugus County,42.056,-78.845
0536,Bovina,Delaware County,42.274,-74.757
5074,Unionville,Orange County,41.302,-74.562
1012,Clinton,Clinton County,44.938,-73.920
2231,Hemlock,Livingston County,42.794,-77.606
2107,Hague,Warren County,43.691,-73.550
3655,Old Forge,Herkimer County,43.710,-74.974
3455,Nelsonville,Putnam County,41.425,-73.947
2060,Greenville,Greene County,42.415,-74.022
2431,Interlaken,Seneca County,42.617,-76.725
4432,Sandy Creek,Oswego County,43.644,-76.086
1616,Essex,Essex County,44.294,-73.395
0221,Aurora,Cayuga County,42.754,-76.702
4001,Port Gibson,Ontario County,43.035,-77.157
0564,Brandon,Franklin County,44.735,-74.415
4744,Star Lake,St. Lawrence County,44.160,-75.032
1515,Elba,Genesee County,43.077,-78.187
1532,Elizabethtown,Essex County,44.216,-73.591
1710,Fillmore,Allegany County,42.466,-78.115
0934,Chestertown,Warren County,43.653,-73.801
1981,Gorham,Ontario County,42.799,-77.132
0266,Barker,Niagara County,43.330,-78.555
4898,Tannersville,Greene County,42.196,-74.134
4969,Titusville,Dutchess County,41.668,-73.874
0818,Cassadaga,Chautauqua County,42.344,-79.309
2977,Machias,Cattaraugus County,42.420,-78.494
4073,Putnam,Washington County,43.747,-73.418
3533,Newport,Herkimer County,43.186,-75.014
3467,New Baltimore,Greene County,42.446,-73.788
3642,Odessa,Schuyler County,42.337,-76.789
4464,Savannah,Wayne County,43.067,-76.760
2177,Hartsville,Steuben County,42.222,-77.660
2270,High Falls,Ulster County,41.827,-74.126
2136,Hannibal,Oswego County,43.321,-76.579
0833,Cato,Cayuga County,43.168,-76.573
3739,Ovid,Seneca County,42.676,-76.823
1388,Dresden,Washington County,43.591,-73.469
4797,Stratford,Fulton County,43.210,-74.610
2180,Hartwick,Otsego County,42.660,-75.049
3352,Morris,Otsego County,42.549,-75.245
2008,Granger,Allegany County,42.480,-78.011
4559,Shoreham,Suffolk County,40.957,-72.908
0145,Antwerp,Jefferson County,44.199,-75.607
1607,Erin,Chemung County,42.186,-76.670
0553,Boylston,Oswego County,43.658,-75.953
3913,Pine Valley,Chemung County,42.225,-76.846
0057,Alexander,Genesee County,42.901,-78.257
4802,Strykersville,Wyoming County,42.705,-78.448
5470,Woodbourne,Sullivan County,41.760,-74.594
2075,Grove,Allegany County,42.480,-77.894
5278,Wellsburg,Chemung County,42.016,-76.727
4141,Red Creek,Wayne County,43.247,-76.724
1313,Denning,Ulster County,41.955,-74.482
0071,Allen,Allegany County,42.397,-78.004
5161,Virgil,Cortland County,42.511,-76.194
0927,Cherry Valley,Otsego County,42.796,-74.753
2824,Limestone,Cattaraugus County,42.027,-78.629
3978,Poland,Herkimer County,43.226,-75.061
2162,Harrisburg,Lewis County,43.837,-75.666
4152,Redfield,Oswego County,43.587,-75.829
1501,Edwards,St. Lawrence County,44.325,-75.251
2244,Hermon,St. Lawrence County,44.467,-75.230
0840,Cayuga,Cayuga County,42.919,-76.726
3541,Nichols,Tioga County,42.022,-76.367
3775,Panama,Chautauqua County,42.075,-79.483
5097,Valley Falls,Rensselaer County,42.903,-73.563
2784,Leicester,Livingston County,42.772,-77.897
4350,Rushford,Allegany County,42.392,-78.254
0923,Cherry Creek,Chautauqua County,42.294,-79.100
2467,Jacksonville,Tompkins County,42.508,-76.615
4685,Springwater,Livingston County,42.637,-77.596
4905,Taylor,Cortland County,42.596,-75.919
0476,Bliss,Wyoming County,42.577,-78.253
4303,Roscoe,Sullivan County,41.933,-74.913
5529,York,Livingston County,42.871,-77.885
3216,Middleville,Herkimer County,43.139,-74.968
4243,Riverside,Steuben County,42.156,-77.083
4169,Remsen,Oneida County,43.327,-75.187
3526,Newcomb,Essex County,44.007,-74.100
2388,Hunter,Greene County,42.214,-74.219
4195,Richburg,Allegany County,42.088,-78.153
2349,Hope,Hamilton County,43.323,-74.235
4299,Romulus,Seneca County,42.752,-76.834
1243,Dalton,Livingston County,42.541,-77.953
3227,Milford,Otsego County,42.591,-74.945
3856,Perrysburg,Cattaraugus County,42.456,-79.002
2305,Hobart,Delaware County,42.371,-74.670
2142,Harbor Hills,Nassau County,40.791,-73.747
5518,Wyoming,Wyoming County,42.826,-78.090
2484,Jeffersonville,Sullivan County,41.781,-74.934
2775,Leeds,Greene County,42.255,-73.902
1282,Decatur,Otsego County,42.657,-74.706
1685,Farnham,Erie County,42.594,-79.091
1381,Downsville,Delaware County,42.081,-74.996
3395,Mountain Dale,Sullivan County,41.690,-74.531
1614,Esperance,Schoharie County,42.761,-74.257
4059,Prospect,Oneida County,43.304,-75.152
0680,Burdett,Schuyler County,42.420,-76.849
5314,West Union,Steuben County,42.044,-77.688
0995,Clayville,Oneida County,42.980,-75.251
0358,Belleville,Jefferson County,43.783,-76.119
2849,Lisle,Broome County,42.351,-76.003
1915,Gilbertsville,Otsego County,42.471,-75.326
5214,Ward,Allegany County,42.225,-77.902
3026,Mannsville,Jefferson County,43.713,-76.063
3898,Pinckney,Lewis County,43.834,-75.789
2988,Madison,Madison County,42.899,-75.512
4443,Santa Clara,Franklin County,44.498,-74.363
1029,Colton,St. Lawrence County,44.553,-74.940
0474,Blenheim,Schoharie County,42.488,-74.523
3904,Pine Hill,Ulster County,42.133,-74.480
1455,East Kingston,Ulster County,41.954,-73.968
2361,Hortonville,Sullivan County,41.764,-75.030
1388,Dresden,Yates County,42.684,-76.956
3143,McLean,Tompkins County,42.552,-76.291
4159,Redwood,Jefferson County,44.301,-75.801
3192,Meridian,Cayuga County,43.166,-76.537
3246,Millport,Chemung County,42.265,-76.835
2114,Hall,Ontario County,42.794,-77.066
2127,Hammond,St. Lawrence County,44.449,-75.694
2875,Lodi,Seneca County,42.614,-76.822
1804,Franklin,Delaware County,42.341,-75.165
2233,Henderson,Jefferson County,43.847,-76.182
5432,Windham,Greene County,42.307,-74.252
1795,Fowlerville,Livingston County,42.893,-77.846
4204,Richville,St. Lawrence County,44.417,-75.392
3441,Natural Bridge,Jefferson County,44.069,-75.494
0860,Cementon,Greene County,42.135,-73.925
4153,Redford,Clinton County,44.608,-73.804
3575,North Hudson,Essex County,44.027,-73.758
2563,Kennedy,Chautauqua County,42.157,-79.102
4642,South Valley,Cattaraugus County,42.045,-79.003
3713,Osceola,Lewis County,43.540,-75.681
5336,Westport,Essex County,44.184,-73.436
0485,Bloomville,Delaware County,42.333,-74.808
1849,Gainesville,Wyoming County,42.641,-78.134
0387,Benson,Hamilton County,43.290,-74.366
4859,Swan Lake,Sullivan County,41.751,-74.778
0593,Bridgeville,Sullivan County,41.634,-74.619
4604,Smyrna,Chenango County,42.687,-75.571
5502,Worth,Jefferson County,43.744,-75.845
1524,Eldred,Sullivan County,41.527,-74.884
3783,Parc,Clinton County,44.667,-73.454
4285,Rodman,Jefferson County,43.851,-75.941
2482,Jefferson,Schoharie County,42.481,-74.610
0682,Burke,Franklin County,44.905,-74.169
5178,Wadsworth,Livingston County,42.820,-77.897
0113,Ames,Montgomery County,42.838,-74.602
0271,Barneveld,Oneida County,43.272,-75.190
5449,Winthrop,St. Lawrence County,44.795,-74.787
5360,White Lake,Oneida County,43.536,-75.145
4021,Pottersville,Warren County,43.731,-73.819
4485,Scottsburg,Livingston County,42.664,-77.714
2905,Lorraine,Jefferson County,43.766,-75.959
3301,Montague,Lewis County,43.715,-75.717
0969,Clare,St. Lawrence County,44.357,-75.013
3335,Morehouse,Hamilton County,43.447,-74.695
3746,Oxbow,Jefferson County,44.287,-75.623
5360,White Lake,Sullivan County,41.677,-74.828
5493,Woodsville,Livingston County,42.576,-77.732
2387,Hunt,Livingston County,42.547,-77.994
4143,Red House,Cattaraugus County,42.070,-78.735
2846,Linwood,Livingston County,42.895,-77.949