id,name,state,county,country,level,population,latitude,longitude,wiki
7,Abbeville,LA,Vermilion Parish,,city-us,11048,29.975,-92.134,9934
4,Abbeville,SC,Abbeville County,,city-us,4860,34.178,-82.379,8657
8,Abbeville,GA,Wilcox County,,city-us,2662,31.992,-83.307,3504
5,Abbeville,AL,Henry County,,city-us,2379,31.572,-85.250,10970
6,Abbeville,MS,Lafayette County,,city-us,383,34.503,-89.503,2387