id,name,state,county,country,level,population,latitude,longitude,wiki
904,Alva,OK,Woods County,,city-us,4997,36.805,-98.666,10222
902,Alva,FL,Lee County,,city-us,2931,26.716,-81.610,3873
900,Alva,WY,Crook County,,city-us,0,44.695,-104.441,644
901,Alva,KY,Harlan County,,city-us,0,36.735,-83.424,119
903,Alva,MS,Montgomery County,,city-us,0,33.638,-89.507,175