id,name,state,county,country,level,population,latitude,longitude,wiki
126,Adrian,MO,Bates County,,city-us,1730,38.398,-94.352,4914
132,Adrian,MN,Nobles County,,city-us,1195,43.635,-95.933,6312
131,Adrian,WI,Monroe County,,city-us,740,43.945,-90.595,1950
127,Adrian,GA,Emanuel County,,city-us,546,32.530,-82.592,2457
130,Adrian,OR,Malheur County,,city-us,156,43.741,-117.072,4272
133,Adrian,TX,Oldham County,,city-us,129,35.275,-102.665,5245
129,Adrian,ND,LaMoure County,,city-us,115,46.595,-98.589,266
128,Adrian,IL,Hancock County,,city-us,0,40.521,-91.167,624