id,name,state,county,country,level,population,latitude,longitude,wiki
271,Alden,NY,Erie County,,city-us,9755,42.907,-78.521,5518
276,Alden,WI,Polk County,,city-us,2966,45.253,-92.509,2053
274,Alden,IA,Hardin County,,city-us,748,42.520,-93.376,3872
272,Alden,MN,Freeborn County,,city-us,580,43.670,-93.576,3261
275,Alden,IL,McHenry County,,city-us,188,42.459,-88.518,1262
270,Alden,MI,Antrim County,,city-us,123,44.881,-85.276,1228
277,Alden,KS,Rice County,,city-us,120,38.242,-98.312,3507
273,Alden,SD,Hand County,,city-us,18,44.678,-99.130,1712