id,name,state,county,country,level,population,latitude,longitude,wiki
2904,Beatty,NV,Nye County,,city-us,762,36.909,-116.759,14007
2905,Beatty,MN,St. Louis County,,city-us,417,47.976,-92.615,3210
2901,Beattie,KS,Marshall County,,city-us,199,39.861,-96.420,3432
2903,Beatty,OR,Klamath County,,city-us,60,42.442,-121.270,1116
2900,Beattie,TX,Comanche County,,city-us,0,32.038,-98.693,1005
2902,Beatty,OH,Clark County,,city-us,0,39.882,-83.840,285
2906,Beaty,AR,Benton County,,city-us,0,36.451,-94.525,190
2907,Beaty,IL,Fulton County,,city-us,0,40.275,-90.246,146