id,name,state,county,country,level,population,latitude,longitude,wiki
4143,Black Hawk,CO,Gilpin County,,city-us,128,39.797,-105.494,7764
4140,Black Hawk,KY,Caldwell County,,city-us,0,36.960,-87.874,100
4141,Black Hawk,MS,Carroll County,,city-us,0,33.326,-90.024,1258
4142,Black Hawk,LA,Concordia Parish,,city-us,0,31.155,-91.636,90
4144,Black Hawk,WI,Sauk County,,city-us,0,43.269,-89.927,338