id,name,state,county,country,level,population,latitude,longitude,wiki
4745,Booneville,MS,Prentiss County,,city-us,8681,34.658,-88.567,6676
4743,Booneville,AR,Logan County,,city-us,3816,35.140,-93.922,7476
4744,Booneville,KY,Owsley County,,city-us,157,37.476,-83.675,2947
4741,Booneville,IA,Dallas County,,city-us,0,41.524,-93.884,960
4742,Booneville,TN,Lincoln County,,city-us,0,35.274,-86.464,264