id,name,state,county,country,level,population,latitude,longitude,wiki
5002,Bradshaw,NE,York County,,city-us,279,40.884,-97.747,3487
5000,Bradshaw,WV,McDowell County,,city-us,218,37.352,-81.799,2035
4997,Bradshaw,MD,Baltimore County,,city-us,0,39.423,-76.381,276
4998,Bradshaw,KY,Jackson County,,city-us,0,37.421,-83.948,311
4999,Bradshaw,WV,Logan County,,city-us,0,37.802,-82.032,131
5001,Bradshaw,VA,Montgomery County,,city-us,0,37.300,-80.224,977