id,name,state,county,country,level,population,latitude,longitude,wiki
553,Ames,IA,Story County,,city-us,66424,42.035,-93.620,23877
550,Ames,TX,Liberty County,,city-us,1009,30.054,-94.744,2245
551,Ames,OK,Major County,,city-us,193,36.246,-98.185,4049
552,Ames,NY,Montgomery County,,city-us,141,42.838,-74.602,2320
548,Ames,KS,Cloud County,,city-us,33,39.569,-97.442,964
549,Ames,NE,Dodge County,,city-us,0,41.452,-96.624,771