id,name,state,county,country,level,population,latitude,longitude,wiki
627,Andrews,TX,Andrews County,,city-us,13370,32.319,-102.546,9377
629,Andrews,SC,Georgetown County,,city-us,2550,33.449,-79.566,5012
628,Andrews,NC,Cherokee County,,city-us,1686,35.202,-83.824,5182
630,Andrews,IN,Huntington County,,city-us,1050,40.863,-85.602,3392
631,Andrews,FL,Levy County,,city-us,681,29.533,-82.882,2070