id,name,state,county,country,level,population,latitude,longitude,wiki
7759,Ceres,CA,Stanislaus County,,city-us,49282,37.595,-120.958,6626
7756,Ceres,PA,McKean County,,city-us,824,41.964,-78.259,1708
7752,Ceres,VA,Bland County,,city-us,0,37.018,-81.343,436
7753,Ceres,IA,Clayton County,,city-us,0,42.821,-91.186,208
7754,Ceres,GA,Crawford County,,city-us,0,32.808,-83.997,222
7755,Ceres,WA,Lewis County,,city-us,0,46.608,-123.153,401
7757,Ceres,WV,Mercer County,,city-us,0,37.308,-81.148,168
7758,Ceres,OK,Noble County,,city-us,0,36.477,-97.282,557