id,name,state,county,country,level,population,latitude,longitude,wiki
8853,Clifford,PA,Susquehanna County,,city-us,2099,41.674,-75.554,4943
8851,Clifford,MI,Lapeer County,,city-us,311,43.315,-83.179,3246
8850,Clifford,KS,Butler County,,city-us,215,38.036,-96.978,595
8849,Clifford,IN,Bartholomew County,,city-us,206,39.282,-85.869,3077
8854,Clifford,ND,Traill County,,city-us,30,47.348,-97.411,2424
8848,Clifford,VA,Amherst County,,city-us,0,37.644,-79.022,459
8852,Clifford,WI,Lincoln County,,city-us,0,45.555,-90.043,282
8855,Clifford,IL,Williamson County,,city-us,0,37.824,-89.077,438