id,name,state,county,country,level,population,latitude,longitude,wiki
911,Ashley,PA,Luzerne County,,city-us,2589,41.210,-75.897,2942
909,Ashley,OH,Delaware County,,city-us,1239,40.409,-82.955,3415
908,Ashley,IN,DeKalb County,,city-us,1032,41.521,-85.061,3261
912,Ashley,ND,McIntosh County,,city-us,606,46.034,-99.371,3989
910,Ashley,MI,Gratiot County,,city-us,515,43.187,-84.474,3126