id,name,state,county,country,level,population,latitude,longitude,wiki
10936,Dana,NC,Henderson County,,city-us,3683,35.329,-82.375,1008
10939,Dana,IN,Vermillion County,,city-us,548,39.808,-87.495,4318
10937,Dana,IL,LaSalle County,,city-us,156,40.958,-88.950,2090
10935,Dana,IA,Greene County,,city-us,35,42.107,-94.241,3607
10934,Dana,KY,Floyd County,,city-us,0,37.554,-82.691,79
10938,Dana,CA,Shasta County,,city-us,0,41.112,-121.565,283