id,name,state,county,country,level,population,latitude,longitude,wiki
11142,Daye,,,China,city-international,909724,30.100,114.970,7309
11139,Day,MI,Montcalm County,,city-us,1193,43.343,-85.015,3207
11137,Day,WI,Marathon County,,city-us,1054,44.722,-90.012,1996
11140,Day,NY,Saratoga County,,city-us,822,43.321,-74.028,3523
11134,Day,SD,Clark County,,city-us,98,44.839,-97.662,0
11136,Day,FL,Lafayette County,,city-us,89,30.194,-83.291,199
11135,Day,MN,Isanti County,,city-us,0,45.709,-93.379,916
11138,Day,CA,Modoc County,,city-us,0,41.212,-121.374,346
11141,Day,MO,Taney County,,city-us,0,36.813,-93.244,424