id,name,state,county,country,level,population,latitude,longitude,wiki
11521,Denison,TX,Grayson County,,city-us,25179,33.756,-96.537,7950
11520,Denison,IA,Crawford County,,city-us,8178,42.018,-95.355,6159
11559,Dennison,OH,Tuscarawas County,,city-us,2676,40.393,-81.334,5247
11523,Denison,IL,Lawrence County,,city-us,1331,38.631,-87.690,403
11558,Dennison,PA,Luzerne County,,city-us,969,41.098,-75.837,3024
11557,Dennison,MN,Goodhue County / Rice County,,city-us,220,44.409,-93.030,3028
11522,Denison,KS,Jackson County,,city-us,145,39.392,-95.628,6023
11524,Denison,WA,Spokane County,,city-us,0,47.910,-117.439,631
11556,Dennison,IL,Clark County,,city-us,0,39.461,-87.598,288