id,name,state,county,country,level,population,latitude,longitude,wiki
11925,Dogwood,IL,Crawford County,,city-us,0,39.064,-87.891,130
11926,Dogwood,MO,Douglas County,,city-us,0,37.038,-92.831,1627
11927,Dogwood,KY,Graves County,,city-us,0,36.884,-88.576,83
11928,Dogwood,IN,Harrison County,,city-us,0,38.105,-86.084,254
11929,Dogwood,MO,Mississippi County,,city-us,0,36.825,-89.454,385