id,name,state,county,country,level,population,latitude,longitude,wiki
1181,Avondale,AZ,Maricopa County,,city-us,90564,33.436,-112.350,10998
1180,Avondale,LA,Jefferson Parish,,city-us,4969,29.913,-90.204,3078
1178,Avondale,PA,Chester County,,city-us,1267,39.823,-75.783,2773
1182,Avondale,CO,Pueblo County,,city-us,436,38.237,-104.351,2341
1179,Avondale,MO,Clay County,,city-us,434,39.154,-94.547,3495