id,name,state,county,country,level,population,latitude,longitude,wiki
2222,Bainbridge,GA,Decatur County,,city-us,14292,30.904,-84.575,6975
2223,Bainbridge,OH,Geauga County,,city-us,8833,41.386,-81.340,2972
2221,Bainbridge,NY,Chenango County,,city-us,3034,42.297,-75.477,4862
2224,Bainbridge,PA,Lancaster County,,city-us,1269,40.091,-76.667,1541
2226,Bainbridge,OH,Ross County,,city-us,760,39.228,-83.270,3794
2225,Bainbridge,IN,Putnam County,,city-us,681,39.761,-86.812,3201