id,name,state,county,country,level,population,latitude,longitude,wiki
2238,Baker,LA,East Baton Rouge Parish,,city-us,12434,30.588,-91.168,5247
2239,Baker,MT,Fallon County,,city-us,1807,46.367,-104.285,5588
2240,Baker,WV,Hardy County,,city-us,1262,39.042,-78.745,485
2246,Baker,FL,Okaloosa County,,city-us,900,30.797,-86.681,474
2247,Baker,CA,San Bernardino County,,city-us,585,35.265,-116.074,6677
2236,Baker,MN,Clay County,,city-us,48,46.713,-96.552,597
2251,Baker,OK,Texas County,,city-us,37,36.869,-101.018,2017
2252,Baker,NV,White Pine County,,city-us,32,39.013,-114.123,1370
2249,Baker,MO,Stoddard County,,city-us,0,36.773,-89.764,2871