id,name,state,county,country,level,population,latitude,longitude,wiki
1309,Bangor,ME,Penobscot County,,city-us,31921,44.801,-68.778,35220
1308,Bangor,PA,Northampton County,,city-us,5172,40.866,-75.207,4426
1305,Bangor,NY,Franklin County,,city-us,2140,44.838,-74.430,3519
1310,Bangor,MI,Van Buren County,,city-us,1997,42.313,-86.113,4334
1306,Bangor,WI,La Crosse County,,city-us,613,43.854,-90.970,3702
1304,Bangor,CA,Butte County,,city-us,420,39.389,-121.405,4368
1307,Bangor,IA,Marshall County,,city-us,0,42.173,-93.094,508