id,name,state,county,country,level,population,latitude,longitude,wiki
13794,Enon,VA,Chesterfield County,,city-us,4411,37.331,-77.323,855
13795,Enon,OH,Clark County,,city-us,2434,39.878,-83.937,2902
13793,Enon,KY,Caldwell County,,city-us,0,37.254,-87.990,117
13796,Enon,MO,Moniteau County,,city-us,0,38.457,-92.490,273
13797,Enon,WV,Nicholas County,,city-us,0,38.309,-80.897,221
13798,Enon,MO,St. Charles County,,city-us,0,38.863,-90.831,490
13799,Enon,LA,Washington Parish,,city-us,0,30.727,-90.084,589
13800,Enon,NC,Yadkin County,,city-us,0,36.140,-80.468,7826