id,name,state,county,country,level,population,latitude,longitude,wiki
2564,Barstow,CA,San Bernardino County,,city-us,25442,34.899,-117.023,24864
2565,Barstow,TX,Ward County,,city-us,257,31.461,-103.394,2736
2563,Barstow,IL,Rock Island County,,city-us,89,41.518,-90.357,561
2561,Barstow,WA,Ferry County,,city-us,59,48.777,-118.143,656
2560,Barstow,MD,Calvert County,,city-us,0,38.527,-76.615,673