id,name,state,county,country,level,population,latitude,longitude,wiki
2541,Barrington,RI,Bristol County,,city-us,17347,41.733,-71.320,17159
2544,Barrington,IL,Cook County,,city-us,10665,42.152,-88.129,31025
2545,Barrington,NH,Strafford County,,city-us,9444,43.216,-71.039,5588
2542,Barrington,NJ,Camden County,,city-us,7029,39.865,-75.055,12349
2546,Barrington,NY,Yates County,,city-us,1541,42.523,-77.053,4033