id,name,state,county,country,level,population,latitude,longitude,wiki
14384,Fairplay,GA,Douglas County,,city-us,1267,33.623,-84.860,635
14387,Fairplay,CO,Park County,,city-us,729,39.225,-106.002,8284
14389,Fairplay,MD,Washington County,,city-us,537,39.536,-77.748,813
14386,Fairplay,KS,Marion County,,city-us,88,38.239,-96.997,748
14382,Fairplay,KY,Adair County,,city-us,0,37.012,-85.304,231
14383,Fairplay,PA,Adams County,,city-us,0,39.742,-77.286,400
14385,Fairplay,OH,Jefferson County,,city-us,0,40.363,-80.815,235
14388,Fairplay,VA,Richmond County,,city-us,0,37.837,-76.619,92