id,name,state,county,country,level,population,latitude,longitude,wiki
1411,Bass Lake,WI,Sawyer County,,city-us,2820,45.936,-91.451,2418
1412,Bass Lake,IN,Starke County,,city-us,1068,41.207,-86.602,2502
1413,Bass Lake,WI,Washburn County,,city-us,569,45.940,-91.597,1923
1408,Bass Lake,OH,Geauga County,,city-us,506,41.556,-81.226,572
1410,Bass Lake,CA,Madera County,,city-us,314,37.325,-119.566,2851
1409,Bass Lake,MN,Itasca County,,city-us,10,47.698,-93.938,830