id,name,state,county,country,level,population,latitude,longitude,wiki
2802,Bayview,CA,Humboldt County,,city-us,2986,40.773,-124.184,4106
2800,Bayview,CA,Contra Costa County,,city-us,2825,38.007,-122.319,2344
2797,Bayview,WI,Bayfield County,,city-us,514,46.738,-90.902,1946
2799,Bayview,TX,Cameron County,,city-us,501,26.129,-97.398,3107
2801,Bayview,TX,Galveston County,,city-us,0,29.515,-95.004,3908
2803,Bayview,WA,Island County,,city-us,0,48.000,-122.458,1998
2804,Bayview,ID,Kootenai County,,city-us,0,47.980,-116.560,2556