id,name,state,county,country,level,population,latitude,longitude,wiki
17740,Grayson,GA,Gwinnett County,,city-us,4679,33.894,-83.956,4925
17738,Grayson,KY,Carter County,,city-us,3710,38.333,-82.948,5181
17743,Grayson,CA,Stanislaus County,,city-us,1344,37.564,-121.179,4768
17737,Grayson,LA,Caldwell Parish,,city-us,456,32.050,-92.109,2639
17742,Grayson,OK,Okmulgee County,,city-us,132,35.503,-95.873,3044
17739,Grayson,MO,Clinton County,,city-us,61,39.533,-94.564,654
17736,Grayson,NC,Ashe County,,city-us,0,36.536,-81.684,166
17741,Grayson,OH,Miami County,,city-us,0,39.995,-84.144,238