id,name,state,county,country,level,population,latitude,longitude,wiki
1929,Bern,,,Switzerland,city-international,133798,46.948,7.447,38167
1935,Berne,IN,Adams County,,city-us,4161,40.658,-84.952,23600
1936,Berne,NY,Albany County,,city-us,2672,42.604,-74.130,9865
1927,Bern,WI,Marathon County,,city-us,612,45.101,-90.122,1879
1928,Bern,KS,Nemaha County,,city-us,163,39.962,-95.972,3372
1926,Bern,ID,Bear Lake County,,city-us,0,42.340,-111.386,836
1937,Berne,MN,Dodge County,,city-us,0,44.164,-92.779,566