id,name,state,county,country,level,population,latitude,longitude,wiki
20570,Hooker,OK,Texas County,,city-us,1740,36.860,-101.213,3226
20565,Hooker,NE,Dixon County,,city-us,184,42.683,-96.965,154
20567,Hooker,NE,Gage County,,city-us,163,40.385,-96.515,154
20564,Hooker,GA,Dade County,,city-us,0,34.979,-85.434,268
20566,Hooker,OH,Fairfield County,,city-us,0,39.748,-82.660,263
20568,Hooker,MO,Pulaski County,,city-us,0,37.860,-92.061,558
20569,Hooker,CA,Tehama County,,city-us,0,40.301,-122.327,283
20571,Hooker,SD,Turner County,,city-us,0,43.200,-97.025,209