id,name,state,county,country,level,population,latitude,longitude,wiki
3712,Berwick,PA,Columbia County,,city-us,10349,41.055,-76.233,8119
3720,Berwick,ME,York County,,city-us,8079,43.299,-70.842,7111
3718,Berwick,LA,St. Mary Parish,,city-us,4644,29.695,-91.219,2739
3715,Berwick,MO,Newton County,,city-us,0,36.933,-94.095,560
3716,Berwick,IA,Polk County,,city-us,0,41.665,-93.545,1005