id,name,state,county,country,level,population,latitude,longitude,wiki
21317,Indian Hills,NV,Douglas County,,city-us,5955,39.086,-119.784,2078
21321,Indian Hills,KY,Jefferson County,,city-us,2836,38.273,-85.663,8836
21319,Indian Hills,TX,Hidalgo County,,city-us,2454,26.213,-97.916,2208
21320,Indian Hills,CO,Jefferson County,,city-us,1545,39.617,-105.237,5011
21318,Indian Hills,WI,Green Lake County,,city-us,1258,43.805,-88.990,2262
21323,Indian Hills,NM,Torrance County,,city-us,1043,34.983,-106.140,358
21322,Indian Hills,IN,Steuben County,,city-us,0,41.624,-85.157,165