id,name,state,county,country,level,population,latitude,longitude,wiki
1989,Berwick,PA,Columbia County,,city-us,10349,41.055,-76.233,8119
1993,Berwick,ME,York County,,city-us,8079,43.299,-70.842,7111
1992,Berwick,LA,St. Mary Parish,,city-us,4644,29.695,-91.219,2739
1990,Berwick,MO,Newton County,,city-us,0,36.933,-94.095,560
1991,Berwick,IA,Polk County,,city-us,0,41.665,-93.545,1005