id,name,state,county,country,level,population,latitude,longitude,wiki
2105,Big Lake,AK,Matanuska-Susitna Borough,,city-us,2888,61.545,-149.818,3531
2106,Big Lake,TX,Reagan County,,city-us,2850,31.192,-101.460,6480
2107,Big Lake,WA,Skagit County,,city-us,2279,48.403,-122.241,2803
2103,Big Lake,MN,Carlton County,,city-us,337,46.701,-92.621,499
2104,Big Lake,MO,Holt County,,city-us,71,40.082,-95.350,3375