id,name,state,county,country,level,population,latitude,longitude,wiki
2262,Blakely,PA,Lackawanna County,,city-us,6660,41.481,-75.595,2581
2259,Blakely,GA,Early County,,city-us,5252,31.378,-84.934,5718
2260,Blakely,NE,Gage County,,city-us,306,40.300,-96.851,210
2261,Blakely,KS,Geary County,,city-us,101,38.924,-96.751,407
2258,Blakeley,MN,Scott County,,city-us,0,44.611,-93.853,634