id,name,state,county,country,level,population,latitude,longitude,wiki
24690,Liberty,OH,Butler County,,city-us,44099,39.399,-84.411,7139
24705,Liberty,OH,Delaware County,,city-us,33554,40.189,-83.082,7139
24695,Liberty,MO,Clay County,,city-us,30377,39.246,-94.419,7311
24771,Liberty,OH,Trumbull County,,city-us,21461,41.172,-80.660,7139
24766,Liberty,MO,Stoddard County,,city-us,14851,36.718,-90.022,1280
24722,Liberty,OH,Highland County,,city-us,10186,39.217,-83.580,7139
24732,Liberty,TX,Liberty County,,city-us,8539,30.058,-94.795,7112
24710,Liberty,OH,Fairfield County,,city-us,8313,39.874,-82.644,7139
24719,Liberty,OH,Hancock County,,city-us,7127,41.034,-83.723,7139
24720,Liberty,OH,Hardin County,,city-us,6993,40.775,-83.822,7139
24767,Liberty,NY,Sullivan County,,city-us,5200,41.801,-74.747,11622
24735,Liberty,OH,Logan County,,city-us,3944,40.289,-83.766,7139
24751,Liberty,SC,Pickens County,,city-us,3344,34.788,-82.692,14494
24725,Liberty,MI,Jackson County,,city-us,3084,42.110,-84.417,207
24733,Liberty,OH,Licking County,,city-us,2757,40.162,-82.593,7139
24777,Liberty,NJ,Warren County,,city-us,2680,40.870,-74.938,10370
24756,Liberty,NC,Randolph County,,city-us,2676,35.853,-79.572,4251
24760,Liberty,OH,Ross County,,city-us,2591,39.273,-82.847,7139
24721,Liberty,OH,Henry County,,city-us,2464,41.448,-84.068,7139
24682,Liberty,PA,Allegheny County,,city-us,2318,40.325,-79.856,2752
24773,Liberty,OH,Union County,,city-us,2168,40.333,-83.482,7139
24680,Liberty,OH,Adams County,,city-us,2079,38.805,-83.632,7139
24764,Liberty,OH,Seneca County,,city-us,2016,41.195,-83.250,7139
24772,Liberty,IN,Union County,,city-us,1995,39.636,-84.931,4351
24692,Liberty,KY,Casey County,,city-us,1981,37.318,-84.939,3520
24730,Liberty,OH,Knox County,,city-us,1946,40.380,-82.594,7139
24693,Liberty,PA,Centre County,,city-us,1810,41.062,-77.649,570
24744,Liberty,PA,Montour County,,city-us,1800,40.994,-76.732,570
24726,Liberty,OH,Jackson County,,city-us,1786,39.078,-82.735,7139
24781,Liberty,OH,Wood County,,city-us,1698,41.303,-83.698,7139
24754,Liberty,OH,Putnam County,,city-us,1680,41.128,-84.064,7139
24739,Liberty,PA,McKean County,,city-us,1570,41.774,-78.291,570
24774,Liberty,OH,Van Wert County,,city-us,1428,40.772,-84.633,7139
24741,Liberty,PA,Mercer County,,city-us,1395,41.110,-80.105,570
24779,Liberty,UT,Weber County,,city-us,1382,41.334,-111.864,2136
24687,Liberty,PA,Bedford County,,city-us,1380,40.210,-78.279,570
24681,Liberty,PA,Adams County,,city-us,1373,39.739,-77.357,570
24699,Liberty,OH,Crawford County,,city-us,1339,40.868,-82.911,7139
24736,Liberty,WI,Manitowoc County,,city-us,1252,44.018,-87.863,2337
24768,Liberty,PA,Susquehanna County,,city-us,1131,41.964,-75.847,570
24696,Liberty,OH,Clinton County,,city-us,1087,39.538,-83.818,7139
24700,Liberty,OH,Darke County,,city-us,987,40.044,-84.764,7139
24734,Liberty,KS,Linn County,,city-us,963,38.332,-94.991,3546
24776,Liberty,ME,Waldo County,,city-us,948,44.369,-69.336,3330
24780,Liberty,MI,Wexford County,,city-us,935,44.469,-85.397,207
24740,Liberty,OH,Mercer County,,city-us,910,40.586,-84.737,7139
24717,Liberty,OH,Guernsey County,,city-us,906,40.128,-81.566,7139
24701,Liberty,MO,Daviess County,,city-us,847,39.923,-94.034,1280
24748,Liberty,WI,Outagamie County,,city-us,827,44.416,-88.653,2010
24688,Liberty,MN,Beltrami County,,city-us,747,47.642,-94.989,252
24708,Liberty,IL,Effingham County,,city-us,728,39.194,-88.750,279
24683,Liberty,MS,Amite County,,city-us,587,31.158,-90.812,4951
24715,Liberty,WI,Grant County,,city-us,549,42.901,-90.606,1901
24697,Liberty,KS,Coffey County,,city-us,543,38.107,-95.882,475
24679,Liberty,IL,Adams County,,city-us,531,39.879,-91.108,3929
24778,Liberty,OH,Washington County,,city-us,431,39.557,-81.303,7139
24731,Liberty,KS,Labette County,,city-us,417,37.254,-95.215,3546
24716,Liberty,MO,Grundy County,,city-us,362,40.157,-93.433,1280
24738,Liberty,KS,Marion County,,city-us,346,38.303,-97.206,1429
24775,Liberty,WI,Vernon County,,city-us,341,43.516,-90.734,1850
24704,Liberty,TN,DeKalb County,,city-us,336,36.007,-85.968,4260
24706,Liberty,KS,Dickinson County,,city-us,311,38.831,-96.973,426
24770,Liberty,PA,Tioga County,,city-us,231,41.558,-77.105,2178
24765,Liberty,OK,Sequoyah County,,city-us,220,35.477,-94.543,590
24684,Liberty,KS,Barton County,,city-us,213,38.278,-98.902,320
24753,Liberty,MO,Putnam County,,city-us,196,40.530,-92.805,1280
24714,Liberty,KS,Geary County,,city-us,180,38.907,-96.608,569
24763,Liberty,KS,Saline County,,city-us,174,38.659,-97.535,121
24782,Liberty,KS,Woodson County,,city-us,163,37.974,-95.730,3546
24698,Liberty,KS,Cowley County,,city-us,158,37.177,-96.836,465
24727,Liberty,NE,Kearney County,,city-us,155,40.561,-98.885,283
24746,Liberty,OK,Okmulgee County / Tulsa County,,city-us,151,35.853,-95.986,3189
24724,Liberty,SD,Hutchinson County,,city-us,123,43.384,-97.935,0
24728,Liberty,KS,Kingman County,,city-us,115,37.428,-98.410,845
24752,Liberty,MN,Polk County,,city-us,109,47.536,-96.385,252
24709,Liberty,KS,Elk County,,city-us,108,37.562,-96.065,521
24757,Liberty,ND,Ransom County,,city-us,105,46.580,-97.611,0
24742,Liberty,KS,Montgomery County,,city-us,97,37.156,-95.595,3546
24712,Liberty,NE,Fillmore County,,city-us,94,40.568,-97.426,283
24685,Liberty,SD,Beadle County,,city-us,73,44.501,-98.032,0
24702,Liberty,SD,Day County,,city-us,70,45.543,-97.535,0
24703,Liberty,KS,Decatur County,,city-us,65,39.875,-100.569,480
24745,Liberty,ND,Mountrail County,,city-us,43,47.880,-102.297,0
24689,Liberty,SD,Brown County,,city-us,42,45.900,-98.278,1127
24759,Liberty,KS,Republic County,,city-us,41,39.962,-97.645,123
24713,Liberty,NE,Gage County,,city-us,34,40.085,-96.483,3944
24747,Liberty,KS,Osborne County,,city-us,13,39.184,-98.870,3546
24749,Liberty,SD,Perkins County,,city-us,13,45.863,-102.387,0
24707,Liberty,SD,Edmunds County,,city-us,9,45.299,-99.140,0
24686,Liberty,ID,Bear Lake County,,city-us,0,42.391,-111.321,224
24691,Liberty,VA,Caroline County,,city-us,0,38.143,-77.353,91
24694,Liberty,IA,Clarke County,,city-us,0,41.145,-93.654,204
24711,Liberty,VA,Fauquier County,,city-us,0,38.600,-77.772,146
24718,Liberty,VA,Halifax County,,city-us,0,36.884,-78.975,144
24723,Liberty,VA,Highland County,,city-us,0,38.289,-79.459,259
24729,Liberty,WA,Kittitas County,,city-us,0,47.254,-120.669,952
24737,Liberty,AZ,Maricopa County,,city-us,0,33.377,-112.487,1326
24743,Liberty,OH,Montgomery County,,city-us,0,39.720,-84.325,213
24750,Liberty,AL,Pickens County,,city-us,0,33.476,-88.170,161
24755,Liberty,WV,Putnam County,,city-us,0,38.605,-81.730,148
24758,Liberty,LA,Red River Parish,,city-us,0,32.073,-93.198,87
24761,Liberty,NC,Rowan County,,city-us,0,35.581,-80.336,88
24762,Liberty,IL,Saline County,,city-us,0,37.720,-88.572,1139
24769,Liberty,VA,Tazewell County,,city-us,0,37.057,-81.654,78
24783,Liberty,WA,Yakima County,,city-us,0,46.356,-120.146,134