id,name,state,county,country,level,population,latitude,longitude,wiki
26164,Lynnville,IN,Warrick County,,city-us,848,38.196,-87.297,3259
26163,Lynnville,IL,Ogle County,,city-us,575,42.016,-88.988,362
26161,Lynnville,IA,Jasper County,,city-us,383,41.578,-92.784,3299
26159,Lynnville,TN,Giles County,,city-us,301,35.377,-87.006,2475
26162,Lynnville,IL,Morgan County,,city-us,93,39.687,-90.346,1803
25109,Linnville,OH,Licking County,,city-us,0,39.955,-82.342,341
26160,Lynnville,KY,Graves County,,city-us,0,36.560,-88.569,219