id,name,state,county,country,level,population,latitude,longitude,wiki
4567,Bluffton,SC,Beaufort County,,city-us,32191,32.237,-80.860,18307
4573,Bluffton,IN,Wells County,,city-us,10318,40.739,-85.172,6556
4566,Bluffton,OH,Allen County,,city-us,4268,40.892,-83.888,7232
4569,Bluffton,GA,Clay County,,city-us,114,31.523,-84.868,19301
4568,Bluffton,AL,Cherokee County,,city-us,0,34.007,-85.440,1279
4570,Bluffton,TX,Llano County,,city-us,0,30.821,-98.491,930