id,name,state,county,country,level,population,latitude,longitude,wiki
26070,Lydia,LA,Iberia Parish,,city-us,956,29.919,-91.795,2187
26068,Lydia,SC,Darlington County,,city-us,572,34.288,-80.120,666
26069,Lydia,VA,Greene County,,city-us,0,38.330,-78.491,99
26071,Lydia,MN,Scott County,,city-us,0,44.653,-93.501,350
26072,Lydia,KS,Wichita County,,city-us,0,38.278,-101.292,276