id,name,state,county,country,level,population,latitude,longitude,wiki
4748,Boonville,MO,Cooper County,,city-us,7870,38.974,-92.743,11131
4751,Boonville,IN,Warrick County,,city-us,6627,38.049,-87.274,6665
4750,Boonville,NY,Oneida County,,city-us,4466,43.459,-75.285,4059
4752,Boonville,NC,Yadkin County,,city-us,1193,36.233,-80.708,3006
4749,Boonville,CA,Mendocino County,,city-us,1044,39.009,-123.366,6612