id,name,state,county,country,level,population,latitude,longitude,wiki
2471,Bolton,,,United Kingdom,city-international,285372,53.578,-2.429,32516
2470,Bolton,MA,Worcester County,,city-us,5676,42.440,-71.602,5319
2463,Bolton,CT,Tolland County,,city-us,4819,41.765,-72.438,5700
2469,Bolton,NY,Warren County,,city-us,2025,43.579,-73.658,4063
2466,Bolton,KS,Cowley County,,city-us,1448,37.035,-97.065,505
2468,Bolton,OH,Stark County,,city-us,726,40.940,-81.115,793
2465,Bolton,NC,Columbus County,,city-us,518,34.321,-78.402,3808
2467,Bolton,MS,Hinds County,,city-us,432,32.349,-90.460,3385
2464,Bolton,VT,Chittenden County,,city-us,46,44.373,-72.881,4524