id,name,state,county,country,level,population,latitude,longitude,wiki
4802,Boulder,CO,Boulder County,,city-us,104175,40.015,-105.271,30635
4805,Boulder,MT,Jefferson County,,city-us,1214,46.237,-112.121,8439
4804,Boulder,UT,Garfield County,,city-us,236,37.923,-111.432,2985
4806,Boulder,WY,Sublette County,,city-us,19,42.748,-109.718,2123
4801,Boulder,WV,Barbour County,,city-us,0,39.069,-80.103,529