id,name,state,county,country,level,population,latitude,longitude,wiki
27844,Melbourne,,,Australia,city-international,4529500,-37.814,144.963,64637
27839,Melbourne,FL,Brevard County,,city-us,85064,28.084,-80.608,32460
27842,Melbourne,AR,Izard County,,city-us,1888,36.060,-91.908,2454
27843,Melbourne,IA,Marshall County,,city-us,777,41.941,-93.103,3518
27840,Melbourne,KY,Campbell County,,city-us,466,39.030,-84.366,2435
27838,Melbern,OH,Williams County,,city-us,0,41.468,-84.651,676
27841,Melbourne,MO,Harrison County,,city-us,0,40.142,-93.788,540