id,name,state,county,country,level,population,latitude,longitude,wiki
27897,Memphis,TN,Shelby County,,city-us,628127,35.150,-90.049,77260
27893,Memphis,FL,Manatee County,,city-us,11012,27.536,-82.561,3758
27891,Memphis,TX,Hall County,,city-us,2055,34.725,-100.534,12708
27896,Memphis,MO,Scotland County,,city-us,1720,40.458,-92.171,7031
27892,Memphis,MI,Macomb County / St. Clair County,,city-us,1069,42.895,-82.768,3319
27889,Memphis,IN,Clark County,,city-us,790,38.483,-85.762,2050
27895,Memphis,NE,Saunders County,,city-us,110,41.095,-96.431,3327
27894,Memphis,AL,Pickens County,,city-us,25,33.137,-88.298,1226
27890,Memphis,OH,Clinton County,,city-us,0,39.410,-83.609,234