id,name,state,county,country,level,population,latitude,longitude,wiki
28650,Mills,WY,Natrona County,,city-us,4221,42.841,-106.366,3356
28651,Mills,MI,Ogemaw County,,city-us,3974,44.201,-84.065,239
28649,Mills,MI,Midland County,,city-us,1781,43.781,-84.232,239
28644,Mills,IL,Bond County,,city-us,495,38.788,-89.421,2562
28645,Mills,NM,Harding County,,city-us,0,36.086,-104.255,352
28646,Mills,UT,Juab County,,city-us,0,39.483,-112.028,385
28647,Mills,NE,Keya Paha County,,city-us,0,42.941,-99.444,611
28648,Mills,KY,Knox County,,city-us,0,36.923,-83.643,198
28652,Mills,PA,Potter County,,city-us,0,41.946,-77.686,213