id,name,state,county,country,level,population,latitude,longitude,wiki
2648,Brandon,FL,Hillsborough County,,city-us,115330,27.938,-82.286,13244
2650,Brandon,MS,Rankin County,,city-us,25373,32.273,-89.986,5534
2651,Brandon,VT,Rutland County,,city-us,4106,43.805,-73.075,6595
2645,Brandon,WI,Fond du Lac County,,city-us,881,43.735,-88.781,3875
2646,Brandon,NY,Franklin County,,city-us,602,44.735,-74.415,3081
2644,Brandon,IA,Buchanan County,,city-us,335,42.314,-92.002,3995
2647,Brandon,TX,Hill County,,city-us,0,32.046,-96.961,4005
2649,Brandon,CO,Kiowa County,,city-us,0,38.446,-102.440,849