id,name,state,county,country,level,population,latitude,longitude,wiki
2646,Bradley,IL,Kankakee County,,city-us,15039,41.142,-87.861,4122
10617,Bradley,WI,Lincoln County,,city-us,2408,45.539,-89.755,2754
2650,Bradley,WV,Raleigh County,,city-us,1844,37.865,-81.194,2072
2649,Bradley,ME,Penobscot County,,city-us,863,44.921,-68.628,3432
2647,Bradley,AR,Lafayette County,,city-us,403,33.098,-93.655,2762
2645,Bradley,SC,Greenwood County,,city-us,139,34.049,-82.245,1987
2644,Bradley,OK,Grady County,,city-us,80,34.878,-97.708,1681
2648,Bradley,CA,Monterey County,,city-us,69,35.863,-120.801,4527
2643,Bradley,SD,Clark County,,city-us,58,45.091,-97.644,3029