id,name,state,county,country,level,population,latitude,longitude,wiki
2686,Brandon,FL,Hillsborough County,,city-us,115330,27.938,-82.286,13244
2689,Brandon,MS,Rankin County,,city-us,25373,32.273,-89.986,5534
2690,Brandon,VT,Rutland County,,city-us,4106,43.805,-73.075,6595
2683,Brandon,WI,Fond du Lac County,,city-us,881,43.735,-88.781,3875
2688,Brandon,SD,Minnehaha County,,city-us,814,43.641,-96.600,140
2684,Brandon,NY,Franklin County,,city-us,602,44.735,-74.415,3081
2682,Brandon,IA,Buchanan County,,city-us,335,42.314,-92.002,3995
2685,Brandon,TX,Hill County,,city-us,0,32.046,-96.961,4005
2687,Brandon,CO,Kiowa County,,city-us,0,38.446,-102.440,849