id,name,state,county,country,level,population,latitude,longitude,wiki
2722,Breckenridge,TX,Stephens County,,city-us,5244,32.756,-98.902,5574
2723,Breckenridge,CO,Summit County,,city-us,5024,39.482,-106.038,11542
2724,Breckenridge,MN,Wilkin County,,city-us,3398,46.264,-96.588,4663
2721,Breckenridge,MI,Gratiot County,,city-us,1278,43.408,-84.475,3320
2720,Breckenridge,OK,Garfield County,,city-us,200,36.457,-97.725,2100