id,name,state,county,country,level,population,latitude,longitude,wiki
30493,New Albany,IN,Floyd County,,city-us,37411,38.286,-85.824,15938
30494,New Albany,OH,Franklin County,,city-us,10854,40.083,-82.787,12432
30496,New Albany,MS,Union County,,city-us,7618,34.494,-89.008,6387
30491,New Albany,PA,Bradford County,,city-us,254,41.600,-76.442,2125
30497,New Albany,KS,Wilson County,,city-us,55,37.568,-95.938,3036
30492,New Albany,NJ,Burlington County,,city-us,0,40.001,-74.971,128
30495,New Albany,OH,Mahoning County,,city-us,0,40.942,-80.836,270