id,name,state,county,country,level,population,latitude,longitude,wiki
30641,New Hartford,NY,Oneida County,,city-us,21898,43.058,-75.282,13753
30640,New Hartford,CT,Northwest Hills Planning Region,,city-us,6668,41.841,-72.999,5648
30639,New Hartford,IA,Butler County,,city-us,571,42.567,-92.622,4338
30642,New Hartford,MO,Pike County,,city-us,0,39.199,-91.270,348
30643,New Hartford,MN,Winona County,,city-us,0,43.879,-91.476,185