id,name,state,county,country,level,population,latitude,longitude,wiki
30996,Newman,CA,Stanislaus County,,city-us,12328,37.314,-121.021,4959
30992,Newman,IL,Douglas County,,city-us,993,39.829,-88.002,819
30995,Newman,NE,Saunders County,,city-us,268,41.183,-96.840,248
30998,Newman,ND,Ward County,,city-us,61,47.983,-101.159,0
30991,Newman,KY,Daviess County,,city-us,0,37.837,-87.295,253
30993,Newman,KS,Jefferson County,,city-us,0,39.081,-95.465,304
30994,Newman,NM,Otero County,,city-us,0,32.003,-106.323,83
30997,Newman,OH,Stark County,,city-us,0,40.831,-81.564,230