id,name,state,county,country,level,population,latitude,longitude,wiki
5482,Brookhaven,NY,Suffolk County,,city-us,485430,40.857,-72.960,19936
5478,Brookhaven,GA,DeKalb County,,city-us,55366,33.858,-84.340,23026
5480,Brookhaven,MS,Lincoln County,,city-us,11812,31.579,-90.441,7211
5479,Brookhaven,PA,Delaware County,,city-us,8236,39.869,-75.382,9125
5481,Brookhaven,WV,Monongalia County,,city-us,6606,39.612,-79.905,2543