id,name,state,county,country,level,population,latitude,longitude,wiki
32976,Palmetto,FL,Manatee County,,city-us,13480,27.521,-82.572,6057
32974,Palmetto,GA,Coweta County / Fulton County,,city-us,5075,33.536,-84.674,2240
32980,Palmetto,LA,St. Landry Parish,,city-us,94,30.717,-91.909,2593
32975,Palmetto,MO,Greene County,,city-us,0,37.142,-93.096,536
32977,Palmetto,GA,Oglethorpe County,,city-us,0,33.906,-82.923,166
32978,Palmetto,AL,Pickens County,,city-us,0,33.484,-87.978,523
32979,Palmetto,CA,Plumas County,,city-us,0,39.824,-121.319,275