id,name,state,county,country,level,population,latitude,longitude,wiki
33059,Paoli,PA,Chester County,,city-us,5838,40.042,-75.476,9333
33064,Paoli,IN,Orange County,,city-us,3625,38.556,-86.468,4671
33062,Paoli,OK,Garvin County,,city-us,583,34.827,-97.259,2507
33065,Paoli,CO,Phillips County,,city-us,48,40.612,-102.473,1792
33060,Paoli,KY,Cumberland County,,city-us,0,36.679,-85.138,709
33061,Paoli,WI,Dane County,,city-us,0,42.929,-89.524,203
33063,Paoli,GA,Madison County,,city-us,0,34.092,-83.092,390