id,name,state,county,country,level,population,latitude,longitude,wiki
33372,Payne,KS,Sedgwick County,,city-us,1314,37.790,-97.198,231
33371,Payne,OH,Paulding County,,city-us,1179,41.078,-84.727,3384
33369,Payne,KS,Gove County,,city-us,225,38.997,-100.338,511
33373,Payne,MN,St. Louis County,,city-us,10,47.096,-92.599,555
33368,Payne,VA,Fluvanna County,,city-us,0,37.753,-78.442,89
33370,Payne,OK,McClain County,,city-us,0,34.906,-97.530,117