id,name,state,county,country,level,population,latitude,longitude,wiki
33868,Phelps,NY,Ontario County,,city-us,6675,42.957,-77.047,4789
33866,Phelps,MI,Clare County,,city-us,1805,43.942,-84.922,2210
33865,Phelps,MI,Charlevoix County,,city-us,1714,45.251,-85.246,3357
33870,Phelps,WI,Vilas County,,city-us,1010,46.064,-89.088,5381
33869,Phelps,KY,Pike County,,city-us,522,37.513,-82.150,1772
33867,Phelps,MO,Lawrence County,,city-us,0,37.190,-93.903,332