id,name,state,county,country,level,population,latitude,longitude,wiki
3132,Buckeye,AZ,Maricopa County,,city-us,101315,33.370,-112.584,8388
23335,Buckeye,KS,Ellis County,,city-us,433,39.026,-99.339,238
23336,Buckeye,KS,Ottawa County,,city-us,118,39.002,-97.534,238
3130,Buckeye,IA,Hardin County,,city-us,83,42.417,-93.375,2851
3131,Buckeye,CO,Larimer County,,city-us,0,40.827,-105.095,5108
3133,Buckeye,TX,Matagorda County,,city-us,0,28.896,-96.048,849
3135,Buckeye,WV,Pocahontas County,,city-us,0,38.186,-80.134,753
3136,Buckeye,WA,Spokane County,,city-us,0,47.843,-117.374,2414