id,name,state,county,country,level,population,latitude,longitude,wiki
6024,Buford,GA,Gwinnett County,,city-us,17683,34.120,-83.990,15965
6025,Buford,OH,Highland County,,city-us,428,39.077,-83.844,836
6026,Buford,SC,Lancaster County,,city-us,398,34.745,-80.617,755
6022,Buford,WY,Albany County,,city-us,0,41.124,-105.302,2917
6027,Buford,TX,Mitchell County,,city-us,0,32.462,-100.857,1052