id,name,state,county,country,level,population,latitude,longitude,wiki
13109,Lakeside,FL,Clay County,,city-us,31125,30.130,-81.768,5497
3134,Lakeside,CA,San Diego County,,city-us,21383,32.857,-116.922,9961
13113,Lakeside,VA,Henrico County,,city-us,12690,37.608,-77.477,2038
13112,Lakeside,MT,Flathead County,,city-us,2463,48.019,-114.225,2755
13110,Lakeside,OR,Coos County,,city-us,1901,43.576,-124.175,3491
13117,Lakeside,TX,Tarrant County,,city-us,1624,32.822,-97.493,2034
13108,Lakeside,IA,Buena Vista County,,city-us,703,42.621,-95.173,3086
13111,Lakeside,WI,Douglas County,,city-us,683,46.677,-91.841,2124
13115,Lakeside,TX,San Patricio County,,city-us,347,28.105,-97.861,1978
13114,Lakeside,CO,Jefferson County,,city-us,17,39.777,-105.056,2806
3373,Lakeside,MI,Genesee County,,city-us,0,0.000,0.000,0
13116,Lakeside,NE,Sheridan County,,city-us,0,42.056,-102.425,632