id,name,state,county,country,level,population,latitude,longitude,wiki
34453,Plano,TX,Collin County / Denton County,,city-us,288253,33.051,-96.748,29862
34457,Plano,IL,Kendall County,,city-us,12191,41.663,-88.537,8192
34459,Plano,KY,Warren County,,city-us,1205,36.880,-86.418,1110
34456,Plano,SD,Hanson County,,city-us,87,43.806,-97.908,0
34452,Plano,IA,Appanoose County,,city-us,59,40.756,-93.047,2998
34454,Plano,OH,Fayette County,,city-us,0,39.491,-83.287,246
34455,Plano,MO,Greene County,,city-us,0,37.193,-93.551,389
34458,Plano,IN,Morgan County,,city-us,0,39.499,-86.604,260