id,name,state,county,country,level,population,latitude,longitude,wiki
6068,Bunker Hill,WV,Berkeley County,,city-us,5319,39.333,-78.054,3984
6069,Bunker Hill,OR,Coos County,,city-us,2438,43.356,-124.205,1892
6079,Bunker Hill,MI,Ingham County,,city-us,1966,42.462,-84.321,2462
6074,Bunker Hill,IN,Miami County,,city-us,821,40.660,-86.103,3395
6077,Bunker Hill,KS,Russell County,,city-us,106,38.876,-98.704,7146
6070,Bunker Hill,WA,Cowlitz County,,city-us,0,46.202,-123.139,525