id,name,state,county,country,level,population,latitude,longitude,wiki
6123,Burke,VA,Fairfax County,,city-us,44191,38.793,-77.272,11371
6122,Burke,WI,Dane County,,city-us,3265,43.136,-89.276,2349
6120,Burke,VT,Caledonia County,,city-us,1642,44.611,-71.931,3889
6119,Burke,TX,Angelina County,,city-us,692,31.232,-94.769,3907
6126,Burke,SD,Gregory County,,city-us,579,43.182,-99.292,3551
6124,Burke,NY,Franklin County,,city-us,159,44.905,-74.169,3911