id,name,state,county,country,level,population,latitude,longitude,wiki
35151,Potter,PA,Centre County,,city-us,3586,40.801,-77.663,175
35154,Potter,NY,Yates County,,city-us,1830,42.714,-77.181,12244
35149,Potter,PA,Beaver County,,city-us,516,40.646,-80.355,175
35152,Potter,NE,Cheyenne County,,city-us,345,41.217,-103.316,3467
35150,Potter,WI,Calumet County,,city-us,238,44.121,-88.099,3763
35148,Potter,ND,Barnes County,,city-us,43,46.938,-98.259,130
35147,Potter,KS,Atchison County,,city-us,0,39.426,-95.142,434
35153,Potter,AR,Polk County,,city-us,0,34.554,-94.339,104