id,name,state,county,country,level,population,latitude,longitude,wiki
35252,Prairie Creek,AR,Benton County,,city-us,2274,36.342,-94.062,2632
35253,Prairie Creek,IL,Logan County,,city-us,394,40.270,-89.545,291
35254,Prairie Creek,NE,Merrick County,,city-us,327,41.107,-98.212,278
35255,Prairie Creek,NE,Nance County,,city-us,117,41.359,-97.763,278
35256,Prairie Creek,IN,Vigo County,,city-us,0,39.275,-87.497,1051