id,name,state,county,country,level,population,latitude,longitude,wiki
3299,Burton,MI,Genesee County,,city-us,29500,42.999,-83.616,6885
3298,Burton,SC,Beaufort County,,city-us,7818,32.436,-80.724,2510
3302,Burton,TX,Washington County,,city-us,283,30.182,-96.596,2925
3297,Burton,IL,Adams County,,city-us,103,39.905,-91.249,769
3300,Burton,NE,Keya Paha County,,city-us,11,42.912,-99.592,2625
3301,Burton,WA,King County,,city-us,0,47.389,-122.459,534
3303,Burton,WV,Wetzel County,,city-us,0,39.664,-80.431,3892