id,name,state,county,country,level,population,latitude,longitude,wiki
18046,Oswego,IL,Kendall County,,city-us,35316,41.683,-88.339,7708
18047,Oswego,NY,Oswego County,,city-us,7501,43.402,-76.555,16593
3256,Oswego,KS,Cherokee County,,city-us,1658,37.168,-95.112,16760
18048,Oswego,SC,Sumter County,,city-us,348,34.007,-80.288,1771
3311,Oswego,KS,Labette County,,city-us,334,37.143,-95.137,16760
18049,Oswego,MT,Valley County,,city-us,0,48.059,-105.881,687