id,name,state,county,country,level,population,latitude,longitude,wiki
35578,Purdy,WA,Pierce County,,city-us,1544,47.389,-122.625,3258
35573,Purdy,MO,Barry County,,city-us,1033,36.817,-93.921,3751
35572,Purdy,KY,Adair County,,city-us,0,37.151,-85.185,116
35574,Purdy,WV,Calhoun County,,city-us,0,38.944,-81.135,87
35575,Purdy,OK,Garvin County,,city-us,0,34.716,-97.588,111
35576,Purdy,VA,Greensville County,,city-us,0,36.822,-77.588,327
35577,Purdy,TN,McNairy County,,city-us,0,35.227,-88.531,2269
35579,Purdy,WI,Vernon County,,city-us,0,43.517,-91.048,112