id,name,state,county,country,level,population,latitude,longitude,wiki
35709,Raccoon,PA,Beaver County,,city-us,2759,40.599,-80.377,2349
35710,Raccoon,OH,Gallia County,,city-us,2083,38.901,-82.396,1584
35711,Raccoon,IL,Marion County,,city-us,1542,38.519,-88.977,924
35712,Raccoon,KY,Pike County,,city-us,0,37.477,-82.428,403
35713,Raccoon,IN,Putnam County,,city-us,0,39.856,-86.896,350
35714,Raccoon,PA,Washington County,,city-us,0,40.605,-80.369,128