id,name,state,county,country,level,population,latitude,longitude,wiki
3404,Cadiz,,,Philippines,city-international,158544,10.950,123.300,0
3405,Cadiz,,,Spain,city-international,114244,36.535,-6.298,39829
3403,Cadiz,KY,Trigg County,,city-us,2691,36.865,-87.835,3648
3400,Cadiz,WI,Green County,,city-us,755,42.552,-89.775,2720
3401,Cadiz,IN,Henry County,,city-us,160,39.951,-85.487,3044
3399,Cadiz,TX,Bee County,,city-us,0,28.427,-97.939,1769
3402,Cadiz,CA,San Bernardino County,,city-us,0,34.520,-115.513,1785