id,name,state,county,country,level,population,latitude,longitude,wiki
36622,Richville,MI,Tuscola County,,city-us,3068,43.429,-83.664,2600
36620,Richville,NY,St. Lawrence County,,city-us,264,44.417,-75.392,2132
36619,Richville,MN,Otter Tail County,,city-us,76,46.507,-95.626,3041
36617,Richville,MO,Douglas County,,city-us,0,36.840,-92.239,565
36618,Richville,MO,Holt County,,city-us,0,39.990,-95.048,281
36621,Richville,OH,Stark County,,city-us,0,40.751,-81.478,670