id,name,state,county,country,level,population,latitude,longitude,wiki
36831,Rising Sun,MD,Cecil County,,city-us,2744,39.698,-76.063,6254
36834,Rising Sun,IN,Ohio County,,city-us,2246,38.950,-84.854,4388
36832,Rising Sun,WI,Crawford County,,city-us,0,43.418,-90.958,695
36833,Rising Sun,MS,Leflore County,,city-us,0,33.459,-90.209,574
36835,Rising Sun,IL,Pope County,,city-us,0,37.407,-88.578,126
36836,Rising Sun,IL,White County,,city-us,0,38.000,-88.028,148