id,name,state,county,country,level,population,latitude,longitude,wiki
37137,Rock Hill,SC,York County,,city-us,74102,34.925,-81.025,28551
37135,Rock Hill,MO,St. Louis County,,city-us,4718,38.608,-90.378,27618
37136,Rock Hill,NY,Sullivan County,,city-us,2016,41.626,-74.598,2910
37133,Rock Hill,LA,Grant Parish,,city-us,269,31.447,-92.571,460
37131,Rock Hill,ND,Burleigh County,,city-us,16,47.113,-100.432,0
37132,Rock Hill,GA,Early County,,city-us,0,31.328,-85.032,160
37134,Rock Hill,IN,Spencer County,,city-us,0,37.945,-87.040,210