id,name,state,county,country,level,population,latitude,longitude,wiki
3507,Cambria,NY,Niagara County,,city-us,5717,43.177,-78.820,6037
3508,Cambria,CA,San Luis Obispo County,,city-us,5487,35.564,-121.081,17813
3510,Cambria,IL,Williamson County,,city-us,1759,37.781,-89.119,3229
3504,Cambria,WI,Columbia County,,city-us,775,43.542,-89.107,9985
3505,Cambria,MI,Hillsdale County,,city-us,258,41.822,-84.665,1392
3506,Cambria,VA,Montgomery County,,city-us,0,37.143,-80.396,561
3509,Cambria,IA,Wayne County,,city-us,0,40.838,-93.403,1082