id,name,state,county,country,level,population,latitude,longitude,wiki
3503,Cairo,,,Egypt,city-international,19787000,30.044,31.236,66512
3497,Cairo,GA,Grady County,,city-us,10015,30.877,-84.201,6087
3498,Cairo,NY,Greene County,,city-us,6753,42.299,-74.016,3956
3495,Cairo,IL,Alexander County,,city-us,1659,37.005,-89.176,31977
3499,Cairo,NE,Hall County,,city-us,813,41.001,-98.608,3378
3496,Cairo,OH,Allen County,,city-us,498,40.832,-84.086,4351
3501,Cairo,MO,Randolph County,,city-us,201,39.512,-92.440,3262
3502,Cairo,WV,Ritchie County,,city-us,172,39.209,-81.157,3265
3500,Cairo,OR,Malheur County,,city-us,0,43.996,-117.009,634