id,name,state,county,country,level,population,latitude,longitude,wiki
3535,Calhoun,GA,Gordon County,,city-us,17318,34.503,-84.951,8996
3539,Calhoun,KY,McLean County,,city-us,700,37.539,-87.258,4050
3540,Calhoun,TN,McMinn County,,city-us,542,35.296,-84.748,5139
3536,Calhoun,MO,Henry County,,city-us,402,38.467,-93.626,3256
3541,Calhoun,LA,Ouachita Parish,,city-us,367,32.513,-92.358,1833
3542,Calhoun,IL,Richland County,,city-us,161,38.650,-88.044,2822
3534,Calhoun,KS,Cheyenne County,,city-us,33,39.928,-101.678,549
3537,Calhoun,OK,Le Flore County,,city-us,0,35.104,-94.746,2645
3538,Calhoun,AL,Lowndes County,,city-us,0,32.050,-86.545,511