id,name,state,county,country,level,population,latitude,longitude,wiki
38744,Sardis,MS,Panola County,,city-us,1703,34.437,-89.916,2923
38738,Sardis,GA,Burke County,,city-us,983,32.975,-81.758,3297
38745,Sardis,AR,Saline County,,city-us,692,34.532,-92.408,717
38743,Sardis,OH,Monroe County,,city-us,573,39.623,-80.913,1069
38741,Sardis,TN,Henderson County,,city-us,416,35.442,-88.294,2443
38742,Sardis,KY,Mason County,,city-us,62,38.534,-83.952,1803
38739,Sardis,AL,Dallas County,,city-us,0,32.288,-86.986,390
38740,Sardis,WV,Harrison County,,city-us,0,39.337,-80.418,423