id,name,state,county,country,level,population,latitude,longitude,wiki
38797,Savoy,IL,Champaign County,,city-us,8823,40.055,-88.252,3037
38798,Savoy,TX,Fannin County,,city-us,732,33.599,-96.367,2439
38796,Savoy,MA,Berkshire County,,city-us,645,42.594,-73.022,6929
38799,Savoy,MS,Lauderdale County,,city-us,0,32.271,-88.770,519
38800,Savoy,AR,Washington County,,city-us,0,36.106,-94.333,1018