id,name,state,county,country,level,population,latitude,longitude,wiki
38850,Schley,WI,Lincoln County,,city-us,971,45.249,-89.508,2436
38848,Schley,MN,Cass County,,city-us,0,47.369,-94.416,678
38849,Schley,VA,Gloucester County,,city-us,0,37.390,-76.455,205
38851,Schley,NC,Orange County,,city-us,0,36.153,-79.061,372
38852,Schley,IN,Spencer County,,city-us,0,38.046,-86.872,378