id,name,state,county,country,level,population,latitude,longitude,wiki
3568,Calumet,WI,Fond du Lac County,,city-us,1416,43.911,-88.291,2675
3573,Calumet,PA,Westmoreland County,,city-us,1209,40.211,-79.485,5657
3569,Calumet,MI,Houghton County,,city-us,694,47.247,-88.454,14130
3567,Calumet,OK,Canadian County,,city-us,458,35.601,-98.119,3206
3570,Calumet,MN,Itasca County,,city-us,326,47.322,-93.277,3261
3572,Calumet,IA,O'Brien County,,city-us,146,42.946,-95.550,3099
3571,Calumet,OH,Jefferson County,,city-us,0,40.482,-80.607,1352