id,name,state,county,country,level,population,latitude,longitude,wiki
39499,Shenandoah,LA,East Baton Rouge Parish,,city-us,20068,30.401,-91.001,3627
39500,Shenandoah,IA,Fremont County,,city-us,4861,40.758,-95.372,5981
39503,Shenandoah,PA,Schuylkill County,,city-us,4247,40.820,-76.201,9138
39501,Shenandoah,TX,Montgomery County,,city-us,3593,30.180,-95.456,3557
39502,Shenandoah,VA,Page County,,city-us,2499,38.485,-78.625,10928