id,name,state,county,country,level,population,latitude,longitude,wiki
39832,Silver City,NM,Grant County,,city-us,9578,32.770,-108.280,21965
39833,Silver City,NC,Hoke County,,city-us,771,34.996,-79.226,2336
39836,Silver City,IA,Mills County,,city-us,245,41.113,-95.637,4045
39834,Silver City,MS,Humphreys County,,city-us,217,33.097,-90.497,2477
39835,Silver City,NV,Lyon County,,city-us,155,39.264,-119.641,1258
39831,Silver City,GA,Dawson County,,city-us,0,34.334,-84.116,292
39837,Silver City,SD,Pennington County,,city-us,0,44.084,-103.564,1178
39838,Silver City,CA,Tulare County,,city-us,0,36.466,-118.646,1896