id,name,state,county,country,level,population,latitude,longitude,wiki
40866,Springhill,LA,Webster Parish,,city-us,4702,33.006,-93.467,11592
40861,Springhill,PA,Fayette County,,city-us,2687,39.755,-79.842,188
40863,Springhill,PA,Greene County,,city-us,315,39.764,-80.467,188
40862,Springhill,MT,Gallatin County,,city-us,231,45.839,-111.035,220
40865,Springhill,FL,Santa Rosa County,,city-us,63,30.767,-86.942,0
40859,Springhill,AL,Clay County,,city-us,0,33.310,-85.922,83
40860,Springhill,AR,Faulkner County,,city-us,0,35.189,-92.392,560
40864,Springhill,MO,Livingston County,,city-us,0,39.874,-93.644,465