id,name,state,county,country,level,population,latitude,longitude,wiki
13919,Little River,SC,Horry County,,city-us,9929,33.873,-78.614,3566
13922,Little River,KS,Reno County,,city-us,1823,38.122,-97.748,0
13921,Little River,WI,Oconto County,,city-us,1108,44.967,-87.895,1921
3740,Little River,KS,Rice County,,city-us,474,38.398,-98.012,5023
13920,Little River,CA,Mendocino County,,city-us,186,39.271,-123.788,5498