id,name,state,county,country,level,population,latitude,longitude,wiki
12272,Johnson City,TN,Carter County,,city-us,71278,36.342,-82.381,18603
12271,Johnson City,NY,Broome County,,city-us,15203,42.116,-75.959,5765
12270,Johnson City,TX,Blanco County,,city-us,1717,30.277,-98.412,3802
3755,Johnson City,KS,Stanton County,,city-us,1440,37.571,-101.751,4306
12273,Johnson City,OR,Clackamas County,,city-us,539,45.405,-122.579,4688