id,name,state,county,country,level,population,latitude,longitude,wiki
41479,Stewartsville,MO,DeKalb County,,city-us,750,39.751,-94.497,3744
41481,Stewartsville,NJ,Warren County,,city-us,503,40.694,-75.111,1121
41477,Stewartsville,VA,Bedford County,,city-us,493,37.271,-79.793,1931
41478,Stewartsville,OH,Belmont County,,city-us,0,40.012,-80.858,374
41480,Stewartsville,IN,Posey County,,city-us,0,38.185,-87.833,458