id,name,state,county,country,level,population,latitude,longitude,wiki
41701,Stratton,CO,Kit Carson County,,city-us,641,39.303,-102.605,2123
41698,Stratton,IL,Edgar County,,city-us,451,39.615,-87.585,896
41703,Stratton,VT,Windham County,,city-us,449,43.077,-72.919,2819
41699,Stratton,NE,Hitchcock County,,city-us,309,40.148,-101.227,3330
41700,Stratton,OH,Jefferson County,,city-us,264,40.522,-80.626,3828
41697,Stratton,VA,Dickenson County,,city-us,0,37.088,-82.361,276
41702,Stratton,MS,Newton County,,city-us,0,32.500,-89.134,467