id,name,state,county,country,level,population,latitude,longitude,wiki
3804,Carlisle,PA,Cumberland County,,city-us,20144,40.201,-77.189,18860
3807,Carlisle,OH,Montgomery County,,city-us,5569,39.579,-84.321,4590
3806,Carlisle,MA,Middlesex County,,city-us,5181,42.537,-71.361,5293
3809,Carlisle,IA,Polk County,,city-us,4201,41.514,-93.497,3995
3808,Carlisle,KY,Nicholas County,,city-us,2121,38.312,-84.027,2375
3805,Carlisle,AR,Lonoke County,,city-us,2004,34.783,-91.747,3496
3810,Carlisle,NY,Schoharie County,,city-us,1780,42.739,-74.439,3296
3811,Carlisle,OK,Sequoyah County,,city-us,671,35.501,-95.026,2025
3812,Carlisle,IN,Sullivan County,,city-us,620,38.968,-87.406,3440
3813,Carlisle,SC,Union County,,city-us,318,34.593,-81.463,2059
3803,Carlisle,MS,Claiborne County,,city-us,0,32.003,-90.784,871
3826,Carlyle,KS,Allen County,,city-us,0,37.994,-95.391,2395