id,name,state,county,country,level,population,latitude,longitude,wiki
42251,Swanton,VT,Franklin County,,city-us,6791,44.910,-73.124,120
42252,Swanton,OH,Fulton County / Lucas County,,city-us,3870,41.585,-83.885,6621
42254,Swanton,OH,Lucas County,,city-us,2831,41.568,-83.848,1504
42255,Swanton,NE,Saline County,,city-us,73,40.379,-97.080,3929
42253,Swanton,MD,Garrett County,,city-us,0,39.459,-79.231,408
42256,Swanton,CA,Santa Cruz County,,city-us,0,37.064,-122.226,1778