id,name,state,county,country,level,population,latitude,longitude,wiki
42295,Sweetwater,FL,Miami-Dade County,,city-us,18865,25.763,-80.373,7740
42298,Sweetwater,TX,Nolan County,,city-us,10513,32.471,-100.406,10961
42294,Sweetwater,TN,McMinn County,,city-us,6335,35.603,-84.471,5365
42290,Sweetwater,NJ,Atlantic County,,city-us,805,39.621,-74.638,201
42293,Sweetwater,MI,Lake County,,city-us,274,43.936,-85.985,3068
42297,Sweetwater,ID,Nez Perce County,,city-us,269,46.372,-116.793,305
42291,Sweetwater,OK,Beckham County,,city-us,107,35.415,-99.920,2249
42292,Sweetwater,NE,Buffalo County,,city-us,0,41.044,-99.007,1180
42296,Sweetwater,MO,Newton County,,city-us,0,36.827,-94.266,448