id,name,state,county,country,level,population,latitude,longitude,wiki
42397,Table Rock,NE,Pawnee County,,city-us,238,40.178,-96.097,3790
42395,Table Rock,PA,Adams County,,city-us,78,39.913,-77.221,238
42396,Table Rock,OR,Jackson County,,city-us,0,42.451,-122.913,1151
42398,Table Rock,MO,Phelps County,,city-us,0,37.964,-91.997,276
42399,Table Rock,WV,Raleigh County,,city-us,0,37.781,-81.047,127
42400,Table Rock,WY,Sweetwater County,,city-us,0,41.614,-108.388,2753