id,name,state,county,country,level,population,latitude,longitude,wiki
42456,Talmage,CA,Mendocino County,,city-us,989,39.133,-123.168,4663
42458,Talmage,NE,Otoe County,,city-us,201,40.531,-96.022,3620
42453,Talmage,KS,Dickinson County,,city-us,114,39.025,-97.261,1108
42454,Talmage,UT,Duchesne County,,city-us,0,40.340,-110.427,700
42455,Talmage,PA,Lancaster County,,city-us,0,40.116,-76.213,159
42457,Talmage,KY,Mercer County,,city-us,0,37.851,-84.869,165
42459,Talmage,IA,Union County,,city-us,0,41.027,-94.112,241
42460,Talmage,MO,Wright County,,city-us,0,37.258,-92.413,471