id,name,state,county,country,level,population,latitude,longitude,wiki
43693,Ulysses,KS,Grant County,,city-us,5770,37.581,-101.355,11354
43696,Ulysses,NY,Tompkins County,,city-us,4882,42.513,-76.617,5873
43695,Ulysses,PA,Potter County,,city-us,641,41.832,-77.780,3180
43692,Ulysses,NE,Butler County,,city-us,318,41.093,-97.188,295
43694,Ulysses,KY,Lawrence County,,city-us,0,37.946,-82.674,93