id,name,state,county,country,level,population,latitude,longitude,wiki
44081,Valentine,NE,Cherry County,,city-us,2613,42.873,-100.551,8039
44082,Valentine,TX,Jeff Davis County,,city-us,108,30.587,-104.497,4183
44085,Valentine,AZ,Mohave County,,city-us,39,35.388,-113.658,956
44083,Valentine,IN,LaGrange County,,city-us,0,41.590,-85.387,226
44084,Valentine,NJ,Middlesex County,,city-us,0,40.565,-74.372,1602