id,name,state,county,country,level,population,latitude,longitude,wiki
44235,Vance,AL,Bibb County,,city-us,2145,33.174,-87.227,3694
44241,Vance,IL,Vermilion County,,city-us,1000,40.045,-87.880,848
44238,Vance,SC,Orangeburg County,,city-us,125,33.434,-80.423,2051
44236,Vance,WV,Hampshire County,,city-us,0,39.378,-78.739,291
44237,Vance,NE,Morrill County,,city-us,0,41.777,-103.113,149
44239,Vance,VA,Pittsylvania County,,city-us,0,36.666,-79.558,93
44240,Vance,MS,Quitman County,,city-us,0,34.073,-90.351,590