id,name,state,county,country,level,population,latitude,longitude,wiki
45068,Waltham,MA,Middlesex County,,city-us,64015,42.376,-71.236,29121
45065,Waltham,VT,Addison County,,city-us,445,44.124,-73.229,2396
45069,Waltham,MN,Mower County,,city-us,363,43.805,-92.870,3176
45066,Waltham,ME,Hancock County,,city-us,338,44.664,-68.312,2906
45067,Waltham,IL,LaSalle County,,city-us,0,41.433,-89.010,243