id,name,state,county,country,level,population,latitude,longitude,wiki
7954,Charlotte,NC,Mecklenburg County,,city-us,879709,35.227,-80.843,59810
7951,Charlotte,MI,Eaton County,,city-us,9209,42.564,-84.836,10551
7948,Charlotte,VT,Chittenden County,,city-us,3893,44.306,-73.236,4606
7950,Charlotte,TN,Dickson County,,city-us,1629,36.177,-87.340,4209
7945,Charlotte,TX,Atascosa County,,city-us,1554,28.862,-98.706,2966
7947,Charlotte,NY,Chautauqua County,,city-us,1540,42.305,-79.237,4532
7949,Charlotte,IA,Clinton County,,city-us,393,41.960,-90.465,3331
7955,Charlotte,ME,Washington County,,city-us,343,45.011,-67.273,2952