id,name,state,county,country,level,population,latitude,longitude,wiki
13431,Lee,NY,Oneida County,,city-us,6089,43.325,-75.519,4458
13428,Lee,MA,Berkshire County,,city-us,5755,42.303,-73.234,10292
13433,Lee,NH,Strafford County,,city-us,4589,43.119,-71.007,4818
4082,Lee,MI,Allegan County,,city-us,4015,42.462,-86.076,2874
13432,Lee,ME,Penobscot County,,city-us,909,45.376,-68.298,3323
13478,Leigh,NE,Colfax County,,city-us,431,41.705,-97.238,3230
13430,Lee,FL,Madison County,,city-us,375,30.420,-83.300,2505
13429,Lee,IL,DeKalb County,,city-us,312,41.795,-88.942,2917
13434,Lee,IN,White County,,city-us,0,40.896,-86.968,2190