id,name,state,county,country,level,population,latitude,longitude,wiki
4137,Cedarville,AR,Crawford County,,city-us,1437,35.570,-94.367,2673
4138,Cedarville,NJ,Cumberland County,,city-us,765,39.333,-75.200,3238
4140,Cedarville,CA,Modoc County,,city-us,711,41.529,-120.173,7312
4141,Cedarville,MD,Prince George's County,,city-us,653,38.663,-76.802,827
4142,Cedarville,IL,Stephenson County,,city-us,652,42.376,-89.633,1938
4139,Cedarville,WI,Marinette County,,city-us,0,45.454,-87.983,1574