id,name,state,county,country,level,population,latitude,longitude,wiki
46229,Westland,MI,Wayne County,,city-us,84515,42.324,-83.400,9387
46224,Westland,OH,Guernsey County,,city-us,2180,39.963,-81.678,1271
46228,Westland,PA,Washington County,,city-us,38,40.277,-80.273,336
46225,Westland,IN,Hancock County,,city-us,0,39.750,-85.688,818
46226,Westland,VA,Lancaster County,,city-us,0,37.617,-76.293,204
46227,Westland,IN,Putnam County,,city-us,0,39.583,-86.846,155