id,name,state,county,country,level,population,latitude,longitude,wiki
46587,White Plains,NY,Westchester County,,city-us,59526,41.034,-73.763,30376
46586,White Plains,NC,Surry County,,city-us,1043,36.446,-80.633,2077
46585,White Plains,KY,Hopkins County,,city-us,828,37.184,-87.384,2588
46581,White Plains,AL,Calhoun County,,city-us,646,33.747,-85.689,553
46584,White Plains,GA,Greene County,,city-us,252,33.472,-83.035,2258
46580,White Plains,VA,Brunswick County,,city-us,0,36.644,-77.958,182
46582,White Plains,AL,Chambers County,,city-us,0,32.992,-85.399,163
46583,White Plains,MD,Charles County,,city-us,0,38.590,-76.941,865