id,name,state,county,country,level,population,latitude,longitude,wiki
4718,Clarksburg,MD,Montgomery County,,city-us,27354,39.239,-77.279,6971
4714,Clarksburg,WV,Harrison County,,city-us,15784,39.281,-80.345,28522
4711,Clarksburg,MA,Berkshire County,,city-us,1649,42.723,-73.106,6346
4719,Clarksburg,OH,Ross County,,city-us,405,39.505,-83.153,3127
4712,Clarksburg,TN,Carroll County,,city-us,380,35.872,-88.393,2180
4720,Clarksburg,CA,Yolo County,,city-us,379,38.420,-121.527,6489
4716,Clarksburg,MO,Moniteau County,,city-us,249,38.659,-92.664,3227
4713,Clarksburg,IN,Decatur County,,city-us,49,39.433,-85.348,717
4715,Clarksburg,PA,Indiana County,,city-us,0,40.534,-79.382,1145
4717,Clarksburg,NJ,Monmouth County,,city-us,0,40.189,-74.441,1748