id,name,state,county,country,level,population,latitude,longitude,wiki
4968,Coleman,TX,Coleman County,,city-us,3917,31.827,-99.426,3234
4971,Coleman,MI,Midland County,,city-us,1262,43.757,-84.586,3393
4970,Coleman,WI,Marinette County,,city-us,728,45.065,-88.034,3121
4973,Coleman,FL,Sumter County,,city-us,685,28.800,-82.070,3460
5028,Colman,SD,Moody County,,city-us,629,43.982,-96.814,3251
4969,Coleman,OK,Johnston County,,city-us,290,34.271,-96.419,835
4972,Coleman,GA,Randolph County,,city-us,0,31.673,-84.889,2145