id,name,state,county,country,level,population,latitude,longitude,wiki
11544,Houlton,ME,Aroostook County,,city-us,6088,46.140,-67.842,11505
11392,Holton,KS,Jackson County,,city-us,3329,39.465,-95.736,6350
4765,Holton,MI,Muskegon County,,city-us,2514,43.421,-86.104,4822
11393,Holton,WI,Marathon County,,city-us,855,44.996,-90.248,1831
11394,Holton,IN,Ripley County,,city-us,422,39.075,-85.387,3261