id,name,state,county,country,level,population,latitude,longitude,wiki
4829,Clearfield,UT,Davis County,,city-us,32238,41.111,-112.026,16760
4828,Clearfield,PA,Clearfield County,,city-us,5915,41.027,-78.439,9994
4831,Clearfield,WI,Juneau County,,city-us,710,43.938,-90.132,1895
4832,Clearfield,IA,Ringgold County,,city-us,279,40.801,-94.483,3286
4830,Clearfield,ND,Griggs County,,city-us,44,47.457,-98.286,658