id,name,state,county,country,level,population,latitude,longitude,wiki
5224,Colton,CA,San Bernardino County,,city-us,54285,34.074,-117.314,9280
5223,Colton,SD,Minnehaha County,,city-us,725,43.786,-96.928,4406
5044,Coalton,OH,Jackson County,,city-us,441,39.114,-82.611,3289
5226,Colton,WA,Whitman County,,city-us,397,46.568,-117.129,4101
5225,Colton,NY,St. Lawrence County,,city-us,314,44.553,-74.940,5241
5045,Coalton,IL,Montgomery County,,city-us,312,39.283,-89.301,2317
5043,Coalton,KY,Boyd County,,city-us,0,38.370,-82.769,1322
5046,Coalton,OK,Okmulgee County,,city-us,0,35.498,-95.939,768
5222,Colton,OR,Clackamas County,,city-us,0,45.204,-122.448,1286