id,name,state,county,country,level,population,latitude,longitude,wiki
5124,Wales,MI,St. Clair County,,city-us,3248,42.953,-82.686,3196
25010,Wales,NY,Erie County,,city-us,3009,42.739,-78.518,4301
25014,Wales,WI,Waukesha County,,city-us,2867,43.004,-88.377,3882
25011,Wales,MA,Hampden County,,city-us,1816,42.061,-72.234,3181
25008,Wales,ME,Androscoggin County,,city-us,1629,44.151,-70.062,3544
25013,Wales,UT,Sanpete County,,city-us,349,39.487,-111.635,3005
25012,Wales,AK,Nome ,,city-us,160,65.609,-168.088,4072
25009,Wales,ND,Cavalier County,,city-us,8,48.896,-98.603,2840