id,name,state,county,country,level,population,latitude,longitude,wiki
10418,Cromwell,CT,Middlesex County,,city-us,14302,41.617,-72.662,5375
10419,Cromwell,IN,Noble County,,city-us,481,41.401,-85.616,3303
10422,Cromwell,OK,Seminole County,,city-us,246,35.340,-96.457,4155
10414,Cromwell,MN,Carlton County,,city-us,232,46.681,-92.884,3448
10423,Cromwell,IA,Union County,,city-us,103,41.039,-94.462,2680
10420,Cromwell,KY,Ohio County,,city-us,0,37.340,-86.788,949