id,name,state,county,country,level,population,latitude,longitude,wiki
10567,Crystal,MN,Hennepin County,,city-us,22711,45.033,-93.360,5075
10570,Crystal,MI,Montcalm County,,city-us,888,43.262,-84.915,435
10568,Crystal,NM,McKinley County,,city-us,305,36.030,-108.989,5245
10575,Crystal,WI,Washburn County,,city-us,280,45.864,-91.732,1797
10564,Crystal,ME,Aroostook County,,city-us,247,45.989,-68.384,2984
10565,Crystal,NV,Clark County,,city-us,0,36.501,-114.763,571
10571,Crystal,NV,Nye County,,city-us,0,36.492,-116.168,610