id,name,state,county,country,level,population,latitude,longitude,wiki
5529,Cortland,NY,Cortland County,,city-us,17220,42.601,-76.180,10962
5533,Cortland,OH,Trumbull County,,city-us,7088,41.330,-80.725,4062
5530,Cortland,IL,DeKalb County,,city-us,4391,41.920,-88.689,2582
5531,Cortland,NE,Gage County,,city-us,505,40.506,-96.706,3816
5532,Cortland,IN,Jackson County,,city-us,0,38.973,-85.964,523
5534,Cortland,WV,Tucker County,,city-us,0,39.067,-79.427,640