id,name,state,county,country,level,population,latitude,longitude,wiki
5603,Courtland,VA,Southampton County,,city-us,1295,36.716,-77.068,3171
5599,Courtland,MN,Nicollet County,,city-us,743,44.268,-94.340,3447
5602,Courtland,CA,Sacramento County,,city-us,669,38.331,-121.569,2600
5598,Courtland,AL,Lawrence County,,city-us,584,34.669,-87.309,5570
5597,Courtland,WI,Columbia County,,city-us,494,43.500,-89.060,1872
5600,Courtland,MS,Panola County,,city-us,472,34.241,-89.943,2328
5601,Courtland,KS,Republic County,,city-us,379,39.783,-97.876,127