id,name,state,county,country,level,population,latitude,longitude,wiki
5844,Crystal Beach,NY,Ontario County,,city-us,804,42.814,-77.264,1439
5843,Crystal Beach,AZ,Mohave County,,city-us,222,34.571,-114.393,1447
5841,Crystal Beach,MD,Cecil County,,city-us,0,39.442,-75.975,2595
5842,Crystal Beach,TX,Galveston County,,city-us,0,29.457,-94.640,6289
5845,Crystal Beach,FL,Pinellas County,,city-us,0,28.091,-82.780,909