id,name,state,county,country,level,population,latitude,longitude,wiki
6067,Deer Creek,WI,Taylor County,,city-us,681,45.084,-90.248,2662
6068,Deer Creek,IL,Tazewell County,,city-us,660,40.630,-89.332,3443
6066,Deer Creek,WI,Outagamie County,,city-us,629,44.546,-88.672,2011
6064,Deer Creek,AZ,Gila County,,city-us,145,34.069,-111.352,804
6065,Deer Creek,OK,Grant County,,city-us,76,36.806,-97.519,3343