id,name,state,county,country,level,population,latitude,longitude,wiki
11424,Delaware,,,United States,state,1018396,39.145,-75.419,54498
11412,Delaware,OH,Delaware County,,city-us,42814,40.299,-83.068,19745
11410,Delaware,NJ,Hunterdon County,,city-us,4565,40.440,-74.956,12476
11422,Delaware,NY,Sullivan County,,city-us,2215,41.755,-75.000,2982
11419,Delaware,OK,Nowata County,,city-us,263,36.779,-95.639,2646
11411,Delaware,IA,Delaware County,,city-us,140,42.475,-91.345,3085
11423,Delaware,NJ,Warren County,,city-us,91,40.893,-75.065,1770
11415,Delaware,MI,Keweenaw County,,city-us,0,47.421,-88.096,1911