id,name,state,county,country,level,population,latitude,longitude,wiki
5930,Cushing,OK,Payne County,,city-us,8184,35.985,-96.767,8083
5927,Cushing,ME,Knox County,,city-us,1519,44.014,-69.259,4906
5929,Cushing,TX,Nacogdoches County,,city-us,558,31.815,-94.840,3066
5932,Cushing,IA,Woodbury County,,city-us,227,42.465,-95.675,3433
5926,Cushing,NE,Howard County,,city-us,34,41.297,-98.368,3071
5928,Cushing,MN,Morrison County,,city-us,0,46.140,-94.577,1016
5931,Cushing,WI,Polk County,,city-us,0,45.571,-92.651,589