id,name,state,county,country,level,population,latitude,longitude,wiki
11591,Denver,CO,Denver County,,city-us,711463,39.739,-104.985,76874
11595,Denver,PA,Lancaster County,,city-us,3770,40.233,-76.137,5511
11596,Denver,NC,Lincoln County,,city-us,2827,35.531,-81.030,20093
11589,Denver,IA,Bremer County,,city-us,1931,42.671,-92.337,3635
11597,Denver,IN,Miami County,,city-us,477,40.866,-86.077,3158
11604,Denver,MO,Worth County,,city-us,33,40.397,-94.323,3414
11590,Denver,AR,Carroll County,,city-us,0,36.392,-93.315,508
11592,Denver,IL,Hancock County,,city-us,0,40.291,-91.107,547