id,name,state,county,country,level,population,latitude,longitude,wiki
12002,Dorchester,WI,Clark County,,city-us,842,45.001,-90.331,3547
12008,Dorchester,NE,Saline County,,city-us,588,40.647,-97.113,3765
12004,Dorchester,NH,Grafton County,,city-us,340,43.748,-71.988,3237
12003,Dorchester,NJ,Cumberland County,,city-us,291,39.273,-74.977,676
12005,Dorchester,TX,Grayson County,,city-us,69,33.530,-96.689,2858
12001,Dorchester,IA,Allamakee County,,city-us,0,43.470,-91.511,1282