id,name,state,county,country,level,population,latitude,longitude,wiki
12201,Dresden,,,Germany,city-international,554907,51.050,13.740,60893
12199,Dresden,TN,Weakley County,,city-us,3025,36.291,-88.708,3729
12195,Dresden,ME,Lincoln County,,city-us,1761,44.086,-69.737,5658
12196,Dresden,OH,Muskingum County,,city-us,1654,40.121,-82.011,12977
12198,Dresden,NY,Washington County,,city-us,539,43.591,-73.469,4580
12200,Dresden,NY,Yates County,,city-us,296,42.684,-76.956,3876