id,name,state,county,country,level,population,latitude,longitude,wiki
6523,Draper,UT,Salt Lake County,,city-us,51749,40.495,-111.861,7161
6522,Draper,VA,Pulaski County,,city-us,578,37.006,-80.747,266
6524,Draper,WI,Sawyer County,,city-us,171,45.886,-90.831,1954
6521,Draper,SD,Jones County,,city-us,44,43.926,-100.540,2846
6520,Draper,TX,Denton County,,city-us,36,33.099,-97.230,3656