id,name,state,county,country,level,population,latitude,longitude,wiki
6418,Denver,CO,Denver County,,city-us,711463,39.739,-104.985,76874
6420,Denver,PA,Lancaster County,,city-us,3770,40.233,-76.137,5511
6421,Denver,NC,Lincoln County,,city-us,2827,35.531,-81.030,20093
6416,Denver,IA,Bremer County,,city-us,1931,42.671,-92.337,3635
6422,Denver,IN,Miami County,,city-us,477,40.866,-86.077,3158
6423,Denver,MO,Worth County,,city-us,33,40.397,-94.323,3414
6417,Denver,AR,Carroll County,,city-us,0,36.392,-93.315,508
6419,Denver,IL,Hancock County,,city-us,0,40.291,-91.107,547