id,name,state,county,country,level,population,latitude,longitude,wiki
12865,Echo,OR,Umatilla County,,city-us,637,45.742,-119.196,4500
12863,Echo,LA,Rapides Parish,,city-us,352,31.110,-92.242,588
12867,Echo,MN,Yellow Medicine County,,city-us,235,44.617,-95.418,2975
12864,Echo,UT,Summit County,,city-us,52,40.978,-111.443,2402
12861,Echo,AL,Dale County,,city-us,0,31.476,-85.466,685
12866,Echo,WV,Wayne County,,city-us,0,38.178,-82.482,92