id,name,state,county,country,level,population,latitude,longitude,wiki
6710,Doyle,CA,Lassen County,,city-us,959,40.028,-120.104,2977
6713,Doyle,TN,White County,,city-us,502,35.853,-85.512,2976
6709,Doyle,WI,Barron County,,city-us,496,45.509,-91.601,2162
6712,Doyle,KS,Marion County,,city-us,39,38.215,-96.878,711
6711,Doyle,LA,Livingston Parish,,city-us,0,30.504,-90.739,785