id,name,state,county,country,level,population,latitude,longitude,wiki
6922,Eddyville,KY,Lyon County,,city-us,2283,37.094,-88.080,8406
6923,Eddyville,IA,Mahaska County,,city-us,965,41.159,-92.630,12476
6924,Eddyville,IL,Pope County,,city-us,97,37.499,-88.588,2212
6920,Eddyville,NE,Dawson County,,city-us,83,41.011,-99.624,3053
6921,Eddyville,OR,Lincoln County,,city-us,0,44.634,-123.776,1060