id,name,state,county,country,level,population,latitude,longitude,wiki
13019,Edison,NJ,Middlesex County,,city-us,107626,40.504,-74.349,38637
13015,Edison,GA,Calhoun County,,city-us,1254,31.558,-84.738,2788
13021,Edison,OH,Morrow County,,city-us,420,40.558,-82.862,3361
13022,Edison,WA,Skagit County,,city-us,316,48.562,-122.444,3220
13016,Edison,NE,Furnas County,,city-us,112,40.277,-99.777,3041
13017,Edison,CA,Kern County,,city-us,0,35.347,-118.872,642