id,name,state,county,country,level,population,latitude,longitude,wiki
6828,Dunbar,WV,Kanawha County,,city-us,7330,38.361,-81.737,5206
6824,Dunbar,PA,Fayette County,,city-us,999,39.978,-79.614,2273
6825,Dunbar,SC,Georgetown County,,city-us,615,33.550,-79.355,508
6831,Dunbar,NE,Otoe County,,city-us,164,40.668,-96.030,5183
6829,Dunbar,WI,Marinette County,,city-us,95,45.651,-88.172,2907
6827,Dunbar,MN,Itasca County,,city-us,20,47.658,-94.225,816
6826,Dunbar,GA,Houston County,,city-us,0,32.659,-83.699,1248
6830,Dunbar,IA,Marshall County,,city-us,0,41.941,-92.781,752