id,name,state,county,country,level,population,latitude,longitude,wiki
7084,Elba,MI,Lapeer County,,city-us,5250,43.020,-83.411,2895
7080,Elba,AL,Coffee County,,city-us,3401,31.415,-86.068,6527
7081,Elba,WI,Dodge County,,city-us,1028,43.327,-88.951,1827
7082,Elba,NY,Genesee County,,city-us,597,43.077,-78.187,3606
7083,Elba,NE,Howard County,,city-us,198,41.286,-98.568,3382