id,name,state,county,country,level,population,latitude,longitude,wiki
7200,Elkton,MD,Cecil County,,city-us,15791,39.607,-75.833,11895
7206,Elkton,VA,Rockingham County,,city-us,2989,38.408,-78.624,8834
7207,Elkton,KY,Todd County,,city-us,2068,36.810,-87.154,3029
7204,Elkton,MI,Huron County,,city-us,795,43.819,-83.181,3121
7199,Elkton,SD,Brookings County,,city-us,753,44.236,-96.481,3795
7203,Elkton,TN,Giles County,,city-us,549,35.052,-86.889,2319
7202,Elkton,OR,Douglas County,,city-us,182,43.638,-123.568,2184
7205,Elkton,MN,Mower County,,city-us,133,43.663,-92.709,3357
7201,Elkton,OH,Columbiana County,,city-us,0,40.762,-80.699,766