id,name,state,county,country,level,population,latitude,longitude,wiki
7276,Elmira,NY,Chemung County,,city-us,6740,42.095,-76.779,25076
7277,Elmira,OR,Lane County,,city-us,546,44.066,-123.354,1488
7280,Elmira,CA,Solano County,,city-us,202,38.348,-121.910,3559
7279,Elmira,MO,Ray County,,city-us,37,39.507,-94.155,3220
7278,Elmira,MI,Otsego County,,city-us,0,45.064,-84.856,5402