id,name,state,county,country,level,population,latitude,longitude,wiki
7283,Elmo,TX,Kaufman County,,city-us,768,32.722,-96.165,1407
7282,Elmo,UT,Emery County,,city-us,401,39.390,-110.815,1955
7284,Elmo,MT,Lake County,,city-us,159,47.831,-114.350,2666
7285,Elmo,MO,Nodaway County,,city-us,106,40.518,-95.116,2959
7281,Elmo,KS,Dickinson County,,city-us,0,38.684,-97.230,2940