id,name,state,county,country,level,population,latitude,longitude,wiki
13549,Elmore,OH,Ottawa County,,city-us,1359,41.471,-83.291,7431
13545,Elmore,AL,Elmore County,,city-us,1335,32.539,-86.315,3995
13548,Elmore,VT,Lamoille County,,city-us,882,44.488,-72.514,2927
13546,Elmore,MN,Faribault County,,city-us,542,43.505,-94.088,3293
13550,Elmore,IL,Peoria County,,city-us,0,40.957,-89.977,863