id,name,state,county,country,level,population,latitude,longitude,wiki
13606,Elwood,NY,Suffolk County,,city-us,11722,40.845,-73.335,3089
13605,Elwood,IN,Madison County,,city-us,8387,40.274,-85.837,7037
13608,Elwood,IL,Will County,,city-us,2216,41.404,-88.112,4009
13599,Elwood,UT,Box Elder County,,city-us,1214,41.690,-112.141,2267
13601,Elwood,KS,Doniphan County,,city-us,1114,39.756,-94.872,3832
13597,Elwood,NJ,Atlantic County,,city-us,877,39.577,-74.717,2203
13603,Elwood,NE,Gosper County,,city-us,629,40.590,-99.861,3856