id,name,state,county,country,level,population,latitude,longitude,wiki
13697,Emory,TX,Rains County,,city-us,1291,32.875,-95.766,2722
13698,Emory,VA,Washington County,,city-us,1025,36.773,-81.836,592
13662,Emery,SD,Hanson County,,city-us,449,43.602,-97.623,4452
13657,Emery,UT,Emery County,,city-us,313,38.923,-111.249,14136
13663,Emery,WI,Price County,,city-us,312,45.729,-90.149,1943