id,name,state,county,country,level,population,latitude,longitude,wiki
13976,Etna,PA,Allegheny County,,city-us,3385,40.504,-79.949,3409
13986,Etna,ME,Penobscot County,,city-us,1221,44.764,-69.128,3581
13984,Etna,OH,Licking County,,city-us,812,39.957,-82.682,1220
13990,Etna,CA,Siskiyou County,,city-us,680,41.457,-122.895,4715
13978,Etna,NE,Custer County,,city-us,0,41.141,-100.157,558
13979,Etna,MN,Fillmore County,,city-us,0,43.602,-92.347,879
13981,Etna,NH,Grafton County,,city-us,0,43.693,-72.222,2181
13985,Etna,WY,Lincoln County,,city-us,0,43.033,-111.011,2094
13989,Etna,MO,Scotland County,,city-us,0,40.417,-91.979,974