id,name,state,county,country,level,population,latitude,longitude,wiki
7372,Eliot,ME,York County,,city-us,6959,43.147,-70.774,6901
7468,Elliott,MS,Grenada County,,city-us,904,33.683,-89.749,860
7469,Elliott,SC,Lee County,,city-us,370,34.107,-80.164,609
7470,Elliott,IA,Montgomery County,,city-us,340,41.149,-95.164,3158
7467,Elliott,IL,Ford County,,city-us,273,40.465,-88.272,1844
7471,Elliott,ND,Ransom County,,city-us,81,46.420,-97.857,2578
7466,Elliott,MD,Dorchester County,,city-us,10,38.310,-75.996,508
7472,Elliott,TX,Robertson County,,city-us,0,30.954,-96.568,608