id,name,state,county,country,level,population,latitude,longitude,wiki
48350,Falmouth,MA,Barnstable County,,city-us,33128,41.595,-70.599,17102
48351,Falmouth,ME,Cumberland County,,city-us,12575,43.740,-70.277,13749
14560,Falmouth,VA,Stafford County,,city-us,4536,38.324,-77.468,5707
14559,Falmouth,KY,Pendleton County,,city-us,2198,38.677,-84.330,5450
14557,Falmouth,PA,Lancaster County,,city-us,397,40.129,-76.714,1022
14558,Falmouth,MI,Missaukee County,,city-us,183,44.243,-85.087,1137
14556,Falmouth,IN,Fayette County,,city-us,0,39.701,-85.301,990
14561,Falmouth,FL,Suwannee County,,city-us,0,30.363,-83.131,687