id,name,state,county,country,level,population,latitude,longitude,wiki
14833,Ferndale,MI,Oakland County,,city-us,19109,42.461,-83.135,8740
14827,Ferndale,MD,Anne Arundel County,,city-us,17113,39.183,-76.640,2638
14836,Ferndale,WA,Whatcom County,,city-us,15476,48.846,-122.591,4613
14829,Ferndale,PA,Cambria County,,city-us,1532,40.289,-78.915,2541
14831,Ferndale,CA,Humboldt County,,city-us,1396,40.576,-124.264,33530
14832,Ferndale,FL,Lake County,,city-us,480,28.622,-81.703,2024
14835,Ferndale,OR,Umatilla County,,city-us,0,45.981,-118.397,575