id,name,state,county,country,level,population,latitude,longitude,wiki
11965,Irving,TX,Dallas County,,city-us,254198,32.814,-96.949,17961
7724,Erving,MA,Franklin County,,city-us,1667,42.613,-72.426,4061
11966,Irving,WI,Jackson County,,city-us,602,44.190,-90.901,1977
11964,Irving,KS,Brown County,,city-us,312,39.932,-95.392,491
7725,Erving,KS,Jewell County,,city-us,35,39.612,-98.449,839