id,name,state,county,country,level,population,latitude,longitude,wiki
15367,Forest Hills,MI,Kent County,,city-us,28573,42.948,-85.492,2499
15362,Forest Hills,PA,Allegheny County,,city-us,6333,40.420,-79.850,4001
15363,Forest Hills,TN,Davidson County,,city-us,4758,36.068,-86.844,14720
15365,Forest Hills,KY,Jefferson County,,city-us,438,38.215,-85.586,2228
15364,Forest Hills,NC,Jackson County,,city-us,310,35.297,-83.193,2945