id,name,state,county,country,level,population,latitude,longitude,wiki
8102,Falmouth,VA,Stafford County,,city-us,4536,38.324,-77.468,5707
8096,Falmouth,MA,Barnstable County,,city-us,3895,41.551,-70.615,17219
8101,Falmouth,KY,Pendleton County,,city-us,2198,38.677,-84.330,5450
8097,Falmouth,ME,Cumberland County,,city-us,1728,43.730,-70.242,13749
8099,Falmouth,PA,Lancaster County,,city-us,397,40.129,-76.714,1022
8100,Falmouth,MI,Missaukee County,,city-us,183,44.243,-85.087,1137
8098,Falmouth,IN,Fayette County,,city-us,0,39.701,-85.301,990
8103,Falmouth,FL,Suwannee County,,city-us,0,30.363,-83.131,687