id,name,state,county,country,level,population,latitude,longitude,wiki
8115,Fargo,KS,Seward County,,city-us,1259,37.127,-100.752,0
8113,Fargo,OK,Ellis County,,city-us,318,36.376,-99.624,3442
8112,Fargo,GA,Clinch County,,city-us,254,30.682,-82.567,2770
8114,Fargo,AR,Monroe County,,city-us,58,34.951,-91.180,2574
8111,Fargo,ND,Cass County,,city-us,2,46.944,-96.795,31179
10363,Fargo,WI,Vernon County,,city-us,0,43.456,-90.957,0