id,name,state,county,country,level,population,latitude,longitude,wiki
8133,Farmersville,CA,Tulare County,,city-us,10382,36.298,-119.207,14032
8129,Farmersville,TX,Collin County,,city-us,3808,33.163,-96.360,4095
8128,Farmersville,NY,Cattaraugus County,,city-us,1072,42.384,-78.406,4176
8132,Farmersville,OH,Montgomery County,,city-us,968,39.679,-84.429,3288
8130,Farmersville,PA,Lancaster County,,city-us,853,40.128,-76.165,1103
8131,Farmersville,IL,Montgomery County,,city-us,679,39.443,-89.652,2901