id,name,state,county,country,level,population,latitude,longitude,wiki
25179,Warrenton,VA,Fauquier County,,city-us,10109,38.713,-77.795,10472
25185,Warrenton,MO,Warren County,,city-us,8892,38.811,-91.142,7555
8501,Warrenton,OR,Clatsop County,,city-us,6393,46.165,-123.924,7609
25183,Warrenton,GA,Warren County,,city-us,1737,33.407,-82.662,2907
25186,Warrenton,NC,Warren County,,city-us,856,36.398,-78.155,4980
25180,Warrenton,TX,Fayette County,,city-us,0,30.017,-96.732,2395
25181,Warrenton,IN,Gibson County,,city-us,0,38.173,-87.533,513
25182,Warrenton,AL,Marshall County,,city-us,0,34.357,-86.359,761
25184,Warrenton,MS,Warren County,,city-us,0,32.248,-90.928,1744