id,name,state,county,country,level,population,latitude,longitude,wiki
16672,Germantown,MD,Montgomery County,,city-us,90235,39.173,-77.272,25065
16674,Germantown,TN,Shelby County,,city-us,41034,35.087,-89.810,13627
16673,Germantown,OH,Montgomery County,,city-us,5791,39.626,-84.369,5408
16664,Germantown,NY,Columbia County,,city-us,1947,42.137,-73.870,13502
16671,Germantown,WI,Juneau County,,city-us,1715,43.912,-90.029,1899
16676,Germantown,WI,Washington County,,city-us,241,43.277,-88.158,5721
16662,Germantown,KY,Bracken County,,city-us,140,38.656,-83.964,3090
16667,Germantown,VA,Fauquier County,,city-us,0,38.614,-77.742,1936
16670,Germantown,NC,Hyde County,,city-us,0,35.432,-76.463,1116