id,name,state,county,country,level,population,latitude,longitude,wiki
8820,Freeman,SD,Hutchinson County,,city-us,1322,43.352,-97.437,4509
8819,Freeman,WI,Crawford County,,city-us,721,43.370,-91.083,2034
8818,Freeman,MO,Cass County,,city-us,484,38.618,-94.505,3256
8817,Freeman,VA,Brunswick County,,city-us,0,36.755,-77.693,1308
8821,Freeman,IN,Owen County,,city-us,0,39.195,-86.734,1092
8822,Freeman,WA,Spokane County,,city-us,0,47.518,-117.196,2658