id,name,state,county,country,level,population,latitude,longitude,wiki
8915,Fruitland,ID,Payette County,,city-us,6454,44.008,-116.917,3935
8918,Fruitland,MD,Wicomico County,,city-us,5677,38.322,-75.620,2611
8912,Fruitland,NC,Henderson County,,city-us,2257,35.396,-82.393,747
8914,Fruitland,IA,Muscatine County,,city-us,955,41.356,-91.129,3488
8917,Fruitland,WA,Stevens County,,city-us,812,48.071,-118.199,480
8911,Fruitland,UT,Duchesne County,,city-us,0,40.213,-110.840,1726
8913,Fruitland,CA,Humboldt County,,city-us,0,40.296,-123.825,595
8916,Fruitland,NM,San Juan County,,city-us,0,36.739,-108.396,1577