id,name,state,county,country,level,population,latitude,longitude,wiki
17293,Gorman,NC,Durham County,,city-us,1051,36.037,-78.823,2400
17294,Gorman,TX,Eastland County,,city-us,990,32.214,-98.671,2529
17295,Gorman,MD,Garrett County,,city-us,189,39.295,-79.346,489
17296,Gorman,CA,Los Angeles County,,city-us,0,34.796,-118.852,13546
17298,Gorman,SD,Potter County,,city-us,0,44.927,-100.075,1367