id,name,state,county,country,level,population,latitude,longitude,wiki
48372,Gorham,ME,Cumberland County,,city-us,18426,43.701,-70.463,8857
17287,Gorham,NH,Coos County,,city-us,2631,44.393,-71.198,5812
17291,Gorham,NY,Ontario County,,city-us,587,42.799,-77.132,4162
17292,Gorham,KS,Russell County,,city-us,381,38.882,-99.023,7630
17290,Gorham,IL,Jackson County,,city-us,168,37.718,-89.486,2574