id,name,state,county,country,level,population,latitude,longitude,wiki
8973,Gainesville,FL,Alachua County,,city-us,140398,29.652,-82.325,33939
8976,Gainesville,GA,Hall County,,city-us,43417,34.298,-83.824,20308
8974,Gainesville,TX,Cooke County,,city-us,17576,33.626,-97.133,17598
8978,Gainesville,VA,Prince William County,,city-us,17081,38.796,-77.614,6090
8977,Gainesville,MO,Ozark County,,city-us,765,36.603,-92.428,4113
8980,Gainesville,NY,Wyoming County,,city-us,228,42.641,-78.134,239
8979,Gainesville,AL,Sumter County,,city-us,174,32.821,-88.159,3145
8975,Gainesville,AR,Greene County,,city-us,0,36.165,-90.511,1345