id,name,state,county,country,level,population,latitude,longitude,wiki
8995,Galesburg,MI,Kalamazoo County,,city-us,2045,42.289,-85.418,4061
8996,Galesburg,KS,Kingman County,,city-us,208,37.693,-97.969,899
8997,Galesburg,KS,Neosho County,,city-us,147,37.474,-95.359,3766
8998,Galesburg,ND,Traill County,,city-us,63,47.275,-97.378,3092
8994,Galesburg,IA,Jasper County,,city-us,0,41.559,-92.946,527