id,name,state,county,country,level,population,latitude,longitude,wiki
9434,Granite,OK,Greer County,,city-us,1752,34.962,-99.381,3135
9437,Granite,UT,Salt Lake County,,city-us,750,40.576,-111.791,2587
9433,Granite,OR,Grant County,,city-us,30,44.809,-118.418,5293
9431,Granite,MD,Baltimore County,,city-us,0,39.343,-76.856,894
9432,Granite,CO,Chaffee County,,city-us,0,39.044,-106.262,27025
9435,Granite,WY,Laramie County,,city-us,0,41.100,-105.158,832
9436,Granite,IA,Lyon County,,city-us,0,43.469,-96.556,1159