id,name,state,county,country,level,population,latitude,longitude,wiki
9211,Genoa,,,Italy,city-international,580097,44.407,8.934,74285
9209,Genoa,OH,Ottawa County,,city-us,2212,41.518,-83.359,6987
9204,Genoa,NY,Cayuga County,,city-us,1815,42.647,-76.569,4363
9207,Genoa,AR,Miller County,,city-us,972,33.384,-93.909,1020
9205,Genoa,NV,Douglas County,,city-us,958,39.004,-119.847,3746
9208,Genoa,NE,Nance County,,city-us,898,41.449,-97.731,3891
9210,Genoa,WI,Vernon County,,city-us,758,43.546,-91.173,3555
9206,Genoa,CO,Lincoln County,,city-us,156,39.278,-103.500,2274