id,name,state,county,country,level,population,latitude,longitude,wiki
9503,Glenwood,IL,Cook County,,city-us,8477,41.543,-87.602,3001
9511,Glenwood,IA,Mills County,,city-us,5170,41.047,-95.743,15041
9513,Glenwood,MN,Pope County,,city-us,2664,45.650,-95.390,3886
9512,Glenwood,AR,Montgomery County,,city-us,2036,34.328,-93.527,5700
9520,Glenwood,GA,Wheeler County,,city-us,843,32.180,-82.670,2302
9516,Glenwood,WI,St. Croix County,,city-us,755,45.080,-92.207,1973
9501,Glenwood,NE,Buffalo County,,city-us,525,40.755,-99.081,936
9510,Glenwood,NC,McDowell County,,city-us,501,35.614,-81.982,553
9515,Glenwood,UT,Sevier County,,city-us,484,38.763,-111.990,5691
9505,Glenwood,IN,Fayette County,,city-us,235,39.626,-85.302,2869
9506,Glenwood,NE,Gage County,,city-us,183,40.043,-96.870,272
9514,Glenwood,MO,Schuyler County,,city-us,181,40.518,-92.576,3947
9518,Glenwood,ND,Walsh County,,city-us,161,48.499,-97.600,188
9504,Glenwood,AL,Crenshaw County,,city-us,152,31.665,-86.171,1949
9502,Glenwood,NM,Catron County,,city-us,46,33.317,-108.883,1831
9507,Glenwood,WA,Klickitat County,,city-us,0,46.019,-121.291,1957
9508,Glenwood,OR,Lane County,,city-us,0,44.044,-123.034,850
9509,Glenwood,WV,Mason County,,city-us,0,38.592,-82.187,601
9517,Glenwood,FL,Volusia County,,city-us,0,29.086,-81.354,1864
9519,Glenwood,OR,Washington County,,city-us,0,45.649,-123.271,2287