id,name,state,county,country,level,population,latitude,longitude,wiki
18390,Hadley,MA,Hampshire County,,city-us,5272,42.356,-72.569,12002
18392,Hadley,MI,Lapeer County,,city-us,4528,42.926,-83.403,4196
18398,Hadley,NY,Saratoga County,,city-us,1977,43.337,-73.906,3608
18394,Hadley,MN,Murray County,,city-us,54,44.001,-95.854,3215
18393,Hadley,PA,Mercer County,,city-us,0,41.414,-80.233,1089
18395,Hadley,NV,Nye County,,city-us,0,38.698,-117.162,1761
18399,Hadley,KY,Warren County,,city-us,0,37.060,-86.607,1088