id,name,state,county,country,level,population,latitude,longitude,wiki
18785,Hanson,MA,Plymouth County,,city-us,1860,42.075,-70.880,11744
18780,Hansen,ID,Twin Falls County,,city-us,1105,42.531,-114.301,3162
18784,Hanson,KY,Hopkins County,,city-us,755,37.417,-87.481,3172
18781,Hansen,WI,Wood County,,city-us,750,44.475,-90.019,2880
18787,Hanson,OK,Sequoyah County,,city-us,201,35.435,-94.699,387