id,name,state,county,country,level,population,latitude,longitude,wiki
18844,Hardwick,GA,Baldwin County,,city-us,3360,33.068,-83.223,967
18845,Hardwick,VT,Caledonia County,,city-us,2951,44.520,-72.348,8275
18849,Hardwick,MA,Worcester County,,city-us,2660,42.353,-72.217,5923
18848,Hardwick,NJ,Warren County,,city-us,1609,41.040,-75.007,12534
18847,Hardwick,MN,Rock County,,city-us,188,43.775,-96.199,3623
18846,Hardwick,CA,Kings County,,city-us,144,36.401,-119.719,3207