id,name,state,county,country,level,population,latitude,longitude,wiki
19233,Hastings,NE,Adams County,,city-us,25037,40.586,-98.388,14169
19238,Hastings,MN,Dakota County,,city-us,21925,44.732,-92.855,12966
19242,Hastings,NY,Oswego County,,city-us,9359,43.320,-76.157,4212
19235,Hastings,MI,Barry County,,city-us,7539,42.646,-85.291,5582
19237,Hastings,PA,Cambria County,,city-us,1208,40.665,-78.712,2544
19243,Hastings,FL,St. Johns County,,city-us,824,29.718,-81.508,5626
19241,Hastings,IA,Mills County,,city-us,152,41.023,-95.499,3230
19239,Hastings,OK,Jefferson County,,city-us,106,34.227,-98.110,2634
19244,Hastings,WV,Wetzel County,,city-us,0,39.551,-80.673,2241