id,name,state,county,country,level,population,latitude,longitude,wiki
22547,Spring Creek,NV,Elko County,,city-us,15176,40.727,-115.586,3629
9916,Spring Creek,SD,Todd County,,city-us,238,43.118,-101.023,1715
22548,Spring Creek,KS,Greenwood County,,city-us,123,37.763,-96.441,429
9915,Spring Creek,SD,Moody County,,city-us,113,44.152,-96.590,1715
22546,Spring Creek,KS,Coffey County,,city-us,110,38.089,-95.564,465
22545,Spring Creek,OK,Caddo County,,city-us,0,35.262,-98.183,544
22549,Spring Creek,TN,Madison County,,city-us,0,35.767,-88.677,900
22551,Spring Creek,TX,San Saba County,,city-us,0,31.353,-98.822,785