id,name,state,county,country,level,population,latitude,longitude,wiki
10389,Hays,KS,Ellis County,,city-us,20795,38.879,-99.327,24428
10391,Hays,NC,Wilkes County,,city-us,1247,36.250,-81.116,2036
10388,Hays,MT,Blaine County,,city-us,1150,47.989,-108.694,2632
10374,Hayes,LA,Calcasieu Parish,,city-us,676,30.109,-92.920,14918
10390,Hays,TX,Hays County,,city-us,240,30.122,-97.872,2110
10375,Hayes,VA,Gloucester County,,city-us,0,37.278,-76.504,573