id,name,state,county,country,level,population,latitude,longitude,wiki
9981,Greenbush,WI,Sheboygan County,,city-us,1841,43.777,-88.101,2301
9979,Greenbush,ME,Penobscot County,,city-us,1447,45.072,-68.589,3066
9978,Greenbush,MI,Alcona County,,city-us,1275,44.555,-83.335,2991
9980,Greenbush,MN,Roseau County,,city-us,682,48.701,-96.182,6214
9977,Greenbush,VA,Accomack County,,city-us,25,37.741,-75.681,538