id,name,state,county,country,level,population,latitude,longitude,wiki
10030,Greensboro,NC,Guilford County,,city-us,298263,36.073,-79.792,56942
10028,Greensboro,GA,Greene County,,city-us,3649,33.576,-83.182,4802
10031,Greensboro,AL,Hale County,,city-us,2195,32.705,-87.596,7255
10026,Greensboro,MD,Caroline County,,city-us,1928,38.974,-75.805,4125
10033,Greensboro,VT,Orleans County,,city-us,801,44.602,-72.285,7565
10027,Greensboro,FL,Gadsden County,,city-us,449,30.569,-84.743,3250
10029,Greensboro,PA,Greene County,,city-us,261,39.791,-79.913,20423
10032,Greensboro,IN,Henry County,,city-us,123,39.875,-85.466,3035