id,name,state,county,country,level,population,latitude,longitude,wiki
10118,Gregory,TX,San Patricio County,,city-us,1740,27.922,-97.290,2720
10115,Gregory,SD,Gregory County,,city-us,1189,43.232,-99.430,3784
10117,Gregory,OK,Rogers County,,city-us,304,36.171,-95.572,1869
10119,Gregory,AR,Woodruff County,,city-us,43,35.155,-91.343,2072
10116,Gregory,MI,Livingston County,,city-us,0,42.458,-84.084,5770