id,name,state,county,country,level,population,latitude,longitude,wiki
10585,Harris,MN,Chisago County,,city-us,1127,45.586,-92.975,4052
10352,Harris,WI,Marquette County,,city-us,753,43.856,-89.431,2318
10586,Harris,IA,Osceola County,,city-us,150,43.445,-95.434,3500
10587,Harris,MO,Sullivan County,,city-us,64,40.306,-93.350,3453
10584,Harris,KS,Anderson County,,city-us,11,38.319,-95.436,3163