id,name,state,county,country,level,population,latitude,longitude,wiki
10724,Hillcrest,CA,Kern County,,city-us,11443,35.380,-118.956,156
10726,Hillcrest,NY,Rockland County,,city-us,8667,41.128,-74.041,5807
10725,Hillcrest,IL,Ogle County,,city-us,1216,41.951,-89.065,1804
10723,Hillcrest,TX,Brazoria County,,city-us,693,29.393,-95.259,2290
10727,Hillcrest,OH,Warren County,,city-us,0,39.402,-84.256,1120