id,name,state,county,country,level,population,latitude,longitude,wiki
10591,Harrisburg,PA,Dauphin County,,city-us,50135,40.274,-76.884,64449
10590,Harrisburg,NC,Cabarrus County,,city-us,19463,35.324,-80.656,3058
10594,Harrisburg,SD,Lincoln County,,city-us,7638,43.431,-96.697,4521
10595,Harrisburg,OR,Linn County,,city-us,3684,44.274,-123.171,3194
10596,Harrisburg,AR,Poinsett County,,city-us,2199,35.564,-90.717,2600
10593,Harrisburg,NY,Lewis County,,city-us,482,43.837,-75.666,2837
10592,Harrisburg,OH,Franklin County,,city-us,313,39.811,-83.168,3999
10589,Harrisburg,MO,Boone County,,city-us,280,39.142,-92.463,5146
10588,Harrisburg,NE,Banner County,,city-us,66,41.556,-103.739,3989