id,name,state,county,country,level,population,latitude,longitude,wiki
10642,Harrisville,UT,Weber County,,city-us,7004,41.281,-111.988,2380
10640,Harrisville,WV,Ritchie County,,city-us,1642,39.210,-81.052,5838
10639,Harrisville,RI,Providence County,,city-us,1459,41.966,-71.675,2217
10636,Harrisville,NH,Cheshire County,,city-us,997,42.949,-72.069,5050
10635,Harrisville,PA,Butler County,,city-us,813,41.137,-80.009,2907
10633,Harrisville,MI,Alcona County,,city-us,437,44.656,-83.295,7650
10637,Harrisville,OH,Harrison County,,city-us,178,40.181,-80.888,3640
10634,Harrisville,NJ,Burlington County,,city-us,0,39.661,-74.522,1243
10641,Harrisville,MS,Simpson County,,city-us,0,31.973,-90.078,534