id,name,state,county,country,level,population,latitude,longitude,wiki
10767,Havana,,,Cuba,city-international,2141652,23.137,-82.359,138996
10761,Havana,FL,Gadsden County,,city-us,1713,30.624,-84.415,3635
10763,Havana,TX,Hidalgo County,,city-us,252,26.245,-98.509,2148
10766,Havana,AR,Yell County,,city-us,239,35.111,-93.530,3920
10764,Havana,KS,Montgomery County,,city-us,81,37.092,-95.942,3181
10765,Havana,ND,Sargent County,,city-us,68,45.950,-97.619,3043
10762,Havana,AL,Hale County,,city-us,0,32.895,-87.620,615