id,name,state,county,country,level,population,latitude,longitude,wiki
20997,Humboldt,TN,Gibson County,,city-us,7855,35.827,-88.904,5073
20998,Humboldt,IA,Humboldt County,,city-us,4773,42.721,-94.215,12526
20994,Humboldt,WI,Brown County,,city-us,1311,44.502,-87.826,2258
21003,Humboldt,NE,Richardson County,,city-us,788,40.164,-95.945,3463
21002,Humboldt,SD,Minnehaha County,,city-us,568,43.645,-97.074,3579
20996,Humboldt,IL,Coles County,,city-us,357,39.604,-88.319,2037
20999,Humboldt,MN,Kittson County,,city-us,40,48.921,-97.093,3111