id,name,state,county,country,level,population,latitude,longitude,wiki
10976,Henrietta,NY,Monroe County,,city-us,46634,43.054,-77.640,7614
10975,Henrietta,TX,Clay County,,city-us,3102,33.817,-98.195,7867
10978,Henrietta,WI,Richland County,,city-us,440,43.512,-90.375,1747
10979,Henrietta,NC,Rutherford County,,city-us,393,35.258,-81.796,124
10977,Henrietta,MO,Ray County,,city-us,281,39.234,-93.936,3468
10974,Henrietta,PA,Blair County,,city-us,230,40.265,-78.297,520