id,name,state,county,country,level,population,latitude,longitude,wiki
21386,Industry,PA,Beaver County,,city-us,1810,40.645,-80.416,3371
21389,Industry,ME,Franklin County,,city-us,796,44.751,-70.049,3151
21385,Industry,TX,Austin County,,city-us,273,29.972,-96.502,3099
21390,Industry,CA,Los Angeles County,,city-us,245,34.020,-117.959,11604
21388,Industry,KS,Clay County,,city-us,0,39.133,-97.171,548