id,name,state,county,country,level,population,latitude,longitude,wiki
11510,Ironton,OH,Lawrence County,,city-us,10434,38.537,-82.683,11149
11509,Ironton,MO,Iron County,,city-us,1456,37.597,-90.627,4183
11512,Ironton,WI,Sauk County,,city-us,660,43.522,-90.144,3535
11508,Ironton,MN,Crow Wing County,,city-us,580,46.477,-93.978,3386
11506,Ironton,MI,Charlevoix County,,city-us,148,45.258,-85.191,1585
11507,Ironton,TX,Cherokee County,,city-us,0,31.919,-95.374,1598
11511,Ironton,LA,Plaquemines Parish,,city-us,0,29.649,-89.961,966