id,name,state,county,country,level,population,latitude,longitude,wiki
11388,Holt,MI,Ingham County,,city-us,25625,42.641,-84.515,3718
11391,Holt,AL,Tuscaloosa County,,city-us,3413,33.230,-87.486,4063
11386,Holt,MO,Clay County,,city-us,469,39.454,-94.339,3817
11387,Holt,NE,Gage County,,city-us,458,40.390,-96.743,258
11389,Holt,MN,Marshall County,,city-us,91,48.292,-96.193,2693
11385,Holt,KY,Breckinridge County,,city-us,0,37.911,-86.581,1048
11390,Holt,CA,San Joaquin County,,city-us,0,37.934,-121.427,543