id,name,state,county,country,level,population,latitude,longitude,wiki
11895,Jordan,,,,country,11086716,30.585,36.238,73581
11894,Jordan,MN,Scott County,,city-us,6777,44.667,-93.627,5204
11892,Jordan,NY,Onondaga County,,city-us,1229,43.065,-76.473,3545
11890,Jordan,WI,Green County,,city-us,602,42.640,-89.769,2556
11889,Jordan,MT,Garfield County,,city-us,351,47.321,-106.910,5353
11888,Jordan,IA,Boone County,,city-us,0,42.049,-93.784,1066
11891,Jordan,OR,Linn County,,city-us,0,44.727,-122.699,600
11893,Jordan,IN,Owen County,,city-us,0,39.398,-86.917,537