id,name,state,county,country,level,population,latitude,longitude,wiki
11498,Hopkinton,RI,Washington County,,city-us,8462,41.479,-71.758,4559
11495,Hopkinton,NH,Merrimack County,,city-us,6036,43.202,-71.697,7879
11496,Hopkinton,MA,Middlesex County,,city-us,3567,42.229,-71.523,25231
11497,Hopkinton,NY,St. Lawrence County,,city-us,1104,44.537,-74.661,4481
11494,Hopkinton,IA,Delaware County,,city-us,627,42.344,-91.248,3937