id,name,state,county,country,level,population,latitude,longitude,wiki
22342,Joppa,MD,Harford County,,city-us,12304,39.434,-76.358,2885
22340,Joppa,AL,Cullman County,,city-us,681,34.300,-86.550,1068
22344,Joppa,IL,Massac County,,city-us,342,37.206,-88.845,3196
22339,Joppa,TX,Burnet County,,city-us,0,30.826,-98.032,1862
22341,Joppa,TN,Grainger County,,city-us,0,36.238,-83.616,12456