id,name,state,county,country,level,population,latitude,longitude,wiki
11653,Hume,NY,Allegany County,,city-us,2074,42.482,-78.122,2840
11655,Hume,IL,Edgar County,,city-us,319,39.797,-87.869,7291
11654,Hume,MO,Bates County,,city-us,285,38.090,-94.584,7428
11656,Hume,VA,Fauquier County,,city-us,0,38.832,-77.999,2223
11657,Hume,CA,Fresno County,,city-us,0,36.785,-118.914,1093