id,name,state,county,country,level,population,latitude,longitude,wiki
11699,Huntsville,AL,Limestone County,,city-us,216963,34.782,-86.533,54769
11704,Huntsville,TX,Walker County,,city-us,46288,30.724,-95.551,15253
11701,Huntsville,AR,Madison County,,city-us,2981,36.086,-93.741,4037
11702,Huntsville,MO,Randolph County,,city-us,1369,39.441,-92.545,7021
11703,Huntsville,TN,Scott County,,city-us,1270,36.410,-84.490,4945
11705,Huntsville,UT,Weber County,,city-us,585,41.261,-111.770,3207
11700,Huntsville,OH,Logan County,,city-us,403,40.443,-83.805,4604
11706,Huntsville,NC,Yadkin County,,city-us,0,36.082,-80.529,4813