id,name,state,county,country,level,population,latitude,longitude,wiki
11732,Hutchinson,KS,Reno County,,city-us,39712,38.061,-97.930,19330
11731,Hutchinson,MN,McLeod County,,city-us,14590,44.888,-94.370,8773
11734,Hutchinson,PA,Westmoreland County,,city-us,322,40.226,-79.733,1279
11733,Hutchinson,NJ,Warren County,,city-us,104,40.774,-75.131,480
11730,Hutchinson,OR,Baker County,,city-us,0,44.972,-117.978,504