id,name,state,county,country,level,population,latitude,longitude,wiki
11910,Inwood,NY,Nassau County,,city-us,10533,40.622,-73.747,5756
11911,Inwood,FL,Polk County,,city-us,7267,28.037,-81.765,2529
11907,Inwood,WV,Berkeley County,,city-us,2794,39.358,-78.040,7830
11909,Inwood,IA,Lyon County,,city-us,927,43.307,-96.432,3333
11908,Inwood,MD,Howard County,,city-us,0,39.306,-77.021,573