id,name,state,county,country,level,population,latitude,longitude,wiki
11969,Irvington,NJ,Essex County,,city-us,60403,40.724,-74.233,21626
11974,Irvington,NY,Westchester County,,city-us,6532,41.039,-73.868,65896
11967,Irvington,KY,Breckinridge County,,city-us,1241,37.880,-86.284,2821
11973,Irvington,IL,Washington County,,city-us,578,38.439,-89.163,2016
11971,Irvington,VA,Lancaster County,,city-us,477,37.662,-76.419,4713
11970,Irvington,IA,Kossuth County,,city-us,46,43.007,-94.196,792
11968,Irvington,NE,Douglas County,,city-us,0,41.321,-96.055,1951
11972,Irvington,AL,Mobile County,,city-us,0,30.507,-88.234,632