id,name,state,county,country,level,population,latitude,longitude,wiki
23135,Kirkwood,MO,St. Louis County,,city-us,29371,38.583,-90.407,11565
23128,Kirkwood,NY,Broome County,,city-us,5437,42.091,-75.799,4235
23137,Kirkwood,IL,Warren County,,city-us,660,40.866,-90.748,2309
23131,Kirkwood,PA,Lancaster County,,city-us,316,39.856,-76.077,1720
23126,Kirkwood,CA,Alpine County,,city-us,232,38.689,-120.055,5502
23129,Kirkwood,NJ,Camden County,,city-us,0,39.831,-74.991,923
23132,Kirkwood,DE,New Castle County,,city-us,0,39.572,-75.696,627
23134,Kirkwood,OH,Shelby County,,city-us,0,40.216,-84.197,843