id,name,state,county,country,level,population,latitude,longitude,wiki
23242,Knoxville,TN,Knox County,,city-us,192648,35.961,-83.921,67139
23243,Knoxville,IA,Marion County,,city-us,7472,41.321,-93.109,8109
23240,Knoxville,IL,Knox County,,city-us,2852,40.908,-90.285,6432
23247,Knoxville,PA,Tioga County,,city-us,677,41.957,-77.439,3883
23239,Knoxville,AR,Johnson County,,city-us,655,35.382,-93.364,1811
23234,Knoxville,GA,Crawford County,,city-us,65,32.724,-83.998,4749
23236,Knoxville,MD,Frederick County,,city-us,0,39.327,-77.664,1907
23246,Knoxville,MO,Ray County,,city-us,0,39.446,-94.017,1737