id,name,state,county,country,level,population,latitude,longitude,wiki
12285,Johnstown,PA,Cambria County,,city-us,18238,40.327,-78.922,40189
12288,Johnstown,CO,Larimer County,,city-us,18204,40.384,-104.968,3639
12287,Johnstown,NY,Fulton County,,city-us,8157,43.007,-74.368,14913
12289,Johnstown,OH,Licking County,,city-us,5250,40.154,-82.685,4524
12291,Johnstown,WI,Rock County,,city-us,766,42.700,-88.806,1953
12290,Johnstown,WI,Polk County,,city-us,503,45.507,-92.227,1788
12286,Johnstown,WY,Fremont County,,city-us,218,43.118,-108.702,2118
12284,Johnstown,NE,Brown County,,city-us,48,42.572,-100.058,3145