id,name,state,county,country,level,population,latitude,longitude,wiki
12336,Joppa,MD,Harford County,,city-us,12304,39.434,-76.358,2885
12334,Joppa,AL,Cullman County,,city-us,681,34.300,-86.550,1068
12337,Joppa,IL,Massac County,,city-us,342,37.206,-88.845,3196
12333,Joppa,TX,Burnet County,,city-us,0,30.826,-98.032,1862
12335,Joppa,TN,Grainger County,,city-us,0,36.238,-83.616,12456