id,name,state,county,country,level,population,latitude,longitude,wiki
12641,Lakeland,FL,Polk County,,city-us,115425,28.039,-81.950,36428
12642,Lakeland,TN,Shelby County,,city-us,13805,35.231,-89.740,2699
12638,Lakeland,GA,Lanier County,,city-us,2762,31.041,-83.075,4740
12639,Lakeland,NY,Onondaga County,,city-us,2558,43.090,-76.240,5344
12643,Lakeland,MN,Washington County,,city-us,1698,44.956,-92.766,3777
12637,Lakeland,WI,Barron County,,city-us,942,45.581,-91.969,2245
12636,Lakeland,MI,Livingston County,,city-us,0,0.000,0.000,0
12640,Lakeland,LA,Pointe Coupee Parish,,city-us,0,30.601,-91.397,4138