id,name,state,county,country,level,population,latitude,longitude,wiki
12478,Kelly,WI,Bayfield County,,city-us,434,46.458,-90.988,1807
12479,Kelly,NC,Bladen County,,city-us,384,34.466,-78.324,1865
12474,Kelley,IA,Story County,,city-us,318,41.951,-93.665,3318
12482,Kelly,WY,Teton County,,city-us,194,43.623,-110.624,2342
12481,Kelly,KS,Nemaha County,,city-us,27,39.738,-96.003,676
12480,Kelly,KY,Christian County,,city-us,0,36.971,-87.477,629