id,name,state,county,country,level,population,latitude,longitude,wiki
12609,Keystone,FL,Hillsborough County,,city-us,25397,28.156,-82.621,3070
12614,Keystone,CO,Summit County,,city-us,611,39.599,-105.987,2375
12608,Keystone,IA,Benton County,,city-us,598,41.998,-92.197,3327
12607,Keystone,WI,Bayfield County,,city-us,378,46.524,-91.189,1857
12613,Keystone,SD,Pennington County,,city-us,246,43.896,-103.418,4375
12612,Keystone,WV,McDowell County,,city-us,186,37.415,-81.451,5149
12611,Keystone,NE,Keith County,,city-us,29,41.216,-101.584,962
12610,Keystone,OH,Jackson County,,city-us,0,38.988,-82.609,768