id,name,state,county,country,level,population,latitude,longitude,wiki
24403,Leland,NC,Brunswick County,,city-us,25974,34.256,-78.045,11198
24409,Leland,MS,Washington County,,city-us,3888,33.405,-90.898,10316
24406,Leland,IL,LaSalle County,,city-us,934,41.613,-88.800,2254
24407,Leland,MI,Leelanau County,,city-us,410,45.024,-85.763,6778
24410,Leland,IA,Winnebago County,,city-us,249,43.337,-93.635,3548
24405,Leland,OR,Josephine County,,city-us,0,42.638,-123.441,509