id,name,state,county,country,level,population,latitude,longitude,wiki
12808,Knox,IN,Starke County,,city-us,3585,41.296,-86.625,5235
12805,Knox,NY,Albany County,,city-us,2616,42.685,-74.106,3261
12809,Knox,ME,Waldo County,,city-us,813,44.518,-69.217,3703
12807,Knox,WI,Price County,,city-us,315,45.546,-90.110,2033
12806,Knox,MO,Polk County,,city-us,0,37.474,-93.611,631