id,name,state,county,country,level,population,latitude,longitude,wiki
13055,Lena,IL,Stephenson County,,city-us,2728,42.379,-89.822,5967
13054,Lena,WI,Oconto County,,city-us,758,44.991,-88.056,5110
13052,Lena,MS,Leake County,,city-us,148,32.594,-89.612,2096
13051,Lena,SC,Hampton County,,city-us,0,32.754,-81.215,2083
13053,Lena,OH,Miami County,,city-us,0,40.141,-84.032,523