id,name,state,county,country,level,population,latitude,longitude,wiki
25125,Linwood,NJ,Atlantic County,,city-us,6947,39.340,-74.575,17216
25131,Linwood,PA,Delaware County,,city-us,3083,39.827,-75.425,3965
25137,Linwood,WI,Portage County,,city-us,1066,44.488,-89.665,1736
25133,Linwood,KS,Leavenworth County,,city-us,419,39.001,-95.039,7795
25127,Linwood,NE,Butler County,,city-us,93,41.412,-96.931,3638
25134,Linwood,NY,Livingston County,,city-us,14,42.895,-77.949,803
25126,Linwood,MI,Bay County,,city-us,0,43.739,-83.962,2290
25129,Linwood,TX,Cherokee County,,city-us,0,31.664,-94.991,1487
25130,Linwood,NC,Davidson County,,city-us,0,35.751,-80.318,998