id,name,state,county,country,level,population,latitude,longitude,wiki
21950,Lansing,MI,Clinton County,,city-us,112684,42.714,-84.561,55872
13256,Lansing,IL,Cook County,,city-us,28379,41.565,-87.539,5612
13257,Lansing,KS,Leavenworth County,,city-us,11239,39.249,-94.900,5707
13258,Lansing,NY,Tompkins County,,city-us,3990,42.484,-76.480,5780
13253,Lansing,IA,Allamakee County,,city-us,954,43.362,-91.217,4754
13255,Lansing,OH,Belmont County,,city-us,270,40.076,-80.790,462
13254,Lansing,NC,Ashe County,,city-us,127,36.499,-81.511,2858
13216,Lancing,TN,Morgan County,,city-us,0,36.121,-84.654,695