id,name,state,county,country,level,population,latitude,longitude,wiki
13375,Layton,UT,Davis County,,city-us,83291,41.060,-111.971,10294
13378,Layton,NJ,Sussex County,,city-us,692,41.216,-74.823,3224
13479,Leighton,AL,Colbert County,,city-us,662,34.701,-87.529,4773
13377,Layton,FL,Monroe County,,city-us,206,24.824,-80.814,2996
13480,Leighton,IA,Mahaska County,,city-us,152,41.337,-92.787,2773
13376,Layton,PA,Fayette County,,city-us,0,40.090,-79.723,4650