id,name,state,county,country,level,population,latitude,longitude,wiki
13454,Leesburg,VA,Loudoun County,,city-us,48908,39.116,-77.564,21384
13452,Leesburg,FL,Lake County,,city-us,27810,28.811,-81.878,8347
13453,Leesburg,GA,Lee County,,city-us,3506,31.732,-84.171,4089
13450,Leesburg,OH,Highland County,,city-us,1268,39.345,-83.553,3341
13448,Leesburg,AL,Cherokee County,,city-us,915,34.180,-85.761,3372
13449,Leesburg,NJ,Cumberland County,,city-us,601,39.257,-74.987,1832
13451,Leesburg,IN,Kosciusko County,,city-us,551,41.332,-85.850,3548
13447,Leesburg,TX,Camp County,,city-us,0,32.987,-95.084,1661