id,name,state,county,country,level,population,latitude,longitude,wiki
13510,Lennox,CA,Los Angeles County,,city-us,21514,33.938,-118.353,6843
13518,Lenox,NY,Madison County,,city-us,8777,43.112,-75.757,3452
13514,Lenox,MA,Berkshire County,,city-us,5099,42.368,-73.270,12796
13509,Lennox,SD,Lincoln County,,city-us,2405,43.354,-96.892,3586
13513,Lenox,IA,Adams County,,city-us,1344,40.883,-94.558,3827
13516,Lenox,GA,Cook County,,city-us,756,31.272,-83.465,2558
13515,Lenox,AL,Conecuh County,,city-us,37,31.337,-87.186,545
13517,Lenox,MO,Dent County,,city-us,0,37.653,-91.761,511