id,name,state,county,country,level,population,latitude,longitude,wiki
13802,Lincoln Park,MI,Wayne County,,city-us,39643,42.251,-83.179,7683
13799,Lincoln Park,NJ,Morris County,,city-us,10900,40.924,-74.302,12714
13798,Lincoln Park,CO,Fremont County,,city-us,3724,38.429,-105.220,3309
13800,Lincoln Park,NY,Ulster County,,city-us,2371,41.951,-73.994,1836
13797,Lincoln Park,PA,Berks County,,city-us,1669,40.315,-75.985,267
13801,Lincoln Park,GA,Upson County,,city-us,670,32.868,-84.330,1841