id,name,state,county,country,level,population,latitude,longitude,wiki
13929,Little Rock,AR,Pulaski County,,city-us,201998,34.746,-92.290,31975
13923,Little Rock,MN,Beltrami County,,city-us,876,47.868,-95.111,2084
13924,Little Rock,SC,Dillon County,,city-us,658,34.477,-79.403,844
13926,Little Rock,IA,Lyon County,,city-us,441,43.444,-95.883,3408
13927,Little Rock,OK,Mayes County,,city-us,327,36.222,-95.083,591
13925,Little Rock,IL,Kendall County,,city-us,0,41.717,-88.576,506
13928,Little Rock,MS,Newton County,,city-us,0,32.526,-89.025,574