id,name,state,county,country,level,population,latitude,longitude,wiki
14030,Lodi,CA,San Joaquin County,,city-us,67021,38.130,-121.272,16895
14026,Lodi,NJ,Bergen County,,city-us,25966,40.882,-74.083,16683
14027,Lodi,WI,Columbia County,,city-us,3298,43.339,-89.535,9476
14028,Lodi,OH,Medina County,,city-us,2754,41.033,-82.012,5077
14031,Lodi,NY,Seneca County,,city-us,286,42.614,-76.822,5670
14029,Lodi,IN,Parke County,,city-us,0,39.950,-87.406,2860