id,name,state,county,country,level,population,latitude,longitude,wiki
26726,Maple Grove,MN,Hennepin County,,city-us,70726,45.072,-93.456,10054
26721,Maple Grove,MI,Barry County,,city-us,1593,42.552,-85.132,1954
26731,Maple Grove,WI,Shawano County,,city-us,939,44.628,-88.301,2052
26720,Maple Grove,WI,Barron County,,city-us,879,45.337,-91.849,2171
26728,Maple Grove,WI,Manitowoc County,,city-us,852,44.189,-87.924,2101
26722,Maple Grove,MI,Benzie County,,city-us,139,44.708,-85.853,685