id,name,state,county,country,level,population,latitude,longitude,wiki
14167,Loomis,CA,Placer County,,city-us,6868,38.821,-121.193,8031
14166,Loomis,NE,Phelps County,,city-us,391,40.478,-99.507,3131
14163,Loomis,MI,Isabella County,,city-us,194,43.793,-84.667,757
14165,Loomis,WA,Okanogan County,,city-us,35,48.821,-119.633,3001
14162,Loomis,SD,Davison County,,city-us,0,43.794,-98.105,1738
14164,Loomis,WI,Marinette County,,city-us,0,45.193,-87.899,946