id,name,state,county,country,level,population,latitude,longitude,wiki
27309,Maxwell,CA,Colusa County,,city-us,1107,39.276,-122.191,2953
27314,Maxwell,IA,Story County,,city-us,875,41.892,-93.400,7001
27312,Maxwell,NE,Lincoln County,,city-us,256,41.079,-100.525,3338
27308,Maxwell,NM,Colfax County,,city-us,232,36.540,-104.543,2869
27307,Maxwell,TX,Caldwell County,,city-us,0,29.881,-97.793,3879