id,name,state,county,country,level,population,latitude,longitude,wiki
14393,Lyman,SC,Spartanburg County,,city-us,6321,34.948,-82.127,4172
14396,Lyman,ME,York County,,city-us,4563,43.500,-70.648,5503
14394,Lyman,WY,Uinta County,,city-us,2175,41.327,-110.293,3395
14390,Lyman,MS,Harrison County,,city-us,1824,30.495,-89.126,2642
14389,Lyman,NH,Grafton County,,city-us,595,44.257,-71.934,3063
14392,Lyman,WA,Skagit County,,city-us,420,48.527,-122.062,3680
14391,Lyman,NE,Scotts Bluff County,,city-us,256,41.917,-104.039,3757
14395,Lyman,UT,Wayne County,,city-us,206,38.397,-111.590,1933