id,name,state,county,country,level,population,latitude,longitude,wiki
14616,Malone,NY,Franklin County,,city-us,5300,44.849,-74.295,6147
14619,Malone,FL,Jackson County,,city-us,1950,30.958,-85.162,3039
14617,Malone,WA,Grays Harbor County,,city-us,303,46.959,-123.328,1226
14618,Malone,TX,Hill County,,city-us,240,31.918,-96.895,2260
14615,Malone,WI,Fond du Lac County,,city-us,0,43.860,-88.281,759