id,name,state,county,country,level,population,latitude,longitude,wiki
14675,Manhattan,NY,New York County,,city-us,1644518,40.728,-73.994,100863
19792,Manhattan,KS,Pottawatomie County,,city-us,54763,39.188,-96.606,27485
19793,Manhattan,KS,Riley County,,city-us,2300,39.140,-96.529,27485
14673,Manhattan,MT,Gallatin County,,city-us,2128,45.857,-111.332,4344
14676,Manhattan,NV,Nye County,,city-us,124,38.539,-117.075,7132
14674,Manhattan,FL,Manatee County,,city-us,0,27.508,-82.319,3158