id,name,state,county,country,level,population,latitude,longitude,wiki
14780,Mapleton,UT,Utah County,,city-us,12414,40.130,-111.579,5856
14778,Mapleton,IA,Monona County,,city-us,1144,42.166,-95.793,5513
14773,Mapleton,ME,Aroostook County,,city-us,747,46.682,-68.163,2767
14777,Mapleton,OR,Lane County,,city-us,493,44.031,-123.866,1069
14776,Mapleton,PA,Huntingdon County,,city-us,418,40.394,-77.941,2664
14779,Mapleton,IL,Peoria County,,city-us,255,40.566,-89.732,2109
14775,Mapleton,ND,Cass County,,city-us,199,46.844,-96.997,3777
14774,Mapleton,KS,Bourbon County,,city-us,97,38.015,-94.884,3481