id,name,state,county,country,level,population,latitude,longitude,wiki
28280,Midlothian,VA,Chesterfield County,,city-us,58880,37.522,-77.665,17276
28282,Midlothian,TX,Ellis County,,city-us,37053,32.482,-96.994,9885
28281,Midlothian,IL,Cook County,,city-us,13983,41.625,-87.718,12173
28279,Midlothian,MD,Allegany County,,city-us,367,39.634,-78.950,1661
28283,Midlothian,OK,Lincoln County,,city-us,0,35.637,-96.922,596