id,name,state,county,country,level,population,latitude,longitude,wiki
28504,Mill Creek,WA,Snohomish County,,city-us,20902,47.860,-122.204,24163
28503,Mill Creek,WV,Randolph County,,city-us,560,38.731,-79.970,3605
28498,Mill Creek,OK,Johnston County,,city-us,299,34.404,-96.826,3695
28497,Mill Creek,PA,Huntingdon County,,city-us,285,40.436,-77.931,3095
28506,Mill Creek,IL,Union County,,city-us,57,37.342,-89.253,1909
28499,Mill Creek,IN,LaPorte County,,city-us,0,41.581,-86.532,620