id,name,state,county,country,level,population,latitude,longitude,wiki
15143,Maysville,KY,Mason County,,city-us,8761,38.641,-83.744,17391
15136,Maysville,GA,Banks County,,city-us,1965,34.255,-83.553,5926
15139,Maysville,MO,DeKalb County,,city-us,1107,39.889,-94.362,3726
15140,Maysville,OK,Garvin County,,city-us,1086,34.865,-97.374,3288
15141,Maysville,NC,Jones County,,city-us,829,34.905,-77.231,2568
15137,Maysville,AR,Benton County,,city-us,221,36.404,-94.602,928
15144,Maysville,IA,Scott County,,city-us,156,41.649,-90.717,2776
15138,Maysville,CO,Chaffee County,,city-us,141,38.539,-106.190,736
15142,Maysville,AL,Madison County,,city-us,0,34.770,-86.430,677