id,name,state,county,country,level,population,latitude,longitude,wiki
28911,Mission,TX,Hidalgo County,,city-us,86223,26.216,-98.325,7846
28907,Mission,KS,Johnson County,,city-us,9864,39.028,-94.656,5630
28917,Mission,SD,Todd County,,city-us,1146,43.306,-100.658,4402
28918,Mission,OR,Umatilla County,,city-us,960,45.670,-118.684,2217
28912,Mission,WI,Jackson County,,city-us,354,44.345,-90.763,331