id,name,state,county,country,level,population,latitude,longitude,wiki
29137,Monroeville,PA,Allegheny County,,city-us,28334,40.421,-79.788,7338
29142,Monroeville,AL,Monroe County,,city-us,5841,31.528,-87.325,8315
29139,Monroeville,NJ,Gloucester County,,city-us,5030,39.629,-75.159,1049
29138,Monroeville,IN,Allen County,,city-us,1302,40.975,-84.868,3758
29140,Monroeville,OH,Huron County,,city-us,1292,41.244,-82.696,3699