id,name,state,county,country,level,population,latitude,longitude,wiki
15309,Meadowbrook,VA,Chesterfield County,,city-us,19574,37.449,-77.474,284
15313,Meadowbrook,AL,Shelby County,,city-us,9688,33.404,-86.691,3557
15311,Meadowbrook,CA,Riverside County,,city-us,3874,33.726,-117.285,2223
15312,Meadowbrook,WI,Sawyer County,,city-us,138,45.675,-91.133,1902
15310,Meadowbrook,PA,Montgomery County,,city-us,0,40.112,-75.078,1060