id,name,state,county,country,level,population,latitude,longitude,wiki
15383,Mehlville,MO,St. Louis County,,city-us,28672,38.508,-90.323,2421
15410,Melville,NY,Suffolk County,,city-us,18561,40.793,-73.415,9668
15408,Melville,RI,Newport County,,city-us,1838,41.587,-71.283,3316
15409,Melville,LA,St. Landry Parish,,city-us,757,30.693,-91.744,3121
15411,Melville,MT,Sweet Grass County,,city-us,0,46.103,-109.954,1531