id,name,state,county,country,level,population,latitude,longitude,wiki
15483,Meriden,CT,New Haven County,,city-us,60517,41.537,-72.795,24439
15480,Meriden,KS,Jefferson County,,city-us,740,39.189,-95.570,3332
15479,Meriden,IA,Cherokee County,,city-us,161,42.795,-95.634,2891
15481,Meriden,WY,Laramie County,,city-us,0,41.544,-104.319,1079
15482,Meriden,IL,LaSalle County,,city-us,0,41.571,-89.035,1785