id,name,state,county,country,level,population,latitude,longitude,wiki
15509,Merrimac,MA,Essex County,,city-us,6705,42.839,-71.012,9197
15511,Merrimac,VA,Montgomery County,,city-us,2663,37.190,-80.426,2629
15512,Merrimac,WI,Sauk County,,city-us,526,43.373,-89.623,3520
15508,Merrimac,CA,Butte County,,city-us,0,39.766,-121.308,900
15510,Merrimac,IL,Monroe County,,city-us,0,38.371,-90.333,503