id,name,state,county,country,level,population,latitude,longitude,wiki
29570,Morrison,IL,Whiteside County,,city-us,4046,41.810,-89.965,10552
29564,Morrison,WI,Brown County,,city-us,1599,44.299,-87.989,2246
29569,Morrison,TN,Warren County,,city-us,740,35.603,-85.920,2098
29568,Morrison,OK,Noble County,,city-us,733,36.297,-97.008,3940
29567,Morrison,CO,Jefferson County,,city-us,381,39.654,-105.191,9474
29565,Morrison,MO,Gasconade County,,city-us,97,38.673,-91.636,3091
29566,Morrison,IA,Grundy County,,city-us,96,42.344,-92.674,3172