id,name,state,county,country,level,population,latitude,longitude,wiki
30122,Murphy,TX,Collin County,,city-us,21219,33.015,-96.613,9481
30124,Murphy,MO,Jefferson County,,city-us,8241,38.490,-90.487,2281
30121,Murphy,NC,Cherokee County,,city-us,1626,35.088,-84.035,15418
30127,Murphy,ID,Owyhee County,,city-us,223,43.218,-116.552,2285
30126,Murphy,OK,Mayes County,,city-us,129,36.147,-95.245,1828