id,name,state,county,country,level,population,latitude,longitude,wiki
16093,Murphy,TX,Collin County,,city-us,21219,33.015,-96.613,9481
16094,Murphy,MO,Jefferson County,,city-us,8241,38.490,-90.487,2281
16092,Murphy,NC,Cherokee County,,city-us,1626,35.088,-84.035,15418
16096,Murphy,ID,Owyhee County,,city-us,223,43.218,-116.552,2285
16095,Murphy,OK,Mayes County,,city-us,129,36.147,-95.245,1828