id,name,state,county,country,level,population,latitude,longitude,wiki
16403,Mound City,MO,Holt County,,city-us,1005,40.131,-95.232,4917
16404,Mound City,KS,Linn County,,city-us,651,38.143,-94.814,4009
16405,Mound City,IL,Pulaski County,,city-us,524,37.085,-89.163,4581
16401,Mound City,SD,Campbell County,,city-us,67,45.725,-100.068,3062
16400,Mound City,TX,Anderson County,,city-us,0,31.577,-95.406,1261
16402,Mound City,AR,Crittenden County,,city-us,0,35.190,-90.129,1441