id,name,state,county,country,level,population,latitude,longitude,wiki
16506,Mount Sterling,KY,Montgomery County,,city-us,7545,38.056,-83.943,5827
16505,Mount Sterling,OH,Madison County,,city-us,1992,39.720,-83.265,5418
16503,Mount Sterling,WI,Crawford County,,city-us,186,43.315,-90.929,2983
16507,Mount Sterling,IA,Van Buren County,,city-us,25,40.618,-91.932,5736
16502,Mount Sterling,AL,Choctaw County,,city-us,0,32.094,-88.163,594
16504,Mount Sterling,MO,Gasconade County,,city-us,0,38.465,-91.627,950