id,name,state,county,country,level,population,latitude,longitude,wiki
30954,Newcastle,,,United Kingdom,city-international,300196,55.008,-1.658,8309
30953,Newcastle,,,Australia,city-international,152984,-32.917,151.750,42738
30947,Newcastle,WA,King County,,city-us,12969,47.539,-122.156,11784
30949,Newcastle,OK,McClain County,,city-us,12204,35.247,-97.600,8275
30951,Newcastle,WY,Weston County,,city-us,3204,43.855,-104.205,4927
48521,Newcastle,ME,Lincoln County,,city-us,1884,44.052,-69.568,5363
30950,Newcastle,CA,Placer County,,city-us,1224,38.874,-121.133,3578
30952,Newcastle,TX,Young County,,city-us,531,33.194,-98.739,2439
30946,Newcastle,UT,Iron County,,city-us,254,37.667,-113.549,1157