id,name,state,county,country,level,population,latitude,longitude,wiki
31109,Newtown,CT,Fairfield County,,city-us,27522,41.400,-73.294,17603
31099,Newtown,OH,Hamilton County,,city-us,2671,39.124,-84.362,4141
31092,Newtown,PA,Bucks County,,city-us,2274,40.229,-74.937,9632
31094,Newtown,SC,Dillon County,,city-us,882,34.407,-79.357,663
31106,Newtown,PA,Schuylkill County,,city-us,230,40.651,-76.348,1632
31097,Newtown,IN,Fountain County,,city-us,213,40.204,-87.148,3177
31107,Newtown,MO,Sullivan County,,city-us,114,40.376,-93.335,3350
31095,Newtown,CA,El Dorado County,,city-us,4,38.704,-120.679,518
31108,Newtown,IL,Vermilion County,,city-us,0,40.167,-87.769,876