id,name,state,county,country,level,population,latitude,longitude,wiki
31132,Nicholls,GA,Coffee County,,city-us,3205,31.517,-82.635,2638
31139,Nichols,NY,Tioga County,,city-us,467,42.022,-76.367,3761
31136,Nichols,IA,Muscatine County,,city-us,339,41.481,-91.308,6408
31137,Nichols,WI,Outagamie County,,city-us,287,44.563,-88.463,1949
31135,Nichols,SC,Marion County,,city-us,228,34.234,-79.149,3369
31134,Nichols,CA,Contra Costa County,,city-us,0,38.041,-121.988,509