id,name,state,county,country,level,population,latitude,longitude,wiki
48524,Niles,IL,Cook County,,city-us,110131,42.032,-87.758,18308
31166,Niles,OH,Trumbull County,,city-us,18367,41.183,-80.765,12412
31162,Niles,MI,Berrien County,,city-us,11876,41.835,-86.248,11453
31163,Niles,NY,Cayuga County,,city-us,1135,42.817,-76.404,3593
31165,Niles,KS,Ottawa County,,city-us,56,38.969,-97.463,527