id,name,state,county,country,level,population,latitude,longitude,wiki
31501,Northport,AL,Tuscaloosa County,,city-us,31009,33.229,-87.577,5299
31500,Northport,NY,Suffolk County,,city-us,7344,40.901,-73.343,14029
31502,Northport,ME,Waldo County,,city-us,1582,44.359,-68.990,4455
31497,Northport,MI,Leelanau County,,city-us,493,45.131,-85.617,8748
31503,Northport,WI,Waupaca County,,city-us,453,44.410,-88.794,270
31499,Northport,WA,Stevens County,,city-us,293,48.916,-117.782,11280