id,name,state,county,country,level,population,latitude,longitude,wiki
16834,Nevada,,,United States,state,3177772,38.502,-117.023,57956
16832,Nevada,MO,Vernon County,,city-us,8198,37.839,-94.355,9611
16830,Nevada,IA,Story County,,city-us,7057,42.023,-93.452,7894
16829,Nevada,TX,Collin County,,city-us,1331,33.042,-96.374,1635
16833,Nevada,OH,Wyandot County,,city-us,702,40.819,-83.130,3291
16831,Nevada,IN,Tipton County,,city-us,0,40.395,-86.004,866