id,name,state,county,country,level,population,latitude,longitude,wiki
16837,New Albany,IN,Floyd County,,city-us,37411,38.286,-85.824,15938
16838,New Albany,OH,Franklin County,,city-us,10854,40.083,-82.787,12432
16839,New Albany,MS,Union County,,city-us,7618,34.494,-89.008,6387
16836,New Albany,PA,Bradford County,,city-us,254,41.600,-76.442,2125
16840,New Albany,KS,Wilson County,,city-us,55,37.568,-95.938,3036