id,name,state,county,country,level,population,latitude,longitude,wiki
17023,Oak Ridge,TN,Anderson County,,city-us,31824,35.966,-84.291,33158
17029,Oak Ridge,FL,Orange County,,city-us,25062,28.475,-81.421,2070
17031,Oak Ridge,NJ,Morris County,,city-us,11013,41.031,-74.498,1046
17026,Oak Ridge,NC,Guilford County,,city-us,7595,36.173,-79.989,4181
17027,Oak Ridge,TX,Kaufman County,,city-us,887,32.657,-96.262,2276
17025,Oak Ridge,TX,Cooke County,,city-us,253,33.648,-97.038,2033
17024,Oak Ridge,MO,Cape Girardeau County,,city-us,237,37.501,-89.730,5333
17028,Oak Ridge,LA,Morehouse Parish,,city-us,124,32.624,-91.773,2082
17030,Oak Ridge,MO,Pemiscot County,,city-us,0,36.030,-89.842,517