id,name,state,county,country,level,population,latitude,longitude,wiki
31949,Oakwood,OH,Montgomery County,,city-us,9471,39.725,-84.174,9992
31946,Oakwood,GA,Hall County,,city-us,5373,34.228,-83.884,2611
31943,Oakwood,OH,Cuyahoga County,,city-us,3531,41.365,-81.508,3700
31948,Oakwood,PA,Lawrence County,,city-us,2227,41.011,-80.380,2924
31951,Oakwood,OH,Paulding County,,city-us,549,41.096,-84.380,3088
31945,Oakwood,TX,Freestone County,,city-us,394,31.585,-95.850,3085
31942,Oakwood,MO,Clay County,,city-us,199,39.202,-94.570,3162
31944,Oakwood,OK,Dewey County,,city-us,73,35.932,-98.705,1943