id,name,state,county,country,level,population,latitude,longitude,wiki
17121,Oasis,CA,Riverside County,,city-us,2790,33.466,-116.099,2226
17123,Oasis,WI,Waushara County,,city-us,387,44.201,-89.424,1918
17122,Oasis,NM,Sierra County,,city-us,96,32.925,-107.317,739
17118,Oasis,NV,Elko County,,city-us,36,41.029,-114.487,638
17120,Oasis,UT,Millard County,,city-us,29,39.294,-112.628,4353
17119,Oasis,IA,Johnson County,,city-us,0,41.706,-91.386,1563