id,name,state,county,country,level,population,latitude,longitude,wiki
32009,Odell,OR,Hood River County,,city-us,2328,45.630,-121.546,2614
32010,Odell,IL,Livingston County,,city-us,989,41.004,-88.525,9381
32008,Odell,NE,Gage County,,city-us,255,40.050,-96.803,3294
32011,Odell,IN,Tippecanoe County,,city-us,0,40.288,-87.074,605
32012,Odell,AR,Washington County,,city-us,0,35.773,-94.418,520
32013,Odell,TX,Wilbarger County,,city-us,0,34.346,-99.419,1704