id,name,state,county,country,level,population,latitude,longitude,wiki
17042,New Salem,ND,Morton County,,city-us,1011,46.845,-101.411,4166
17041,New Salem,MA,Franklin County,,city-us,997,42.459,-72.327,7501
17044,New Salem,PA,York County,,city-us,821,39.901,-76.789,2533
17040,New Salem,PA,Fayette County,,city-us,627,39.924,-79.836,741
17039,New Salem,KS,Cowley County,,city-us,58,37.311,-96.895,509
17043,New Salem,TX,Rusk County,,city-us,55,31.942,-94.960,1259