id,name,state,county,country,level,population,latitude,longitude,wiki
32051,Ogden,UT,Weber County,,city-us,86798,41.223,-111.974,21178
32047,Ogden,NY,Monroe County,,city-us,20293,43.170,-77.814,2512
32048,Ogden,NC,New Hanover County,,city-us,8613,34.272,-77.819,2780
32041,Ogden,IA,Boone County,,city-us,2001,42.039,-94.028,3674
48533,Ogden,IL,Champaign County,,city-us,1516,40.149,-87.972,6457
32046,Ogden,AR,Little River County,,city-us,129,33.583,-94.043,2280