id,name,state,county,country,level,population,latitude,longitude,wiki
32239,Olivet,TN,Hardin County,,city-us,1455,35.214,-88.200,411
32243,Olivet,NJ,Salem County,,city-us,1432,39.548,-75.155,2008
32237,Olivet,MI,Eaton County,,city-us,1431,42.441,-84.924,3207
32244,Olivet,IL,Vermilion County,,city-us,345,39.942,-87.644,187
48536,Olivet,KS,Osage County,,city-us,223,38.516,-95.731,3350
32240,Olivet,SD,Hutchinson County,,city-us,65,43.241,-97.675,3368