id,name,state,county,country,level,population,latitude,longitude,wiki
17207,Newtown,CT,Fairfield County,,city-us,27522,41.400,-73.294,17603
17203,Newtown,OH,Hamilton County,,city-us,2671,39.124,-84.362,4141
17199,Newtown,PA,Bucks County,,city-us,2274,40.229,-74.937,9632
17200,Newtown,SC,Dillon County,,city-us,882,34.407,-79.357,663
17204,Newtown,PA,Schuylkill County,,city-us,230,40.651,-76.348,1632
17202,Newtown,IN,Fountain County,,city-us,213,40.204,-87.148,3177
17205,Newtown,MO,Sullivan County,,city-us,114,40.376,-93.335,3350
17201,Newtown,CA,El Dorado County,,city-us,4,38.704,-120.679,518
17206,Newtown,IL,Vermilion County,,city-us,0,40.167,-87.769,876