id,name,state,county,country,level,population,latitude,longitude,wiki
32563,Osborne,KS,Osborne County,,city-us,1324,39.439,-98.695,7975
32561,Osborn,WI,Outagamie County,,city-us,1213,44.452,-88.342,1902
32557,Osborn,MO,Clinton County,,city-us,377,39.750,-94.357,3899
32558,Osborn,ME,Hancock County,,city-us,67,44.796,-68.245,2633
32560,Osborn,MS,Oktibbeha County,,city-us,0,33.521,-88.722,788