id,name,state,county,country,level,population,latitude,longitude,wiki
17394,Northampton,,,United Kingdom,city-international,212100,52.230,-0.894,57163
17390,Northampton,MA,Hampshire County,,city-us,29311,42.325,-72.641,27571
17392,Northampton,PA,Northampton County,,city-us,10363,40.686,-75.497,6238
17389,Northampton,NY,Fulton County,,city-us,2488,43.158,-74.171,4475
17393,Northampton,NY,Suffolk County,,city-us,1302,40.889,-72.690,2242
17391,Northampton,TX,Harris County,,city-us,0,42.325,-72.641,916