id,name,state,county,country,level,population,latitude,longitude,wiki
17849,Omaha,NE,Douglas County,,city-us,487300,41.259,-95.938,65789
17851,Omaha,GA,Stewart County,,city-us,1611,32.146,-85.013,2512
17852,Omaha,NE,Thurston County,,city-us,1032,42.147,-96.479,238
17850,Omaha,TX,Morris County,,city-us,936,33.181,-94.744,2080
17848,Omaha,AR,Boone County,,city-us,130,36.452,-93.189,5423