id,name,state,county,country,level,population,latitude,longitude,wiki
33311,Patton,PA,Cambria County,,city-us,1709,40.634,-78.650,3341
33288,Patten,ME,Penobscot County,,city-us,880,45.991,-68.493,5743
33279,Paton,IA,Greene County,,city-us,223,42.164,-94.255,3189
33310,Patton,MO,Bollinger County,,city-us,0,37.502,-90.013,2012
33317,Patton,CA,San Bernardino County,,city-us,0,34.136,-117.224,669
33318,Patton,AL,Walker County,,city-us,0,33.701,-87.455,1322