id,name,state,county,country,level,population,latitude,longitude,wiki
17983,Pembroke,MA,Plymouth County,,city-us,18410,42.068,-70.806,17934
17982,Pembroke,NH,Merrimack County,,city-us,7482,43.168,-71.439,6233
17980,Pembroke,NY,Genesee County,,city-us,4227,43.002,-78.385,4845
17984,Pembroke,NC,Robeson County,,city-us,2812,34.680,-79.195,6903
17978,Pembroke,GA,Bryan County,,city-us,2624,32.136,-81.622,3783
17981,Pembroke,VA,Giles County,,city-us,1136,37.320,-80.639,2285
17979,Pembroke,KY,Christian County,,city-us,852,36.776,-87.356,2404
17985,Pembroke,ME,Washington County,,city-us,799,44.917,-67.135,4490