id,name,state,county,country,level,population,latitude,longitude,wiki
18026,Peoria,AZ,Maricopa County,,city-us,194917,33.786,-112.308,13203
18029,Peoria,IL,Peoria County,,city-us,111666,40.694,-89.589,31900
18028,Peoria,OK,Ottawa County,,city-us,131,36.915,-94.670,3415
18025,Peoria,OR,Linn County,,city-us,103,44.449,-123.207,1134
18024,Peoria,CO,Arapahoe County,,city-us,53,39.680,-104.114,938
18027,Peoria,IN,Miami County,,city-us,0,40.719,-85.961,2772
18030,Peoria,OH,Union County,,city-us,0,40.314,-83.446,2038
18031,Peoria,MO,Washington County,,city-us,0,37.756,-90.884,518