id,name,state,county,country,level,population,latitude,longitude,wiki
18054,Otis,MA,Berkshire County,,city-us,1629,42.204,-73.085,7424
18055,Otis,ME,Hancock County,,city-us,681,44.722,-68.490,2960
18059,Otis,CO,Washington County,,city-us,521,40.149,-102.963,2397
18058,Otis,KS,Rush County,,city-us,297,38.535,-99.053,3886
18056,Otis,IN,LaPorte County,,city-us,0,41.599,-86.906,1312
18057,Otis,OR,Lincoln County,,city-us,0,45.024,-123.945,1854