id,name,state,county,country,level,population,latitude,longitude,wiki
18156,Phillips,WI,Price County,,city-us,1516,45.697,-90.400,4867
18154,Phillips,ME,Franklin County,,city-us,916,44.842,-70.370,6229
18155,Phillips,NE,Hamilton County,,city-us,321,40.897,-98.215,3194
18152,Phillips,OK,Coal County,,city-us,125,34.506,-96.220,2201
18153,Phillips,CA,El Dorado County,,city-us,18,38.818,-120.078,512