id,name,state,county,country,level,population,latitude,longitude,wiki
18207,Palestine,TX,Anderson County,,city-us,18756,31.762,-95.631,17765
18208,Palestine,IL,Crawford County,,city-us,1223,39.004,-87.613,2771
18211,Palestine,AR,St. Francis County,,city-us,489,34.972,-90.903,2218
18209,Palestine,OH,Darke County,,city-us,181,40.049,-84.743,2884
18210,Palestine,IN,Kosciusko County,,city-us,0,41.178,-85.950,526
18212,Palestine,WV,Wirt County,,city-us,0,39.030,-81.407,729