id,name,state,county,country,level,population,latitude,longitude,wiki
18601,Peoria,AZ,Maricopa County,,city-us,194917,33.786,-112.308,13203
18604,Peoria,IL,Peoria County,,city-us,111666,40.694,-89.589,31900
18599,Peoria,NE,Knox County,,city-us,139,42.656,-97.662,239
18603,Peoria,OK,Ottawa County,,city-us,131,36.915,-94.670,3415
18600,Peoria,OR,Linn County,,city-us,103,44.449,-123.207,1134
18598,Peoria,CO,Arapahoe County,,city-us,53,39.680,-104.114,938
18602,Peoria,IN,Miami County,,city-us,0,40.719,-85.961,2772
18605,Peoria,OH,Union County,,city-us,0,40.314,-83.446,2038
18606,Peoria,MO,Washington County,,city-us,0,37.756,-90.884,518