id,name,state,county,country,level,population,latitude,longitude,wiki
34853,Poland,,,,country,37991766,51.919,19.145,74076
34847,Poland,ME,Androscoggin County,,city-us,5966,44.048,-70.394,9456
34852,Poland,OH,Mahoning County,,city-us,2420,41.024,-80.615,5902
34849,Poland,NY,Chautauqua County,,city-us,2183,42.130,-79.121,3590
34851,Poland,NY,Herkimer County,,city-us,484,43.226,-75.061,3918
34848,Poland,WI,Brown County,,city-us,0,44.444,-87.826,565
34850,Poland,IN,Clay County,,city-us,0,39.444,-86.951,4127