id,name,state,county,country,level,population,latitude,longitude,wiki
18740,Phillipsburg,NJ,Warren County,,city-us,15291,40.694,-75.190,18619
18727,Philipsburg,PA,Centre County,,city-us,2780,40.896,-78.221,3557
18739,Phillipsburg,GA,Tift County,,city-us,1093,31.440,-83.519,1979
18728,Philipsburg,MT,Granite County,,city-us,847,46.332,-113.294,5020
18737,Phillipsburg,OH,Montgomery County,,city-us,495,39.904,-84.402,4548
18738,Phillipsburg,KS,Phillips County,,city-us,236,39.793,-99.352,6931
18736,Phillipsburg,MO,Laclede County,,city-us,165,37.554,-92.785,3166
18735,Phillipsburg,TX,Austin County,,city-us,0,30.095,-96.367,2366