id,name,state,county,country,level,population,latitude,longitude,wiki
18945,Pisgah,AL,Jackson County,,city-us,682,34.681,-85.848,2392
18944,Pisgah,IA,Harrison County,,city-us,252,41.831,-95.926,3208
18943,Pisgah,MO,Cooper County,,city-us,0,38.776,-92.649,578
18946,Pisgah,TX,Navarro County,,city-us,0,31.883,-96.491,935
18947,Pisgah,KY,Woodford County,,city-us,0,38.057,-84.655,501