id,name,state,county,country,level,population,latitude,longitude,wiki
35599,Putnam,CT,Windham County,,city-us,9227,41.908,-71.870,6796
35603,Putnam,NY,Washington County,,city-us,563,43.747,-73.418,4275
35598,Putnam,AL,Marengo County,,city-us,172,32.023,-88.031,836
35594,Putnam,TX,Callahan County,,city-us,65,32.371,-99.193,2571
35595,Putnam,OK,Dewey County,,city-us,28,35.856,-98.968,1929
35596,Putnam,KS,Harvey County,,city-us,0,37.969,-97.388,589
35600,Putnam,IL,Putnam County,,city-us,0,41.185,-89.396,514