id,name,state,county,country,level,population,latitude,longitude,wiki
19258,Pomona,CA,Los Angeles County,,city-us,148338,34.055,-117.752,21386
19255,Pomona,NJ,Atlantic County,,city-us,8340,39.478,-74.575,3133
19259,Pomona,NY,Rockland County,,city-us,3861,41.167,-74.043,2965
19256,Pomona,KS,Franklin County,,city-us,890,38.608,-95.452,4245
19257,Pomona,MO,Howell County,,city-us,251,36.867,-91.914,409