id,name,state,county,country,level,population,latitude,longitude,wiki
36079,Red Hill,SC,Horry County,,city-us,16060,33.778,-79.015,2436
36084,Red Hill,PA,Montgomery County,,city-us,2494,40.373,-75.481,2986
36078,Red Hill,PA,Blair County,,city-us,165,40.530,-78.435,374
36081,Red Hill,AL,Marshall County,,city-us,0,34.256,-86.424,823
36082,Red Hill,NC,Mitchell County,,city-us,0,36.022,-82.228,1008