id,name,state,county,country,level,population,latitude,longitude,wiki
19419,Powell,OH,Delaware County,,city-us,14286,40.158,-83.075,22307
19420,Powell,TN,Knox County,,city-us,13802,36.032,-84.028,4277
19424,Powell,WY,Park County,,city-us,6418,44.754,-108.757,6364
19418,Powell,AL,DeKalb County,,city-us,882,34.286,-85.749,2445
19423,Powell,TX,Navarro County,,city-us,101,32.118,-96.324,2117
19422,Powell,MO,McDonald County,,city-us,0,36.623,-94.181,2088