id,name,state,county,country,level,population,latitude,longitude,wiki
19431,Reserve,LA,St. John the Baptist Parish,,city-us,8688,30.054,-90.552,5104
19429,Reserve,WI,Sawyer County,,city-us,318,45.881,-91.387,1904
19428,Reserve,NM,Catron County,,city-us,301,33.713,-108.758,4542
19427,Reserve,KS,Brown County,,city-us,70,39.977,-95.562,3396
19430,Reserve,MT,Sheridan County,,city-us,31,48.606,-104.460,1925