id,name,state,county,country,level,population,latitude,longitude,wiki
19720,Racine,WI,Racine County,,city-us,77127,42.726,-87.783,24563
19717,Racine,OH,Meigs County,,city-us,680,38.971,-81.914,3426
19716,Racine,WV,Boone County,,city-us,492,38.142,-81.660,398
19718,Racine,MN,Mower County,,city-us,482,43.776,-92.483,2756
19719,Racine,MO,Newton County,,city-us,0,36.896,-94.527,1130