id,name,state,county,country,level,population,latitude,longitude,wiki
19752,Riverview,FL,Hillsborough County,,city-us,98928,27.866,-82.326,5747
19757,Riverview,MI,Wayne County,,city-us,12390,42.174,-83.179,5677
19755,Riverview,MO,St. Louis County,,city-us,2373,38.748,-90.212,2732
19753,Riverview,DE,Kent County,,city-us,2091,39.026,-75.511,2445
19759,Riverview,SC,York County,,city-us,1989,35.003,-80.980,1955
19754,Riverview,WI,Oconto County,,city-us,834,45.244,-88.446,2089
19758,Riverview,VA,Wise County,,city-us,618,36.935,-82.482,134
19751,Riverview,AL,Escambia County,,city-us,161,31.060,-87.060,2326
19756,Riverview,IN,Sullivan County,,city-us,0,39.200,-87.584,500