id,name,state,county,country,level,population,latitude,longitude,wiki
37148,Rock Island,IL,Rock Island County,,city-us,36636,41.509,-90.579,17617
37146,Rock Island,WA,Douglas County,,city-us,1378,47.377,-120.144,7195
37147,Rock Island,OK,Le Flore County,,city-us,732,35.182,-94.474,3306
37145,Rock Island,TX,Colorado County,,city-us,0,29.531,-96.575,1598
37149,Rock Island,TN,Warren County,,city-us,0,35.792,-85.613,2831