id,name,state,county,country,level,population,latitude,longitude,wiki
19910,Red Hill,SC,Horry County,,city-us,16060,33.778,-79.015,2436
19913,Red Hill,PA,Montgomery County,,city-us,2494,40.373,-75.481,2986
19909,Red Hill,PA,Blair County,,city-us,165,40.530,-78.435,374
19911,Red Hill,AL,Marshall County,,city-us,0,34.256,-86.424,823
19912,Red Hill,NC,Mitchell County,,city-us,0,36.022,-82.228,1008