id,name,state,county,country,level,population,latitude,longitude,wiki
37352,Rogers,AR,Benton County,,city-us,71112,36.332,-94.119,13115
37358,Rogers,MN,Hennepin County,,city-us,13398,45.189,-93.553,6218
37351,Rogers,TX,Bell County,,city-us,1104,30.932,-97.227,2669
37356,Rogers,OH,Columbiana County,,city-us,190,40.791,-80.626,5843
37355,Rogers,NE,Colfax County,,city-us,81,41.465,-96.915,3205
37350,Rogers,ND,Barnes County,,city-us,49,47.073,-98.200,2889
37359,Rogers,VA,Montgomery County,,city-us,0,37.088,-80.397,714