id,name,state,county,country,level,population,latitude,longitude,wiki
19934,Red Rock,AZ,Pinal County,,city-us,2625,32.575,-111.325,1771
19933,Red Rock,OK,Noble County,,city-us,252,36.459,-97.179,3508
19931,Red Rock,AZ,Apache County,,city-us,136,36.604,-109.061,721
19932,Red Rock,TX,Bastrop County,,city-us,0,29.960,-97.446,589
19935,Red Rock,AZ,Yavapai County,,city-us,0,34.825,-111.809,848