id,name,state,county,country,level,population,latitude,longitude,wiki
20057,Rose Hill,VA,Fairfax County,,city-us,21466,38.789,-77.113,6282
20055,Rose Hill,KS,Butler County,,city-us,4269,37.558,-97.135,4884
20056,Rose Hill,NC,Duplin County,,city-us,1364,34.828,-78.023,2712
20061,Rose Hill,VA,Lee County,,city-us,705,36.672,-83.367,3483
20062,Rose Hill,IA,Mahaska County,,city-us,158,41.322,-92.462,2893
20059,Rose Hill,IL,Jasper County,,city-us,84,39.104,-88.147,1968
20058,Rose Hill,TX,Harris County,,city-us,0,30.071,-95.704,685
20060,Rose Hill,MS,Jasper County,,city-us,0,32.145,-88.996,646