id,name,state,county,country,level,population,latitude,longitude,wiki
20038,Republic,MO,Christian County,,city-us,19136,37.169,-93.413,8352
20039,Republic,PA,Fayette County,,city-us,1172,39.963,-79.877,2435
20040,Republic,WA,Ferry County,,city-us,1060,48.648,-118.738,11182
20043,Republic,OH,Seneca County,,city-us,548,41.122,-83.016,4408
20041,Republic,MI,Marquette County,,city-us,470,46.407,-87.976,2909
20042,Republic,KS,Republic County,,city-us,83,39.924,-97.822,3557
20037,Republic,IA,Chickasaw County,,city-us,0,42.951,-92.397,1126