id,name,state,county,country,level,population,latitude,longitude,wiki
20085,Roseland,NJ,Essex County,,city-us,6219,40.821,-74.294,12084
20087,Roseland,OH,Richland County,,city-us,1840,40.789,-82.543,447
20086,Roseland,FL,Indian River County,,city-us,1591,27.835,-80.489,2722
20089,Roseland,LA,Tangipahoa Parish,,city-us,896,30.765,-90.512,2544
20088,Roseland,IN,St. Joseph County,,city-us,851,41.716,-86.253,4027
20083,Roseland,NE,Adams County,,city-us,259,40.470,-98.559,3186
20084,Roseland,KS,Cherokee County,,city-us,73,37.281,-94.851,2902