id,name,state,county,country,level,population,latitude,longitude,wiki
40954,St. Anthony,MN,Hennepin County,,city-us,9007,45.030,-93.215,6817
40953,St. Anthony,ID,Fremont County,,city-us,3752,43.966,-111.682,7588
40956,St. Anthony,MN,Stearns County,,city-us,92,45.687,-94.612,3069
40955,St. Anthony,IA,Marshall County,,city-us,77,42.122,-93.195,3073
38156,Saint Anthony,MO,Miller County,,city-us,0,38.156,-92.274,508
38158,Saint Anthony,ND,Morton County,,city-us,0,46.617,-100.913,1243