id,name,state,county,country,level,population,latitude,longitude,wiki
20482,Robinson,TX,McLennan County,,city-us,12755,31.468,-97.115,2350
20480,Robinson,PA,Indiana County,,city-us,457,40.404,-79.139,310
20478,Robinson,KS,Brown County,,city-us,372,39.820,-95.390,482
20481,Robinson,ND,Kidder County,,city-us,31,47.143,-99.781,3101
20479,Robinson,IA,Delaware County,,city-us,0,42.342,-91.579,1075