id,name,state,county,country,level,population,latitude,longitude,wiki
20642,Rocky Point,NY,Suffolk County,,city-us,13406,40.953,-72.925,3432
20638,Rocky Point,WA,Kitsap County,,city-us,1474,47.593,-122.668,730
20641,Rocky Point,NC,Pender County,,city-us,1220,34.435,-77.888,1918
20640,Rocky Point,MT,Lake County,,city-us,129,47.735,-114.180,1973
20639,Rocky Point,OR,Klamath County,,city-us,0,42.481,-122.084,3477