id,name,state,county,country,level,population,latitude,longitude,wiki
38525,Sand Lake,NY,Rensselaer County,,city-us,8385,42.630,-73.543,8941
38521,Sand Lake,MI,Iosco County,,city-us,1412,44.329,-83.666,573
38526,Sand Lake,WI,Sawyer County,,city-us,926,45.817,-91.470,2050
38520,Sand Lake,WI,Burnett County,,city-us,591,45.864,-92.228,2089
38523,Sand Lake,MI,Kent County,,city-us,469,43.292,-85.518,4930