id,name,state,county,country,level,population,latitude,longitude,wiki
20858,Rossville,MD,Baltimore County,,city-us,15633,39.338,-76.480,1959
20864,Rossville,GA,Walker County,,city-us,3984,34.983,-85.286,2962
20862,Rossville,KS,Shawnee County,,city-us,1894,39.162,-95.966,3847
20859,Rossville,IN,Clinton County,,city-us,1504,40.417,-86.595,4388
20863,Rossville,IL,Vermilion County,,city-us,1203,40.379,-87.669,4220
20860,Rossville,TN,Fayette County,,city-us,1100,35.048,-89.543,3836
20857,Rossville,TX,Atascosa County,,city-us,0,29.091,-98.681,2936
20861,Rossville,OK,Lincoln County,,city-us,0,35.594,-96.999,708