id,name,state,county,country,level,population,latitude,longitude,wiki
39029,Seabrook,NJ,Cumberland County,,city-us,46872,39.502,-75.219,2153
39031,Seabrook,MD,Prince George's County,,city-us,19558,38.968,-76.845,4583
39028,Seabrook,TX,Chambers County,,city-us,13560,29.595,-94.988,12269
39032,Seabrook,NH,Rockingham County,,city-us,8437,42.883,-70.861,4098
39027,Seabrook,SC,Beaufort County,,city-us,1255,32.528,-80.766,1503
39026,Seabrook,MA,Barnstable County,,city-us,606,41.583,-70.499,2479