id,name,state,county,country,level,population,latitude,longitude,wiki
21081,Rye,NY,Westchester County,,city-us,48845,41.006,-73.688,6721
21080,Rye,NH,Rockingham County,,city-us,5554,43.033,-70.719,8052
21079,Rye,CO,Pueblo County,,city-us,206,37.924,-104.930,3827
21077,Rye,AR,Cleveland County,,city-us,191,33.746,-91.998,489
21078,Rye,FL,Manatee County,,city-us,0,27.514,-82.368,2169