id,name,state,county,country,level,population,latitude,longitude,wiki
39278,Shady Grove,OK,McIntosh County,,city-us,532,35.493,-95.416,2236
39258,Shady Grove,OK,Cherokee County,,city-us,493,35.944,-95.095,2411
39257,Shady Grove,IA,Buchanan County,,city-us,0,42.377,-92.055,2402
39259,Shady Grove,TX,Cherokee County,,city-us,0,31.846,-95.024,885
39271,Shady Grove,TX,Houston County,,city-us,0,31.234,-95.324,1688
39274,Shady Grove,TN,Jefferson County,,city-us,0,35.978,-83.484,857