id,name,state,county,country,level,population,latitude,longitude,wiki
21333,Sanborn,IA,O'Brien County,,city-us,1393,43.182,-95.656,3674
21330,Sanborn,WI,Ashland County,,city-us,1331,46.433,-90.909,2983
21332,Sanborn,NY,Niagara County,,city-us,1277,43.137,-78.885,730
21334,Sanborn,MN,Redwood County,,city-us,323,44.210,-95.129,3333
21331,Sanborn,ND,Barnes County,,city-us,161,46.942,-98.224,3167