id,name,state,county,country,level,population,latitude,longitude,wiki
42345,Sydney,,,Australia,city-international,4840600,-33.865,151.209,96685
39793,Sidney,OH,Shelby County,,city-us,20421,40.284,-84.156,16332
39779,Sidney,NE,Cheyenne County,,city-us,6439,41.143,-102.978,6163
39791,Sidney,MT,Richland County,,city-us,6197,47.717,-104.156,7427
39782,Sidney,NY,Delaware County,,city-us,5521,42.307,-75.276,4704
39785,Sidney,ME,Kennebec County,,city-us,4724,44.438,-69.756,3404
39787,Sidney,MI,Montcalm County,,city-us,2563,43.248,-85.131,2857
39783,Sidney,IA,Fremont County,,city-us,1052,40.748,-95.647,3789
39792,Sidney,AR,Sharp County,,city-us,196,36.003,-91.660,1846
39786,Sidney,IN,Kosciusko County,,city-us,129,41.106,-85.744,3084
39781,Sidney,TX,Comanche County,,city-us,0,31.949,-98.737,1226