id,name,state,county,country,level,population,latitude,longitude,wiki
21339,Simms,OK,Muskogee County,,city-us,489,35.384,-95.199,1869
21351,Sims,NC,Wilson County,,city-us,321,35.761,-78.059,2461
21338,Simms,MT,Cascade County,,city-us,310,47.492,-111.928,3044
21350,Sims,IL,Wayne County,,city-us,166,38.360,-88.531,1519
21349,Sims,IN,Grant County,,city-us,97,40.500,-85.855,670
21337,Simms,TX,Bowie County,,city-us,0,33.350,-94.507,1079