id,name,state,county,country,level,population,latitude,longitude,wiki
22092,Silver City,NM,Grant County,,city-us,9578,32.770,-108.280,21965
22093,Silver City,NC,Hoke County,,city-us,771,34.996,-79.226,2336
22096,Silver City,IA,Mills County,,city-us,245,41.113,-95.637,4045
22094,Silver City,MS,Humphreys County,,city-us,217,33.097,-90.497,2477
22095,Silver City,NV,Lyon County,,city-us,155,39.264,-119.641,1258
22097,Silver City,SD,Pennington County,,city-us,0,44.084,-103.564,1178
22098,Silver City,CA,Tulare County,,city-us,0,36.466,-118.646,1896