id,name,state,county,country,level,population,latitude,longitude,wiki
21944,St. Joseph,MO,Buchanan County,,city-us,71602,39.769,-94.847,17336
21950,St. Joseph,WI,St. Croix County,,city-us,4248,45.047,-92.691,3338
21951,St. Joseph,LA,Tensas Parish,,city-us,817,31.918,-91.233,9866
21948,St. Joseph,TN,Lawrence County,,city-us,803,35.036,-87.507,3112
21947,St. Joseph,WI,La Crosse County,,city-us,503,43.786,-91.042,1411
21952,St. Joseph,KY,Daviess County,,city-us,265,37.694,-87.325,182
21946,St. Joseph,IA,Kossuth County,,city-us,70,42.913,-94.227,1868
21945,St. Joseph,KS,Cloud County,,city-us,0,39.510,-97.406,745
21949,St. Joseph,FL,Pasco County,,city-us,0,28.376,-82.287,2904