id,name,state,county,country,level,population,latitude,longitude,wiki
41049,St. John,IN,Lake County,,city-us,21448,41.450,-87.470,5201
41053,St. John,MO,St. Louis County,,city-us,6588,38.715,-90.346,3538
48621,St. John,KS,Stafford County,,city-us,1197,38.002,-98.760,4382
41055,St. John,WA,Whitman County,,city-us,594,47.092,-117.582,3842
41052,St. John,ND,Rolette County,,city-us,321,48.944,-99.711,3401