id,name,state,county,country,level,population,latitude,longitude,wiki
22148,Simpson,PA,Lackawanna County,,city-us,1239,41.592,-75.485,1809
22150,Simpson,LA,Vernon Parish,,city-us,557,31.246,-93.015,2117
22149,Simpson,NC,Pitt County,,city-us,392,35.575,-77.279,1948
22146,Simpson,KS,Cloud County,,city-us,81,39.386,-97.934,3342
22147,Simpson,IL,Johnson County,,city-us,49,37.467,-88.755,2104