id,name,state,county,country,level,population,latitude,longitude,wiki
22441,Southport,NY,Chemung County,,city-us,9515,42.050,-76.877,3592
22440,Southport,NC,Brunswick County,,city-us,4124,33.922,-78.020,7480
22444,Southport,IN,Marion County,,city-us,2092,39.665,-86.128,4200
22442,Southport,CT,Fairfield County,,city-us,1719,41.135,-73.287,11218
22443,Southport,ME,Lincoln County,,city-us,632,43.813,-69.663,5121
22439,Southport,FL,Bay County,,city-us,0,30.289,-85.641,798