id,name,state,county,country,level,population,latitude,longitude,wiki
48629,Stonington,CT,Southeastern Connecticut ,,city-us,18427,41.364,-71.911,10211
41617,Stonington,ME,Hancock County,,city-us,1070,44.150,-68.645,8892
48628,Stonington,IL,Christian County,,city-us,1034,39.655,-89.195,2511
41619,Stonington,CT,New London County,,city-us,990,41.335,-71.899,10211
41615,Stonington,CO,Baca County,,city-us,0,37.294,-102.187,813