id,name,state,county,country,level,population,latitude,longitude,wiki
22341,Strawberry,CA,Marin County,,city-us,5371,37.897,-122.509,7442
22339,Strawberry,AZ,Gila County,,city-us,935,34.408,-111.493,2808
22340,Strawberry,AR,Lawrence County,,city-us,265,35.968,-91.321,2625
22342,Strawberry,CA,Tuolumne County,,city-us,125,38.198,-120.009,2819
22337,Strawberry,UT,Duchesne County,,city-us,0,40.155,-110.576,6742
22338,Strawberry,CA,El Dorado County,,city-us,0,38.797,-120.145,592