id,name,state,county,country,level,population,latitude,longitude,wiki
22686,Springville,UT,Utah County,,city-us,36135,40.165,-111.611,9470
22683,Springville,AL,St. Clair County,,city-us,4935,33.775,-86.472,4376
22680,Springville,NY,Erie County,,city-us,4204,42.508,-78.667,5573
22687,Springville,WI,Vernon County,,city-us,1314,43.584,-90.940,205
22679,Springville,WI,Adams County,,city-us,1303,43.778,-89.788,2115
22684,Springville,VA,Tazewell County,,city-us,1223,37.197,-81.403,447
22682,Springville,IA,Linn County,,city-us,1154,42.059,-91.443,3324
22685,Springville,CA,Tulare County,,city-us,480,36.130,-118.818,5309
22681,Springville,IN,LaPorte County,,city-us,0,41.676,-86.663,2020