id,name,state,county,country,level,population,latitude,longitude,wiki
48631,Sturgis,MI,St. Joseph County,,city-us,11025,41.799,-85.419,9663
41796,Sturgis,SD,Meade County,,city-us,7107,44.410,-103.509,6143
41799,Sturgis,KY,Union County,,city-us,1597,37.547,-87.984,3403
41797,Sturgis,MS,Oktibbeha County,,city-us,210,33.345,-89.045,3580
41795,Sturgis,OK,Cimarron County,,city-us,0,36.894,-102.070,691