id,name,state,county,country,level,population,latitude,longitude,wiki
41843,Sugar Grove,IL,Kane County,,city-us,9235,41.761,-88.444,4980
41847,Sugar Grove,VA,Smyth County,,city-us,789,36.776,-81.412,1965
41849,Sugar Grove,PA,Warren County,,city-us,552,41.983,-79.339,2430
41841,Sugar Grove,OH,Fairfield County,,city-us,429,39.626,-82.548,3329
41845,Sugar Grove,VA,Montgomery County,,city-us,0,37.102,-80.343,1074
41850,Sugar Grove,NC,Watauga County,,city-us,0,36.258,-81.788,1093