id,name,state,county,country,level,population,latitude,longitude,wiki
22781,St. John,IN,Lake County,,city-us,21448,41.450,-87.470,5201
22783,St. John,MO,St. Louis County,,city-us,6588,38.715,-90.346,3538
22784,St. John,KS,Stafford County,,city-us,978,38.037,-98.753,4382
22785,St. John,WA,Whitman County,,city-us,594,47.092,-117.582,3842
22782,St. John,ND,Rolette County,,city-us,321,48.944,-99.711,3401