id,name,state,county,country,level,population,latitude,longitude,wiki
22533,Sunnyside,WA,Yakima County,,city-us,16346,46.324,-120.009,10457
22530,Sunnyside,CA,Fresno County,,city-us,4468,36.749,-119.699,2271
22532,Sunnyside,GA,Ware County,,city-us,1290,31.239,-82.342,2541
22529,Sunnyside,OR,Clackamas County,,city-us,0,45.432,-122.557,2121
22531,Sunnyside,NV,Nye County,,city-us,0,38.423,-115.021,1107