id,name,state,county,country,level,population,latitude,longitude,wiki
22885,Stamford,CT,Fairfield County,,city-us,136309,41.080,-73.546,33254
22884,Stamford,TX,Haskell County,,city-us,2977,33.046,-99.597,13588
22882,Stamford,NY,Delaware County,,city-us,1993,42.339,-74.666,2492
22881,Stamford,VT,Bennington County,,city-us,864,42.808,-73.076,2549
22883,Stamford,NE,Harlan County,,city-us,162,40.133,-99.593,3397