id,name,state,county,country,level,population,latitude,longitude,wiki
42329,Sycamore,IL,DeKalb County,,city-us,18580,41.989,-88.687,11297
42342,Sycamore,OH,Wyandot County,,city-us,788,40.950,-83.171,3262
42341,Sycamore,GA,Turner County,,city-us,764,31.674,-83.637,2421
42330,Sycamore,OK,Delaware County,,city-us,224,36.405,-94.713,1850
42334,Sycamore,KY,Jefferson County,,city-us,165,38.247,-85.561,1978
42325,Sycamore,SC,Allendale County,,city-us,147,33.036,-81.222,2116
42336,Sycamore,KS,Montgomery County,,city-us,70,37.327,-95.716,1031
42337,Sycamore,MO,Ozark County,,city-us,0,36.703,-92.274,761
42340,Sycamore,AL,Talladega County,,city-us,0,33.251,-86.203,619