id,name,state,county,country,level,population,latitude,longitude,wiki
22938,Star,ID,Ada County,,city-us,12912,43.701,-116.491,4048
22941,Star,NC,Montgomery County,,city-us,812,35.402,-79.784,6946
22968,Starr,KS,Cloud County,,city-us,550,39.347,-97.426,356
22967,Starr,SC,Anderson County,,city-us,167,34.377,-82.696,2509
22939,Star,KS,Coffey County,,city-us,154,38.229,-95.593,346
22940,Star,TX,Mills County,,city-us,0,31.469,-98.316,2085
22942,Star,MS,Rankin County,,city-us,0,32.094,-90.046,1733