id,name,state,county,country,level,population,latitude,longitude,wiki
42633,Temple,TX,Bell County,,city-us,85416,31.098,-97.343,12468
42635,Temple,GA,Carroll County,,city-us,5623,33.733,-85.027,2753
42634,Temple,PA,Berks County,,city-us,2092,40.409,-75.922,410
42640,Temple,NH,Hillsborough County,,city-us,1377,42.827,-71.875,3818
42637,Temple,OK,Cotton County,,city-us,841,34.272,-98.236,2427
42639,Temple,ME,Franklin County,,city-us,538,44.697,-70.267,5076