id,name,state,county,country,level,population,latitude,longitude,wiki
42589,Taylorsville,UT,Salt Lake County,,city-us,59242,40.668,-111.939,26393
42582,Taylorsville,NC,Alexander County,,city-us,2320,35.922,-81.176,4712
42591,Taylorsville,KY,Spencer County,,city-us,1268,38.032,-85.342,3536
42590,Taylorsville,MS,Smith County,,city-us,1130,31.830,-89.428,6119
42583,Taylorsville,IN,Bartholomew County,,city-us,668,39.296,-85.951,2095
42584,Taylorsville,GA,Bartow County,,city-us,253,34.085,-84.986,3822
42588,Taylorsville,CA,Plumas County,,city-us,29,40.075,-120.840,3918
42585,Taylorsville,TX,Caldwell County,,city-us,0,29.896,-97.498,1333