id,name,state,county,country,level,population,latitude,longitude,wiki
42799,Thomaston,GA,Upson County,,city-us,9761,32.888,-84.327,5795
42798,Thomaston,CT,New Haven County,,city-us,7453,41.665,-73.096,4975
42794,Thomaston,ME,Knox County,,city-us,2782,44.108,-69.171,8599
42797,Thomaston,NY,Nassau County,,city-us,2750,40.786,-73.714,8013
42796,Thomaston,AL,Marengo County,,city-us,325,32.267,-87.625,3609
42792,Thomaston,TX,DeWitt County,,city-us,0,28.997,-97.155,812