id,name,state,county,country,level,population,latitude,longitude,wiki
42821,Thompson,NY,Sullivan County,,city-us,16821,41.647,-74.677,3023
42819,Thompson,CT,Windham County,,city-us,9226,41.990,-71.867,8184
42814,Thompson,ND,Grand Forks County,,city-us,1101,47.774,-97.110,4719
42824,Thompson,IA,Winnebago County,,city-us,500,43.371,-93.774,8025
42813,Thompson,OH,Geauga County,,city-us,0,41.690,-81.051,542