id,name,state,county,country,level,population,latitude,longitude,wiki
44158,Valley Falls,RI,Providence County,,city-us,12064,41.907,-71.391,2650
44160,Valley Falls,SC,Spartanburg County,,city-us,7583,35.016,-81.975,2101
44156,Valley Falls,KS,Jefferson County,,city-us,1086,39.343,-95.460,4713
44159,Valley Falls,NY,Rensselaer County,,city-us,459,42.903,-73.563,3666
44157,Valley Falls,OR,Lake County,,city-us,0,42.484,-120.282,5019