id,name,state,county,country,level,population,latitude,longitude,wiki
24758,Versailles,KY,Woodford County,,city-us,10431,38.053,-84.730,5499
24754,Versailles,OH,Darke County,,city-us,2693,40.223,-84.484,4637
24755,Versailles,MO,Morgan County,,city-us,2536,38.431,-92.841,4374
24756,Versailles,IN,Ripley County,,city-us,2167,39.072,-85.252,4034
24753,Versailles,PA,Allegheny County,,city-us,1458,40.316,-79.831,3200
24757,Versailles,LA,St. Bernard Parish,,city-us,0,29.948,-89.961,6014