id,name,state,county,country,level,population,latitude,longitude,wiki
45713,Weaver,AL,Calhoun County,,city-us,3401,33.752,-85.811,3127
46361,Wever,IA,Lee County,,city-us,101,40.711,-91.231,3389
45714,Weaver,IL,Clark County,,city-us,0,39.418,-87.599,695
45716,Weaver,IN,Grant County,,city-us,0,40.465,-85.729,5568
45719,Weaver,MN,Wabasha County,,city-us,0,44.215,-91.929,862