id,name,state,county,country,level,population,latitude,longitude,wiki
45667,Wayne,NJ,Passaic County,,city-us,54306,40.946,-74.245,27059
45672,Wayne,MI,Wayne County,,city-us,17481,42.281,-83.386,8215
45673,Wayne,NE,Wayne County,,city-us,5990,42.231,-97.018,3767
45659,Wayne,IL,DuPage County,,city-us,2263,41.947,-88.253,16100
45670,Wayne,WI,Washington County,,city-us,2182,43.514,-88.321,4027
45674,Wayne,WV,Wayne County,,city-us,1423,38.221,-82.442,6955
45661,Wayne,ME,Kennebec County,,city-us,1134,44.342,-70.068,3953
45669,Wayne,NY,Steuben County,,city-us,997,42.432,-77.140,5103
45675,Wayne,OH,Wood County,,city-us,843,41.301,-83.474,3670
45665,Wayne,OK,McClain County,,city-us,635,34.918,-97.314,2830
45662,Wayne,WI,Lafayette County,,city-us,481,42.548,-89.889,2277
45657,Wayne,PA,Delaware County,,city-us,0,40.044,-75.388,7130