id,name,state,county,country,level,population,latitude,longitude,wiki
45912,Welsh,LA,Jefferson Davis Parish,,city-us,3351,30.236,-92.823,1605
45808,Welch,WV,McDowell County,,city-us,1914,37.433,-81.585,10917
45805,Welch,OK,Craig County,,city-us,624,36.874,-95.096,6048
45806,Welch,TX,Dawson County,,city-us,210,32.926,-102.127,219
45913,Welsh,OH,Meigs County,,city-us,0,39.151,-82.173,921