id,name,state,county,country,level,population,latitude,longitude,wiki
45927,Wendell,NC,Wake County,,city-us,11570,35.781,-78.370,5811
45924,Wendell,ID,Gooding County,,city-us,2926,42.776,-114.704,3451
45923,Wendell,MA,Franklin County,,city-us,926,42.556,-72.407,4302
45925,Wendell,MN,Grant County,,city-us,167,46.036,-96.101,3043
45918,Wendel,CA,Lassen County,,city-us,0,40.348,-120.234,669
45920,Wendel,PA,Westmoreland County,,city-us,0,40.296,-79.686,557