id,name,state,county,country,level,population,latitude,longitude,wiki
24543,Wells,ME,York County,,city-us,11550,43.311,-70.633,9936
24538,Wells,MN,Faribault County,,city-us,2418,43.746,-93.729,4007
24537,Wells,NV,Elko County,,city-us,1243,41.112,-114.964,3370
24536,Wells,TX,Cherokee County,,city-us,867,31.489,-94.940,5633
24539,Wells,NY,Hamilton County,,city-us,684,43.476,-74.285,10091
24540,Wells,WI,Monroe County,,city-us,557,43.856,-90.731,1968
24542,Wells,VT,Rutland County,,city-us,451,43.417,-73.204,2925
24541,Wells,KS,Ottawa County,,city-us,45,39.139,-97.551,540