id,name,state,county,country,level,population,latitude,longitude,wiki
24992,Waldo,AR,Columbia County,,city-us,1143,33.352,-93.296,3845
24991,Waldo,FL,Alachua County,,city-us,840,29.790,-82.167,4922
24997,Waldo,ME,Waldo County,,city-us,815,44.466,-69.093,4261
24995,Waldo,WI,Sheboygan County,,city-us,474,43.675,-87.949,5771
24993,Waldo,OH,Marion County,,city-us,320,40.459,-83.077,3256
24996,Waldo,AL,Talladega County,,city-us,253,33.380,-86.027,1982
24994,Waldo,KS,Russell County,,city-us,93,39.053,-98.756,3276
24998,Waldo,MO,Webster County,,city-us,0,37.189,-92.745,535