id,name,state,county,country,level,population,latitude,longitude,wiki
25143,Warm Springs,OR,Jefferson County,,city-us,2435,44.760,-121.268,2766
25147,Warm Springs,CA,Riverside County,,city-us,1622,33.707,-117.334,2160
25144,Warm Springs,GA,Meriwether County,,city-us,534,32.890,-84.681,5733
25146,Warm Springs,AR,Randolph County,,city-us,47,36.480,-91.051,585
25141,Warm Springs,VA,Bath County,,city-us,0,38.046,-79.791,1620
25142,Warm Springs,MT,Deer Lodge County,,city-us,0,46.181,-112.785,1015
25145,Warm Springs,NV,Nye County,,city-us,0,38.191,-116.370,1029