id,name,state,county,country,level,population,latitude,longitude,wiki
24868,Wheeler,MI,Gratiot County,,city-us,2785,43.413,-84.444,2123
24874,Wheeler,TX,Wheeler County,,city-us,1462,35.445,-100.271,3233
24872,Wheeler,NY,Steuben County,,city-us,1134,42.437,-77.339,3368
24873,Wheeler,OR,Tillamook County,,city-us,436,45.689,-123.881,3632
24866,Wheeler,WI,Dunn County,,city-us,328,45.044,-91.909,3268
24867,Wheeler,WA,Grant County,,city-us,230,47.131,-119.172,360
24871,Wheeler,IN,Porter County,,city-us,217,41.512,-87.179,1152
24869,Wheeler,IL,Jasper County,,city-us,96,39.047,-88.316,1907
24870,Wheeler,AL,Lawrence County,,city-us,0,34.653,-87.250,653