id,name,state,county,country,level,population,latitude,longitude,wiki
46742,Whitman,MA,Plymouth County,,city-us,15279,42.079,-70.939,11747
46740,Whitman,WV,Logan County,,city-us,1250,37.813,-82.024,3605
47426,Wittmann,AZ,Maricopa County,,city-us,686,33.776,-112.528,3608
46739,Whitman,NE,Grant County,,city-us,0,42.042,-101.523,543
46741,Whitman,ND,Nelson County,,city-us,0,48.159,-98.120,976