id,name,state,county,country,level,population,latitude,longitude,wiki
25092,Willard,MO,Greene County,,city-us,6385,37.305,-93.429,5315
25093,Willard,OH,Huron County,,city-us,6183,41.053,-82.726,5383
25091,Willard,UT,Box Elder County,,city-us,2119,41.409,-112.036,4341
25094,Willard,WI,Rusk County,,city-us,525,45.329,-91.126,2195
25096,Willard,NM,Torrance County,,city-us,206,34.596,-106.034,2240
25095,Willard,KS,Shawnee County,,city-us,74,39.094,-95.943,4484