id,name,state,county,country,level,population,latitude,longitude,wiki
25102,Williams,CA,Colusa County,,city-us,5615,39.155,-122.149,4338
25100,Williams,AZ,Coconino County,,city-us,3267,35.249,-112.191,9805
25104,Williams,OR,Josephine County,,city-us,1102,42.219,-123.273,1718
25103,Williams,IA,Hamilton County,,city-us,305,42.488,-93.545,4352
25105,Williams,MN,Lake of the Woods County,,city-us,156,48.768,-94.955,3834
25106,Williams,IN,Lawrence County,,city-us,129,38.804,-86.647,2750
25101,Williams,SC,Colleton County,,city-us,96,33.035,-80.843,2012