id,name,state,county,country,level,population,latitude,longitude,wiki
25670,West Liberty,IA,Muscatine County,,city-us,3826,41.570,-91.264,14353
25669,West Liberty,KY,Morgan County,,city-us,3247,37.921,-83.260,7357
25668,West Liberty,OH,Logan County,,city-us,1766,40.252,-83.756,4163
25671,West Liberty,WV,Ohio County,,city-us,1548,40.170,-80.594,3249
25667,West Liberty,PA,Butler County,,city-us,328,41.007,-80.053,2097