id,name,state,county,country,level,population,latitude,longitude,wiki
25847,Westville,IN,LaPorte County,,city-us,5307,41.541,-86.901,4016
25844,Westville,NJ,Gloucester County,,city-us,4326,39.868,-75.132,10457
25848,Westville,IL,Vermilion County,,city-us,3120,40.042,-87.639,5202
25843,Westville,NY,Franklin County,,city-us,1689,44.941,-74.383,3695
25842,Westville,OK,Adair County,,city-us,1365,35.993,-94.568,5937
25845,Westville,FL,Holmes County,,city-us,264,30.775,-85.852,2284
25846,Westville,SC,Kershaw County,,city-us,0,34.457,-80.599,663