id,name,state,county,country,level,population,latitude,longitude,wiki
25376,Winthrop,MA,Suffolk County,,city-us,18505,42.376,-70.971,14818
25371,Winthrop,ME,Kennebec County,,city-us,6144,44.310,-69.963,11154
25374,Winthrop,MN,Sibley County,,city-us,1328,44.543,-94.366,3121
25369,Winthrop,IA,Buchanan County,,city-us,820,42.473,-91.734,3545
25373,Winthrop,WA,Okanogan County,,city-us,529,48.478,-120.186,4916
25375,Winthrop,NY,St. Lawrence County,,city-us,136,44.795,-74.787,869
25372,Winthrop,AR,Little River County,,city-us,116,33.832,-94.355,2342
25370,Winthrop,MO,Buchanan County,,city-us,0,39.560,-95.108,693
25377,Winthrop,IN,Warren County,,city-us,0,40.370,-87.234,790