id,name,state,county,country,level,population,latitude,longitude,wiki
25944,White Hall,AR,Jefferson County,,city-us,5578,34.274,-92.091,2769
25945,White Hall,AL,Lowndes County,,city-us,785,32.327,-86.712,2448
25946,White Hall,WV,Marion County,,city-us,705,39.421,-80.183,3019
25941,White Hall,VA,Albemarle County,,city-us,0,38.118,-78.661,978
25942,White Hall,TX,Bell County,,city-us,0,31.219,-97.430,925
25943,White Hall,VA,Frederick County,,city-us,0,39.291,-78.148,4153