id,name,state,county,country,level,population,latitude,longitude,wiki
25977,White Plains,NY,Westchester County,,city-us,59526,41.034,-73.763,30376
25976,White Plains,NC,Surry County,,city-us,1043,36.446,-80.633,2077
25975,White Plains,KY,Hopkins County,,city-us,828,37.184,-87.384,2588
25972,White Plains,AL,Calhoun County,,city-us,646,33.747,-85.689,553
25974,White Plains,GA,Greene County,,city-us,252,33.472,-83.035,2258
25973,White Plains,MD,Charles County,,city-us,0,38.590,-76.941,865