id,name,state,county,country,level,population,latitude,longitude,wiki
26059,Whitney,NV,Clark County,,city-us,45105,36.071,-115.084,4216
26063,Whitney,SC,Spartanburg County,,city-us,3676,34.984,-81.926,1141
26062,Whitney,TX,Hill County,,city-us,2033,31.952,-97.321,4209
26060,Whitney,NE,Dawes County,,city-us,59,42.783,-103.256,3275
26058,Whitney,OR,Baker County,,city-us,0,44.659,-118.291,1125
26061,Whitney,ID,Franklin County,,city-us,0,42.066,-111.838,924