id,name,state,county,country,level,population,latitude,longitude,wiki
26324,Windham,CT,New London County,,city-us,24362,41.714,-72.169,5928
26321,Windham,ME,Cumberland County,,city-us,18761,43.795,-70.405,7696
26323,Windham,NH,Rockingham County,,city-us,15938,42.811,-71.303,12232
26699,Wyndham,VA,Henrico County,,city-us,12143,37.698,-77.612,2072
26326,Windom,MN,Cottonwood County,,city-us,4816,43.866,-95.117,7998
26325,Windham,VT,Windham County,,city-us,457,43.174,-72.701,2650
26322,Windham,NY,Greene County,,city-us,273,42.307,-74.252,5682
26327,Windom,TX,Fannin County,,city-us,196,33.565,-95.999,2198
26328,Windom,KS,McPherson County,,city-us,93,38.384,-97.910,5216