id,name,state,county,country,level,population,latitude,longitude,wiki
26389,Winona,MN,Winona County,,city-us,25964,44.050,-91.639,15815
26386,Winona,MS,Montgomery County,,city-us,4339,33.482,-89.728,7441
26387,Winona,MO,Shannon County,,city-us,963,37.010,-91.323,3804
26388,Winona,TX,Smith County,,city-us,643,32.490,-95.167,643
26385,Winona,KS,Logan County,,city-us,245,39.048,-101.230,4069
26383,Winona,AZ,Coconino County,,city-us,0,35.205,-111.408,1481
26384,Winona,MI,Houghton County,,city-us,0,46.874,-88.907,1311