id,name,state,county,country,level,population,latitude,longitude,wiki
26463,Wolcott,CT,New Haven County,,city-us,16160,41.595,-72.969,7896
26464,Wolcott,NY,Wayne County,,city-us,3977,43.274,-76.766,5467
26465,Wolcott,IN,White County,,city-us,948,40.758,-87.042,5047
26462,Wolcott,VT,Lamoille County,,city-us,211,44.546,-72.458,3145
26461,Wolcott,CO,Eagle County,,city-us,0,39.703,-106.679,1596