id,name,state,county,country,level,population,latitude,longitude,wiki
26497,Woodbine,MD,Carroll County,,city-us,8124,39.361,-77.062,3098
26496,Woodbine,NJ,Cape May County,,city-us,2320,39.242,-74.815,12341
26500,Woodbine,IA,Harrison County,,city-us,1622,41.738,-95.703,3601
26495,Woodbine,GA,Camden County,,city-us,1068,30.964,-81.723,4339
26498,Woodbine,TX,Cooke County,,city-us,246,33.610,-97.016,1121
26499,Woodbine,KS,Dickinson County,,city-us,160,38.796,-96.959,5152