id,name,state,county,country,level,population,latitude,longitude,wiki
26553,Woodlawn,MD,Baltimore County,,city-us,42053,39.323,-76.728,4445
26556,Woodlawn,VA,Fairfax County,,city-us,22590,38.717,-77.133,591
26559,Woodlawn,MD,Prince George's County,,city-us,7819,38.950,-76.891,2606
26557,Woodlawn,OH,Hamilton County,,city-us,3888,39.252,-84.470,3197
26555,Woodlawn,VA,Carroll County,,city-us,2260,36.722,-80.823,4652
26552,Woodlawn,NC,Alamance County,,city-us,955,36.110,-79.295,1882
26558,Woodlawn,IL,Jefferson County,,city-us,607,38.330,-89.033,3014
26554,Woodlawn,KY,Campbell County,,city-us,214,39.093,-84.475,2151