phoneme,name,county,latitude,longitude
1324,Des Moines,Polk County,41.573,-93.610
0855,Cedar Rapids,Linn County,42.008,-91.644
1262,Davenport,Scott County,41.524,-90.578
5238,Waterloo,Black Hawk County,42.493,-92.343
0113,Ames,Story County,42.035,-93.620
1402,Dubuque,Dubuque County,42.501,-90.665
3056,Marion,Linn County,42.034,-91.598
3071,Marshalltown,Marshall County,42.049,-92.908
3087,Mason City,Cerro Gordo County,43.154,-93.201
1772,Fort Dodge,Webster County,42.497,-94.168
1012,Clinton,Clinton County,41.844,-90.189
2507,Johnston,Polk County,41.673,-93.698
0688,Burlington,Des Moines County,40.808,-91.113
3576,North Liberty,Johnson County,41.749,-91.598
0099,Altoona,Polk County,41.644,-93.465
2070,Grimes,Dallas County,41.678,-93.802
2419,Indianola,Warren County,41.358,-93.557
3535,Newton,Jasper County,41.700,-93.048
3598,Norwalk,Polk County,41.492,-93.702
0526,Boone,Boone County,42.060,-93.880
3716,Oskaloosa,Mahaska County,41.296,-92.644
4658,Spencer,Clay County,43.141,-95.144
3954,Pleasant Hill,Polk County,41.584,-93.520
3837,Pella,Mahaska County,41.405,-92.917
5249,Waverly,Bremer County,42.726,-92.475
0795,Carroll,Carroll County,42.066,-94.867
1651,Fairfield,Jefferson County,41.009,-91.963
3386,Mount Pleasant,Henry County,40.964,-91.558
1311,Denison,Crawford County,42.018,-95.355
0521,Bondurant,Polk County,41.701,-93.462
3854,Perry,Dallas County,41.839,-94.107
0997,Clear Lake,Cerro Gordo County,43.138,-93.379
1175,Creston,Union County,41.059,-94.361
2631,Knoxville,Marion County,41.321,-93.109
0897,Charles City,Floyd County,43.066,-92.672
5230,Washington,Washington County,41.299,-91.693
3462,Nevada,Story County,42.023,-93.452
0203,Atlantic,Cass County,41.404,-95.014
1525,Eldridge,Scott County,41.658,-90.585
0020,Adel,Dallas County,41.614,-94.017
3690,Orange City,Sioux County,43.007,-96.058
2410,Independence,Buchanan County,42.469,-91.889
0182,Asbury,Dubuque County,42.514,-90.752
3981,Polk City,Polk County,41.771,-93.713
4147,Red Oak,Montgomery County,41.010,-95.226
3713,Osceola,Clarke County,41.034,-93.766
1332,DeWitt,Clinton County,41.823,-90.538
4540,Sheldon,O'Brien County,43.180,-95.844
4661,Spirit Lake,Dickinson County,43.422,-95.102
0066,Algona,Kossuth County,43.070,-94.233
0870,Centerville,Appanoose County,40.734,-92.874
4957,Tiffin,Johnson County,41.706,-91.663
1952,Glenwood,Mills County,41.047,-95.743
5434,Windsor Heights,Polk County,41.598,-93.708
0921,Cherokee,Cherokee County,42.749,-95.552
3013,Manchester,Delaware County,42.484,-91.455
5157,Vinton,Benton County,42.169,-92.024
2149,Harlan,Shelby County,41.653,-95.326
4543,Shenandoah,Fremont County,40.758,-95.372
2383,Humboldt,Humboldt County,42.721,-94.215
2399,Huxley,Story County,41.895,-93.601
3390,Mount Vernon,Linn County,41.922,-91.417
2130,Hampton,Franklin County,42.742,-93.202
1755,Forest City,Hancock County,43.257,-93.637
0895,Chariton,Lucas County,41.014,-93.307
0781,Carlisle,Polk County,41.514,-93.497
2482,Jefferson,Greene County,42.015,-94.377
3314,Monticello,Jones County,42.238,-91.187
1172,Cresco,Howard County,43.381,-92.114
5302,West Liberty,Muscatine County,41.570,-91.264
3709,Osage,Mitchell County,43.284,-92.811
3487,New Hampton,Chickasaw County,43.059,-92.318
5404,Williamsburg,Iowa County,41.661,-92.009
3227,Milford,Dickinson County,43.325,-95.150
4966,Tipton,Cedar County,41.770,-91.128
4620,Solon,Johnson County,41.807,-91.494
4892,Tama,Tama County,41.967,-92.577
1872,Garner,Hancock County,43.102,-93.602
5429,Wilton,Cedar County,41.589,-91.025
1650,Fairfax,Linn County,41.919,-91.781
4564,Sibley,Osceola County,43.399,-95.752
2993,Madrid,Boone County,41.877,-93.823
0974,Clarion,Wright County,42.732,-93.733
0480,Bloomfield,Davis County,40.752,-92.415
1522,Eldora,Hardin County,42.361,-93.100
2377,Hudson,Black Hawk County,42.407,-92.455
0864,Center Point,Linn County,42.191,-91.785
2494,Jesup,Black Hawk County,42.475,-92.066
3278,Mitchellville,Jasper County,41.667,-93.366
5314,West Union,Fayette County,42.963,-91.808
3051,Marengo,Iowa County,41.798,-92.071
2382,Hull,Sioux County,43.189,-96.134
0813,Cascade,Dubuque County,42.302,-91.005
0359,Bellevue,Jackson County,42.259,-90.423
1574,Ely,Linn County,41.874,-91.585
4975,Toledo,Tama County,41.996,-92.577
0354,Belle Plaine,Benton County,41.897,-92.278
1061,Colfax,Jasper County,41.678,-93.245
2848,Lisbon,Linn County,41.921,-91.385
2692,Lake Mills,Winnebago County,43.419,-93.533
0200,Atkins,Benton County,41.997,-91.862
0093,Alta,Buena Vista County,42.674,-95.291
2051,Greenfield,Adair County,41.305,-94.461
3595,Northwood,Worth County,43.444,-93.221
0215,Audubon,Audubon County,41.718,-94.932
4832,Sumner,Bremer County,42.849,-92.097
1605,Epworth,Dubuque County,42.445,-90.932
3791,Parkersburg,Butler County,42.577,-92.787
3296,Monroe,Jasper County,41.522,-93.102
0606,Britt,Hancock County,43.098,-93.802
3643,Ogden,Boone County,42.039,-94.028
3498,New London,Henry County,40.927,-91.400
1319,Denver,Bremer County,42.671,-92.337
3971,Pocahontas,Pocahontas County,42.736,-94.669
1424,Durant,Cedar County,41.601,-90.914
2008,Granger,Dallas County,41.762,-93.824
2792,Leon,Decatur County,40.740,-93.748
4766,Stuart,Adair County,41.500,-94.318
2095,Guttenberg,Clayton County,42.786,-91.100
1678,Farley,Dubuque County,42.443,-91.006
2683,Lake City,Calhoun County,42.267,-94.734
4034,Prairie City,Jasper County,41.599,-93.235
3031,Manson,Calhoun County,42.529,-94.534
0230,Avoca,Pottawattamie County,41.477,-95.338
3962,Pleasantville,Marion County,41.386,-93.269
0490,Blue Grass,Muscatine County,41.510,-90.767
4169,Remsen,Plymouth County,42.815,-95.973
5469,Woodbine,Harrison County,41.738,-95.703
3374,Mount Ayr,Ringgold County,40.715,-94.235
5084,Urbana,Benton County,42.224,-91.874
4591,Slater,Boone County,41.881,-93.691
0008,Ackley,Franklin County,42.552,-93.052
2173,Hartley,O'Brien County,43.180,-95.477
0038,Akron,Plymouth County,42.829,-96.559
4999,Traer,Tama County,42.194,-92.465
3437,Nashua,Chickasaw County,42.950,-92.543
5187,Walcott,Muscatine County,41.587,-90.781
1123,Corning,Adams County,40.990,-94.741
1134,Corydon,Wayne County,40.757,-93.319
5276,Wellman,Washington County,41.464,-91.838
3626,Oakland,Pottawattamie County,41.309,-95.397
0621,Brooklyn,Poweshiek County,41.734,-92.445
0334,Bedford,Taylor County,40.667,-94.721
2330,Holstein,Ida County,42.489,-95.545
3295,Monona,Clayton County,43.052,-91.389
3024,Manning,Carroll County,41.909,-95.065
3312,Montezuma,Poweshiek County,41.586,-92.527
3772,Palo,Linn County,42.066,-91.795
4420,Sanborn,O'Brien County,43.182,-95.656
2876,Logan,Harrison County,41.643,-95.789
2604,Kingsley,Plymouth County,42.588,-95.968
4289,Roland,Story County,42.166,-93.502
2888,Lone Tree,Johnson County,41.488,-91.426
2790,Lenox,Adams County,40.883,-94.558
5495,Woodward,Boone County,41.853,-93.921
1104,Coon Rapids,Carroll County,41.875,-94.678
2757,Laurens,Pocahontas County,42.847,-94.852
0872,Central City,Linn County,42.204,-91.524
0983,Clarksville,Butler County,42.785,-92.668
1914,Gilbert,Story County,42.107,-93.650
3510,New Sharon,Mahaska County,41.470,-92.651
3023,Manly,Worth County,43.287,-93.202
0097,Alton,Sioux County,42.987,-96.011
5078,University Heights,Johnson County,41.655,-91.557
1694,Fayette,Fayette County,42.842,-91.802
5012,Tripoli,Bremer County,42.808,-92.258
0667,Buffalo,Scott County,41.456,-90.723
2695,Lake Park,Dickinson County,43.456,-95.321
1953,Glidden,Carroll County,42.057,-94.729
4684,Springville,Linn County,42.059,-91.443
3041,Mapleton,Monona County,42.166,-95.793
2700,Lake View,Sac County,42.302,-95.036
4536,Sheffield,Franklin County,42.893,-93.215
1097,Conrad,Grundy County,42.225,-92.875
1897,George,Lyon County,43.344,-96.002
3050,Marcus,Cherokee County,42.826,-95.808
4276,Rockwell,Cerro Gordo County,42.985,-93.192
4243,Riverside,Washington County,41.480,-91.581
4565,Sidney,Fremont County,40.748,-95.647
2475,Janesville,Black Hawk County,42.646,-92.462
4595,Sloan,Woodbury County,42.233,-96.228
1415,Dunlap,Crawford County,41.852,-95.602
5436,Winfield,Henry County,41.123,-91.441
3008,Malvern,Mills County,41.003,-95.585
0971,Clarence,Cedar County,41.889,-91.057
3159,Mechanicsville,Cedar County,41.904,-91.255
4883,Tabor,Fremont County,40.895,-95.674
2071,Griswold,Cass County,41.235,-95.137
2032,Greene,Butler County,42.897,-92.804
5251,Wayland,Henry County,41.147,-91.661
0298,Baxter,Jasper County,41.826,-93.152
1812,Fredericksburg,Chickasaw County,42.965,-92.200
1480,Eddyville,Mahaska County,41.159,-92.630
0082,Allison,Butler County,42.753,-92.795
5064,Underwood,Pottawattamie County,41.387,-95.677
1838,Fruitland,Muscatine County,41.356,-91.129
2724,Lansing,Allamakee County,43.362,-91.217
2301,Hinton,Plymouth County,42.628,-96.292
4047,Preston,Jackson County,42.050,-90.414
2764,Lawton,Woodbury County,42.479,-96.184
1275,De Soto,Dallas County,41.532,-94.010
1539,Elkhart,Polk County,41.792,-93.522
2433,Inwood,Lyon County,43.307,-96.432
4053,Princeton,Scott County,41.675,-90.340
3458,Neola,Pottawattamie County,41.449,-95.616
5311,West Point,Lee County,40.717,-91.450
1256,Danville,Des Moines County,40.864,-91.315
2289,Hills,Johnson County,41.554,-91.535
3527,Newell,Buena Vista County,42.606,-95.003
2766,Le Grand,Marshall County,42.007,-92.775
1488,Edgewood,Clayton County,42.644,-91.402
2573,Keota,Keokuk County,41.365,-91.953
2120,Hamburg,Fremont County,40.604,-95.658
0330,Beaverdale,Des Moines County,40.846,-91.208
1364,Donnellson,Lee County,40.643,-91.565
3103,Maxwell,Story County,41.892,-93.400
0174,Armstrong,Emmet County,43.396,-94.478
5138,Victor,Iowa County,41.731,-92.295
0025,Afton,Union County,41.027,-94.198
2374,Hubbard,Hardin County,42.306,-93.300
0737,Cambridge,Story County,41.898,-93.529
2892,Long Grove,Scott County,41.698,-90.583
5449,Winthrop,Buchanan County,42.473,-91.734
4472,Schleswig,Crawford County,42.165,-95.437
0013,Adair,Adair County,41.500,-94.644
4192,Riceville,Howard County,43.362,-92.553
2933,Lowden,Cedar County,41.858,-90.928
1521,Eldon,Wapello County,40.919,-92.223
3720,Ossian,Winneshiek County,43.146,-91.765
1271,Dayton,Webster County,42.261,-94.069
5290,West Bend,Kossuth County,42.960,-94.446
3169,Melbourne,Marshall County,41.941,-93.103
5107,Van Horne,Benton County,42.009,-92.091
3254,Milo,Warren County,41.292,-93.442
1239,Dakota City,Humboldt County,42.722,-94.197
5345,Wheatland,Clinton County,41.832,-90.838
0799,Carson,Pottawattamie County,41.237,-95.418
3019,Manilla,Crawford County,41.890,-95.232
4130,Raymond,Black Hawk County,42.469,-92.220
4269,Rockford,Floyd County,43.052,-92.949
0051,Alden,Hardin County,42.520,-93.376
3318,Montrose,Lee County,40.532,-91.415
5380,Whiting,Monona County,42.127,-96.149
4152,Redfield,Dallas County,41.589,-94.196
5203,Walnut,Pottawattamie County,41.477,-95.222
2170,Hartford,Warren County,41.459,-93.405
3346,Morning Sun,Louisa County,41.096,-91.258
4538,Shelby,Pottawattamie County,41.506,-95.449
1997,Grand Junction,Greene County,42.032,-94.241
2218,Hedrick,Keokuk County,41.173,-92.309
3134,McGregor,Clayton County,43.018,-91.183
3747,Oxford,Johnson County,41.723,-91.790
1447,Earlville,Delaware County,42.482,-91.272
5278,Wellsburg,Grundy County,42.459,-92.939
1616,Essex,Page County,40.834,-95.308
3193,Merrill,Plymouth County,42.720,-96.249
0467,Blairstown,Benton County,41.909,-92.084
2213,Hazleton,Buchanan County,42.621,-91.900
2708,Lakeside,Buena Vista County,42.621,-95.173
5121,Ventura,Cerro Gordo County,43.126,-93.478
1821,Fremont,Mahaska County,41.213,-92.435
1749,Fontanelle,Adair County,41.290,-94.562
1526,Elgin,Fayette County,42.957,-91.631
0296,Battle Creek,Ida County,42.316,-95.599
5195,Walker,Linn County,42.287,-91.781
0255,Bancroft,Kossuth County,43.293,-94.218
4738,Stanton,Montgomery County,40.982,-95.104
4797,Stratford,Hamilton County,42.270,-93.927
3663,Olin,Jones County,41.998,-91.142
5229,Washburn,Black Hawk County,42.412,-92.267
3419,Murray,Clarke County,41.042,-93.949
4691,St. Charles,Madison County,41.288,-93.809
1333,Dexter,Dallas County,41.518,-94.226
3334,Moravia,Appanoose County,40.892,-92.820
4522,Seymour,Wayne County,40.683,-93.121
1747,Fonda,Pocahontas County,42.581,-94.846
4739,Stanwood,Cedar County,41.893,-91.151
1408,Dumont,Butler County,42.752,-92.975
2353,Hopkinton,Delaware County,42.344,-91.248
1169,Crescent,Pottawattamie County,41.365,-95.858
1966,Goldfield,Wright County,42.736,-93.921
0028,Agency,Wapello County,40.995,-92.307
4855,Sutherland,O'Brien County,42.974,-95.498
2000,Grand Mound,Clinton County,41.824,-90.648
3366,Moulton,Appanoose County,40.686,-92.677
3259,Minden,Pottawattamie County,41.467,-95.543
2552,Kellogg,Jasper County,41.718,-92.907
2586,Keystone,Benton County,41.998,-92.197
0597,Brighton,Washington County,41.175,-91.820
1537,Elk Horn,Shelby County,41.592,-95.060
1683,Farmington,Van Buren County,40.640,-91.743
1448,Early,Sac County,42.461,-95.152
0970,Clermont,Fayette County,43.004,-91.652
3490,New Hartford,Butler County,42.567,-92.622
1030,Coalville,Webster County,42.445,-94.126
0158,Arcadia,Carroll County,42.087,-95.046
4094,Radcliffe,Hardin County,42.315,-93.434
0237,Badger,Webster County,42.614,-94.146
1304,Delmar,Clinton County,42.002,-90.607
5518,Wyoming,Jones County,42.059,-91.007
1924,Gilman,Marshall County,41.879,-92.789
4199,Richland,Keokuk County,41.186,-91.993
3703,Orleans,Dickinson County,43.447,-95.092
0904,Charter Oak,Crawford County,42.068,-95.592
3986,Pomeroy,Calhoun County,42.551,-94.684
5022,Truro,Madison County,41.210,-93.847
1558,Elma,Howard County,43.247,-92.436
0034,Ainsworth,Washington County,41.289,-91.552
1065,Collins,Story County,41.903,-93.306
5046,Twin Lakes,Calhoun County,42.485,-94.636
4488,Scranton,Greene County,42.022,-94.545
0575,Breda,Carroll County,42.182,-94.977
1555,Ellsworth,Hamilton County,42.313,-93.579
4940,Thompson,Winnebago County,43.371,-93.774
5382,Whittemore,Kossuth County,43.062,-94.427
1686,Farragut,Fremont County,40.722,-95.481
4354,Russell,Lucas County,40.982,-93.199
2748,Latimer,Franklin County,42.763,-93.368
5079,University Park,Mahaska County,41.287,-92.619
3108,Maynard,Fayette County,42.774,-91.882
3599,Norway,Benton County,41.903,-91.922
1217,Cumming,Warren County,41.483,-93.762
4728,Stacyville,Mitchell County,43.436,-92.782
0189,Ashton,Osceola County,43.311,-95.791
0049,Albion,Marshall County,42.112,-92.989
2006,Grandview,Louisa County,41.276,-91.188
2853,Little Rock,Lyon County,43.444,-95.883
0314,Beacon,Mahaska County,41.277,-92.680
1857,Galva,Ida County,42.507,-95.417
2198,Hawkeye,Fayette County,42.939,-91.950
1004,Klemme,Hancock County,43.007,-93.603
0080,Allerton,Wayne County,40.706,-93.365
2721,Lamont,Buchanan County,42.599,-91.642
2917,Lost Nation,Clinton County,41.964,-90.818
3066,Marquette,Clayton County,43.044,-91.178
1312,Denmark,Lee County,40.742,-91.338
0056,Alleman,Polk County,41.820,-93.612
1301,Delhi,Delaware County,42.430,-91.331
0170,Arlington,Fayette County,42.749,-91.671
0293,Batavia,Jefferson County,40.994,-92.167
2758,Lawler,Chickasaw County,43.071,-92.150
3225,Miles,Jackson County,42.048,-90.316
4382,Salem,Henry County,40.853,-91.620
0696,Burt,Kossuth County,43.197,-94.220
0302,Bayard,Guthrie County,41.852,-94.558
1581,Emerson,Mills County,41.017,-95.402
2783,Lehigh,Webster County,42.360,-94.052
4945,Thornton,Cerro Gordo County,42.945,-93.385
1446,Earling,Shelby County,41.776,-95.418
3943,Plainfield,Bremer County,42.847,-92.537
0901,Charlotte,Clinton County,41.960,-90.465
5287,Wesley,Kossuth County,43.088,-93.990
5065,Union,Hardin County,42.246,-93.065
3257,Milton,Van Buren County,40.673,-92.162
2860,Livermore,Humboldt County,42.869,-94.185
3499,New Market,Taylor County,40.731,-94.900
2968,Lynnville,Jasper County,41.578,-92.784
3516,New Vienna,Dubuque County,42.548,-91.114
5088,Vail,Crawford County,42.062,-95.200
4338,Royal,Clay County,43.066,-95.284
5505,Worthington,Dubuque County,42.396,-91.120
4241,Riverdale,Scott County,41.544,-90.458
2880,Lohrville,Calhoun County,42.270,-94.549
0815,Casey,Adair County,41.507,-94.521
0440,Birmingham,Van Buren County,40.879,-91.947
0728,Callender,Webster County,42.362,-94.296
3969,Plymouth,Cerro Gordo County,43.246,-93.123
3697,Orient,Adair County,41.203,-94.415
3215,Middletown,Des Moines County,40.828,-91.259
4736,Stanhope,Hamilton County,42.289,-93.796
2803,Lewis,Cass County,41.306,-95.083
2334,Holy Cross,Dubuque County,42.601,-90.996
0718,Calamus,Clinton County,41.826,-90.758
3090,Massena,Cass County,41.254,-94.768
1094,Conesville,Muscatine County,41.382,-91.350
4362,Ryan,Delaware County,42.351,-91.482
5182,Wahpeton,Dickinson County,43.366,-95.172
4429,Sandusky,Lee County,40.464,-91.387
4914,Templeton,Carroll County,41.918,-94.943
1875,Garrison,Benton County,42.144,-92.144
0383,Bennett,Cedar County,41.740,-90.974
2666,Lacona,Warren County,41.190,-93.383
1529,Elliott,Montgomery County,41.149,-95.164
3181,Menlo,Guthrie County,41.519,-94.404
3541,Nichols,Muscatine County,41.481,-91.308
3829,Pierson,Woodbury County,42.544,-95.868
0564,Brandon,Buchanan County,42.314,-92.002
3426,Mystic,Appanoose County,40.778,-92.944
3866,Peterson,Clay County,42.918,-95.344
2451,Irwin,Shelby County,41.792,-95.206
2551,Kelley,Story County,41.951,-93.665
1247,Danbury,Woodbury County,42.234,-95.722
2017,Granville,Sioux County,42.986,-95.874
1743,Floyd,Floyd County,43.128,-92.736
3267,Mingo,Jasper County,41.767,-93.284
5403,Williams,Hamilton County,42.488,-93.545
1707,Fertile,Worth County,43.264,-93.418
1769,Fort Atkinson,Winneshiek County,43.143,-91.933
2784,Lester,Lyon County,43.445,-96.333
3860,Persia,Harrison County,41.580,-95.568
4388,Salix,Woodbury County,42.308,-96.288
0615,Bronson,Woodbury County,42.411,-96.214
3362,Moscow,Muscatine County,41.575,-91.083
0963,Cincinnati,Appanoose County,40.631,-92.925
0999,Clearfield,Ringgold County,40.801,-94.483
1162,Crawfordsville,Washington County,41.215,-91.537
4778,Stockport,Van Buren County,40.858,-91.835
1680,Farmersburg,Clayton County,42.961,-91.368
2317,Holland,Grundy County,42.399,-92.800
3101,Maurice,Sioux County,42.966,-96.181
4187,Rhodes,Marshall County,41.926,-93.186
4214,Ridgeway,Winneshiek County,43.298,-91.988
4334,Rowley,Buchanan County,42.370,-91.844
2975,Macedonia,Pottawattamie County,41.193,-95.426
0404,Bertram,Linn County,41.950,-91.535
3003,Malcom,Poweshiek County,41.708,-92.559
1699,Fenton,Kossuth County,43.220,-94.431
2715,Lakota,Kossuth County,43.377,-94.094
2816,Libertyville,Jefferson County,40.958,-92.051
2157,Harpers Ferry,Allamakee County,43.201,-91.153
5519,Yale,Guthrie County,41.777,-94.358
0213,Auburn,Sac County,42.251,-94.878
4065,Pulaski,Davis County,40.697,-92.273
1307,Delta,Keokuk County,41.323,-92.330
2565,Kensett,Worth County,43.354,-93.210
3929,Pisgah,Harrison County,41.831,-95.926
1207,Crystal Lake,Hancock County,43.223,-93.792
2786,Leland,Winnebago County,43.337,-93.635
4244,Riverton,Fremont County,40.687,-95.569
1287,Deep River,Poweshiek County,41.580,-92.375
1294,Defiance,Shelby County,41.824,-95.343
2932,Low Moor,Clinton County,41.802,-90.355
1216,Cumberland,Cass County,41.274,-94.870
4573,Silver City,Mills County,41.113,-95.637
2959,Luxemburg,Dubuque County,42.603,-91.074
2580,Keswick,Keokuk County,41.453,-92.239
2654,La Motte,Jackson County,42.296,-90.621
2182,Harvey,Marion County,41.316,-92.924
1003,Cleghorn,Cherokee County,42.812,-95.713
3506,New Providence,Hardin County,42.281,-93.172
3775,Panama,Shelby County,41.726,-95.472
1786,Fostoria,Clay County,43.242,-95.156
3043,Marathon,Buena Vista County,42.862,-94.982
0239,Bagley,Guthrie County,41.846,-94.430
0094,Alta Vista,Chickasaw County,43.199,-92.417
2437,Ionia,Chickasaw County,43.034,-92.456
1225,Cushing,Woodbury County,42.465,-95.675
1285,Dedham,Carroll County,41.906,-94.822
0180,Arthur,Ida County,42.335,-95.347
0914,Chelsea,Tama County,41.919,-92.395
3812,Paton,Greene County,42.164,-94.255
1142,Coulter,Franklin County,42.737,-93.370
1814,Fredonia,Louisa County,41.285,-91.339
2031,Greeley,Delaware County,42.586,-91.342
1991,Grafton,Worth County,43.330,-93.069
2753,Laurel,Marshall County,41.884,-92.922
0106,Alvord,Lyon County,43.342,-96.301
2510,Joice,Worth County,43.363,-93.454
5174,Wadena,Fayette County,42.843,-91.657
5168,Volga,Clayton County,42.805,-91.541
1341,Dixon,Scott County,41.743,-90.782
2132,Hancock,Pottawattamie County,41.390,-95.362
2836,Linden,Dallas County,41.644,-94.269
3173,Melvin,Osceola County,43.287,-95.609
3315,Montour,Tama County,41.981,-92.715
3628,Oakville,Louisa County,41.100,-91.045
1412,Dundee,Delaware County,42.579,-91.547
3801,Parnell,Iowa County,41.583,-92.004
0556,Bradford,Franklin County,42.633,-93.245
2003,Grand River,Decatur County,40.819,-93.962
2470,Jamaica,Guthrie County,41.846,-94.310
2839,Lineville,Wayne County,40.581,-93.524
3330,Moorhead,Monona County,41.922,-95.851
2995,Magnolia,Harrison County,41.696,-95.877
4549,Sherrill,Dubuque County,42.604,-90.785
4045,Prescott,Adams County,41.023,-94.614
4117,Randolph,Fremont County,40.873,-95.566
5325,Westgate,Fayette County,42.770,-91.996
3316,Montpelier,Muscatine County,41.459,-90.807
4011,Portsmouth,Shelby County,41.650,-95.519
5458,Woden,Hancock County,43.233,-93.909
4617,Soldier,Monona County,41.985,-95.779
1516,Elberon,Tama County,42.006,-92.317
4599,Smithland,Woodbury County,42.229,-95.931
0274,Barnum,Webster County,42.509,-94.365
3752,Packwood,Jefferson County,41.133,-92.083
3331,Moorland,Webster County,42.442,-94.295
4779,Stockton,Muscatine County,41.591,-90.859
5109,Van Wert,Decatur County,40.870,-93.793
2940,Lucas,Lucas County,41.028,-93.460
3810,Patterson,Madison County,41.348,-93.880
1044,Coin,Page County,40.654,-95.230
0695,Burr Oak,Winneshiek County,43.458,-91.868
1865,Garden Grove,Decatur County,40.827,-93.607
0221,Aurora,Buchanan County,42.619,-91.728
0057,Alexander,Franklin County,42.806,-93.477
2291,Hillsboro,Henry County,40.837,-91.716
3373,Mount Auburn,Benton County,42.255,-92.093
4952,Thurman,Fremont County,40.820,-95.748
2195,Haverhill,Marshall County,41.945,-92.961
5201,Wallingford,Emmet County,43.320,-94.793
3191,Meriden,Cherokee County,42.795,-95.634
0892,Chapin,Franklin County,42.834,-93.222
4306,Rose Hill,Mahaska County,41.322,-92.462
2616,Kirkville,Wapello County,41.146,-92.504
3110,Maysville,Scott County,41.649,-90.717
4115,Randall,Hamilton County,42.238,-93.601
2185,Hastings,Mills County,41.023,-95.499
2765,Leighton,Mahaska County,41.337,-92.787
2161,Harris,Osceola County,43.445,-95.434
0594,Bridgewater,Adair County,41.245,-94.669
1339,Dickens,Clay County,43.131,-95.024
2955,Luther,Boone County,41.968,-93.819
4259,Rock Falls,Cerro Gordo County,43.207,-93.085
0729,Calumet,O'Brien County,42.946,-95.550
4675,Springbrook,Jackson County,42.164,-90.477
5291,West Chester,Washington County,41.339,-91.818
0604,Bristow,Butler County,42.774,-92.907
2886,Lone Rock,Kossuth County,43.219,-94.327
3614,Oak Hills,Des Moines County,40.760,-91.148
5472,Woodburn,Clarke County,41.012,-93.599
2233,Henderson,Mills County,41.141,-95.431
0571,Brayton,Audubon County,41.544,-94.924
3769,Palmer,Pocahontas County,42.631,-94.601
5262,Webb,Clay County,42.949,-95.012
1299,Delaware,Delaware County,42.475,-91.345
3496,New Liberty,Scott County,41.718,-90.879
0822,Castalia,Winneshiek County,43.112,-91.676
3238,Millersburg,Iowa County,41.573,-92.160
0932,Chester,Howard County,43.491,-92.360
1892,Geneva,Franklin County,42.676,-93.129
2191,Houghton,Lee County,40.784,-91.603
0969,Clare,Webster County,42.587,-94.346
2340,Homestead,Iowa County,41.759,-91.867
5272,Weldon,Decatur County,40.898,-93.735
1006,Clemons,Marshall County,42.114,-93.156
4849,Superior,Dickinson County,43.430,-94.946
5335,Westphalia,Shelby County,41.720,-95.395
1804,Franklin,Lee County,40.668,-91.511
2194,Havelock,Pocahontas County,42.836,-94.701
3294,Monmouth,Jackson County,42.077,-90.880
5152,Vincent,Webster County,42.592,-94.020
4622,Somers,Calhoun County,42.378,-94.430
4660,Sperry,Des Moines County,40.957,-91.157
2124,Hamilton,Marion County,41.169,-92.903
2741,Larrabee,Cherokee County,42.861,-95.545
2773,Ledyard,Kossuth County,43.422,-94.162
2826,Lincoln,Tama County,42.263,-92.692
3277,Mitchell,Mitchell County,43.322,-92.868
5281,Welton,Clinton County,41.908,-90.595
5323,Westfield,Plymouth County,42.756,-96.606
5405,Williamson,Lucas County,41.088,-93.255
0009,Ackworth,Warren County,41.367,-93.473
2156,Harper,Keokuk County,41.363,-92.051
2728,Lanesboro,Carroll County,42.184,-94.691
3389,Mount Union,Henry County,41.058,-91.390
4188,Rome,Henry County,40.981,-91.682
4360,Rutland,Humboldt County,42.759,-94.298
0159,Archer,O'Brien County,43.115,-95.746
1740,Floris,Davis County,40.865,-92.333
0875,Centralia,Dubuque County,42.472,-90.837
3136,McIntire,Mitchell County,43.436,-92.594
1269,Dawson,Dallas County,41.843,-94.222
2038,Green Mountain,Marshall County,42.102,-92.821
2961,Luzerne,Benton County,41.898,-92.180
3171,Melrose,Monroe County,40.976,-93.050
3583,North Washington,Chickasaw County,43.118,-92.417
3078,Martinsburg,Keokuk County,41.179,-92.252
5241,Waterville,Allamakee County,43.208,-91.298
0125,Andover,Clinton County,41.979,-90.252
3065,Marne,Cass County,41.451,-95.111
4716,St. Marys,Warren County,41.308,-93.730
4721,St. Paul,Lee County,40.769,-91.517
1186,Cromwell,Union County,41.039,-94.462
1809,Fraser,Boone County,42.127,-93.965
5338,Westwood,Henry County,40.966,-91.624
5260,Wever,Lee County,40.711,-91.231
1410,Duncan,Hancock County,43.105,-93.711
2981,Macksburg,Madison County,41.215,-94.185
4985,Toronto,Clinton County,41.905,-90.864
0249,Baldwin,Jackson County,42.074,-90.842
3089,Masonville,Delaware County,42.479,-91.591
5386,Whitten,Hardin County,42.261,-93.005
3345,Morley,Jones County,42.006,-91.246
3353,Morrison,Grundy County,42.344,-92.674
1702,Ferguson,Marshall County,41.937,-92.866
5266,Webster,Keokuk County,41.438,-92.169
0166,Argyle,Lee County,40.532,-91.566
0791,Carpenter,Mitchell County,43.415,-93.015
1322,Derby,Lucas County,40.932,-93.456
2180,Hartwick,Poweshiek County,41.785,-92.344
5451,Wiota,Cass County,41.400,-94.887
4737,Stanley,Buchanan County,42.642,-91.812
2013,Grant,Montgomery County,41.143,-94.985
0655,Buckeye,Hardin County,42.417,-93.375
3956,Pleasant Plain,Jefferson County,41.147,-91.859
4916,Tennant,Shelby County,41.594,-95.441
1156,Craig,Plymouth County,42.896,-96.310
4106,Ralston,Carroll County,42.042,-94.629
5074,Unionville,Appanoose County,40.818,-92.695
1863,Garber,Clayton County,42.742,-91.262
4689,St. Anthony,Marshall County,42.122,-93.195
0943,Chillicothe,Wapello County,41.086,-92.529
4857,Swan,Marion County,41.465,-93.311
3096,Matlock,Sioux County,43.244,-95.935
0908,Chatsworth,Sioux County,42.916,-96.516
5242,Watkins,Benton County,41.891,-91.986
2934,Lowell,Henry County,40.831,-91.436
4707,St. Joseph,Kossuth County,42.913,-94.227
5032,Turin,Monona County,42.019,-95.966
2060,Greenville,Clay County,43.017,-95.146
4530,Sharpsburg,Taylor County,40.802,-94.642
3694,Orchard,Mitchell County,43.227,-92.772
4669,Spring Hill,Warren County,41.411,-93.645
4806,Struble,Plymouth County,42.895,-96.195
1015,Clio,Wayne County,40.635,-93.451
3456,Nemaha,Sac County,42.516,-95.088
5020,Truesdale,Buena Vista County,42.729,-95.183
2081,Gruver,Emmet County,43.393,-94.705
4137,Redding,Ringgold County,40.605,-94.388
1374,Dougherty,Cerro Gordo County,42.922,-93.042
2025,Gray,Audubon County,41.839,-94.983
2083,Guernsey,Poweshiek County,41.649,-92.343
4256,Rochester,Cedar County,41.674,-91.158
5524,Yarmouth,Des Moines County,41.026,-91.324
5532,Yorktown,Page County,40.733,-95.157
1910,Gibson,Keokuk County,41.481,-92.394
3947,Plano,Appanoose County,40.756,-93.047
4438,Sandyville,Warren County,41.371,-93.386
2148,Hardy,Humboldt County,42.811,-94.051
3965,Plover,Pocahontas County,42.878,-94.621
0218,Augusta,Des Moines County,40.758,-91.276
5155,Vining,Tama County,41.990,-92.380
4932,Thayer,Union County,41.028,-94.051
4319,Rossie,Clay County,43.013,-95.189
3084,Marysville,Marion County,41.181,-92.949
0327,Beaver,Boone County,42.038,-94.142
0994,Clayton,Clayton County,42.904,-91.147
2450,Irvington,Kossuth County,43.007,-94.196
4943,Thornburg,Keokuk County,41.455,-92.336
0291,Bassett,Chickasaw County,43.063,-92.515
2205,Hayesville,Keokuk County,41.264,-92.249
0390,Benton,Ringgold County,40.703,-94.358
1138,Cotter,Louisa County,41.292,-91.462
2408,Imogene,Fremont County,40.879,-95.427
1219,Curlew,Palo Alto County,42.979,-94.741
3241,Millerton,Wayne County,40.849,-93.305
4220,Rinard,Calhoun County,42.340,-94.489
0191,Aspinwall,Crawford County,41.912,-95.136
1246,Dana,Greene County,42.107,-94.241
3288,Mona,Mitchell County,43.487,-92.941
1306,Delphos,Ringgold County,40.664,-94.339
0772,Carbon,Adams County,41.050,-94.823
3961,Pleasanton,Decatur County,40.581,-93.744
1118,Corley,Shelby County,41.579,-95.330
4285,Rodman,Palo Alto County,43.029,-94.531
0471,Blanchard,Page County,40.579,-95.222
2467,Jacksonville,Shelby County,41.645,-95.151
2512,Jolley,Calhoun County,42.479,-94.719
1036,Coburg,Montgomery County,40.917,-95.264
3387,Mount Sterling,Van Buren County,40.618,-91.932
0259,Bankston,Dubuque County,42.519,-90.961
0395,Berkley,Boone County,41.945,-94.115
1856,Galt,Wright County,42.694,-93.605
1423,Durango,Dubuque County,42.560,-90.776
1099,Conway,Taylor County,40.749,-94.619
4584,Sinclair,Butler County,42.500,-92.732
0281,Bartlett,Fremont County,40.885,-95.795
2767,Le Roy,Decatur County,40.878,-93.593
0007,Abingdon,Jefferson County,41.082,-92.139
0021,Adelphi,Polk County,41.533,-93.426
0107,Amber,Jones County,42.128,-91.180
0110,Ambrose,Iowa County,41.531,-92.234
0162,Ardon,Muscatine County,41.395,-91.189
0193,Astor,Crawford County,41.870,-95.266
0256,Bangor,Marshall County,42.173,-93.094
0311,Beech,Warren County,41.375,-93.352
0372,Beloit,Lyon County,43.281,-96.575
0385,Bennettsville,Dubuque County,42.360,-90.728
0387,Benson,Black Hawk County,42.542,-92.542
0393,Berea,Adair County,41.374,-94.680
0406,Berwick,Polk County,41.665,-93.545
0464,Bladensburg,Wapello County,41.046,-92.237
0475,Blessing,Black Hawk County,42.312,-92.456
0527,Booneville,Dallas County,41.524,-93.884
0556,Bradford,Chickasaw County,42.966,-92.505
0614,Bromley,Marshall County,42.119,-93.130
0653,Bryantsburg,Buchanan County,42.575,-91.906
0658,Buckingham,Tama County,42.263,-92.448
0666,Buena Vista,Clinton County,41.742,-90.740
0692,Burnside,Webster County,42.346,-94.107
0736,Cambria,Wayne County,40.838,-93.403
0845,Cedar,Mahaska County,41.212,-92.526
0898,Charleston,Lee County,40.591,-91.531
0960,Churchville,Warren County,41.397,-93.751
1021,Clyde,Jasper County,41.842,-93.265
1105,Cooper,Greene County,41.917,-94.350
1119,Cornelia,Wright County,42.790,-93.683
1235,Dahlonega,Wapello County,41.059,-92.370
1264,David,Mitchell County,43.406,-92.664
1370,Dorchester,Allamakee County,43.470,-91.511
1409,Dunbar,Marshall County,41.941,-92.781
1598,Enterprise,Polk County,41.732,-93.530
1658,Fairmount,Jasper County,41.567,-93.159
1687,Farrar,Polk County,41.806,-93.370
1690,Farson,Wapello County,41.122,-92.255
1703,Fern,Grundy County,42.485,-92.771
1720,Fisk,Adair County,41.201,-94.528
1766,Forestville,Delaware County,42.597,-91.529
1852,Galesburg,Jasper County,41.559,-92.946
1876,Garryowen,Jackson County,42.283,-90.832
1913,Gifford,Hardin County,42.288,-93.091
1962,Golden,Delaware County,42.391,-91.471
2010,Granite,Lyon County,43.469,-96.556
2224,Hebron,Adair County,41.255,-94.285
2279,Highlandville,Winneshiek County,43.442,-91.669
2338,Homer,Hamilton County,42.374,-93.924
2345,Honey Creek,Pottawattamie County,41.431,-95.866
2360,Horton,Bremer County,42.847,-92.476
2468,Jacobs,Poweshiek County,41.665,-92.669
2520,Jordan,Boone County,42.049,-93.784
2567,Kent,Union County,40.952,-94.454
2583,Key West,Dubuque County,42.449,-90.684
2671,Lafayette,Linn County,42.147,-91.680
2719,LaMoille,Marshall County,42.031,-93.039
2814,Liberty Center,Warren County,41.204,-93.500
2857,Littleton,Buchanan County,42.533,-92.024
3091,Massillon,Cedar County,41.915,-90.923
3200,Metz,Jasper County,41.666,-93.136
3220,Midway,Woodbury County,42.371,-95.729
3313,Montgomery,Dickinson County,43.441,-95.203
3358,Morse,Johnson County,41.749,-91.435
3438,Nashville,Jackson County,42.063,-90.784
3470,New Boston,Lee County,40.561,-91.506
3522,Newburg,Jasper County,41.819,-92.774
3621,Oakdale,Johnson County,41.706,-91.603
3623,Oakfield,Audubon County,41.533,-94.908
3630,Oasis,Johnson County,41.706,-91.386
3688,Oran,Fayette County,42.701,-92.075
3785,Paris,Linn County,42.239,-91.579
3833,Pekin,Jefferson County,41.163,-92.160
3865,Petersburg,Delaware County,42.555,-91.213
3895,Pilot Grove,Lee County,40.763,-91.537
3995,Poplar,Audubon County,41.689,-95.093
4078,Quarry,Marshall County,42.018,-92.806
4174,Republic,Chickasaw County,42.951,-92.397
4254,Robinson,Delaware County,42.342,-91.579
4318,Ross,Audubon County,41.774,-94.919
4425,Sand Springs,Delaware County,42.318,-91.189
4509,Selma,Van Buren County,40.870,-92.153
4512,Seney,Plymouth County,42.853,-96.131
4523,Shady Grove,Buchanan County,42.377,-92.055
4575,Silver Creek,Delaware County,42.361,-91.578
4676,Springdale,Cedar County,41.671,-91.259
4837,Sunbury,Cedar County,41.670,-90.931
4946,Thorpe,Delaware County,42.566,-91.449
5059,Ulmer,Sac County,42.268,-94.950
5085,Utica,Van Buren County,40.815,-91.835
5106,Van Buren,Jackson County,42.084,-90.365
5113,Vandalia,Jasper County,41.539,-93.306
5130,Vernon,Van Buren County,40.722,-91.855
5151,Vincennes,Lee County,40.496,-91.570
5169,Voorhies,Black Hawk County,42.336,-92.483
5246,Waubeek,Linn County,42.166,-91.465
5295,West Grove,Davis County,40.725,-92.560
5520,Yampa,Wapello County,41.010,-92.226
5531,Yorkshire,Harrison County,41.521,-95.580