phoneme,name,county,latitude,longitude
0221,Aurora,DuPage County,41.763,-88.290
2511,Joliet,Kendall County,41.518,-88.149
4269,Rockford,Ogle County,42.259,-89.063
1526,Elgin,Cook County,42.039,-88.326
3851,Peoria,Peoria County,40.694,-89.589
0961,Cicero,Cook County,41.846,-87.754
0484,Bloomington,McLean County,40.484,-88.994
1632,Evanston,Cook County,42.041,-87.690
0171,Arlington Heights,Cook County,42.088,-87.981
1282,Decatur,Macon County,39.840,-88.955
3760,Palatine,Cook County,42.110,-88.034
0407,Berwyn,Cook County,41.851,-87.794
3560,Normal,McLean County,40.514,-88.991
3616,Oak Park,Cook County,41.885,-87.784
5346,Wheaton,DuPage County,41.866,-88.107
1951,Glenview,Cook County,42.070,-87.788
3943,Plainfield,Kendall County,41.630,-88.245
1560,Elmhurst,Cook County,41.897,-87.944
0670,Buffalo Grove,Cook County,42.166,-87.962
3287,Moline,Rock Island County,41.507,-90.515
0358,Belleville,St. Clair County,38.520,-89.984
0281,Bartlett,Cook County,41.961,-88.178
1207,Crystal Lake,McHenry County,42.241,-88.316
4087,Quincy,Adams County,39.936,-91.410
3788,Park Ridge,Cook County,42.011,-87.841
5348,Wheeling,Cook County,42.130,-87.921
0793,Carpentersville,Kane County,42.121,-88.258
4261,Rock Island,Rock Island County,41.509,-90.579
3723,Oswego,Kendall County,41.683,-88.339
3585,Northbrook,Cook County,42.128,-87.829
5468,Woodridge,Cook County,41.737,-88.044
4691,St. Charles,DuPage County,41.919,-88.311
3606,O'Fallon,St. Clair County,38.592,-89.911
3833,Pekin,Peoria County,40.569,-89.625
3545,Niles,Cook County,42.019,-87.803
2277,Highland Park,Lake County,42.182,-87.800
0067,Algonquin,Kane County,42.159,-88.322
0679,Burbank,Cook County,41.734,-87.779
1256,Danville,Vermilion County,40.124,-87.630
2724,Lansing,Cook County,41.565,-87.539
2392,Huntley,Kane County,42.161,-88.435
3610,Oak Forest,Cook County,41.603,-87.744
0293,Batavia,DuPage County,41.848,-88.311
5492,Woodstock,McHenry County,42.315,-88.449
0097,Alton,Madison County,38.891,-90.184
5546,Zion,Lake County,42.446,-87.833
1067,Collinsville,Madison County,38.676,-90.006
3172,Melrose Park,Cook County,41.901,-87.857
5331,Westmont,DuPage County,41.796,-87.976
1566,Elmwood Park,Cook County,41.921,-87.809
2849,Lisle,DuPage County,41.801,-88.075
1819,Freeport,Stephenson County,42.297,-89.621
3113,Maywood,Cook County,41.879,-87.843
4310,Roselle,Cook County,41.980,-88.086
5533,Yorkville,Kendall County,41.641,-88.447
0483,Bloomingdale,DuPage County,41.958,-88.081
5146,Villa Park,DuPage County,41.890,-87.989
1258,Darien,DuPage County,41.746,-87.981
0774,Carbondale,Jackson County,37.722,-89.224
3313,Montgomery,Kane County,41.721,-88.358
1360,Dolton,Cook County,41.639,-87.607
1803,Frankfort,Cook County,41.507,-87.871
2182,Harvey,Cook County,41.610,-87.647
2685,Lake Forest,Lake County,42.259,-87.841
1292,Deerfield,Cook County,42.166,-87.852
0618,Brookfield,Cook County,41.824,-87.852
2343,Homewood,Cook County,41.557,-87.666
3728,Ottawa,LaSalle County,41.346,-88.843
3098,Matteson,Cook County,41.504,-87.713
4327,Round Lake,Lake County,42.353,-88.093
4872,Sycamore,DeKalb County,41.989,-88.687
0369,Bellwood,Cook County,41.881,-87.883
1805,Franklin Park,Cook County,41.935,-87.866
4560,Shorewood,Will County,41.520,-88.202
0777,Cary,McHenry County,42.212,-88.238
2467,Jacksonville,Morgan County,39.734,-90.229
1957,Godfrey,Madison County,38.956,-90.187
2721,Lemont,Cook County,41.667,-87.984
2300,Hinsdale,Cook County,41.801,-87.928
3099,Mattoon,Coles County,39.483,-88.373
3056,Marion,Williamson County,37.731,-88.933
5320,Westchester,Cook County,41.851,-87.882
1145,Country Club Hills,Cook County,41.568,-87.720
2650,La Grange,Cook County,41.805,-87.869
0557,Bradley,Kankakee County,41.142,-87.861
5223,Warrenville,DuPage County,41.818,-88.173
3390,Mount Vernon,Jefferson County,38.317,-88.903
4554,Shiloh,St. Clair County,38.561,-89.897
2837,Lindenhurst,Lake County,42.411,-88.026
4861,Swansea,St. Clair County,38.534,-89.989
2264,Hickory Hills,Cook County,41.726,-87.825
1762,Forest Park,Cook County,41.879,-87.814
3218,Midlothian,Cook County,41.625,-87.718
2826,Lincoln,Logan County,40.148,-89.365
3589,Northlake,Cook County,41.917,-87.896
2532,Justice,Cook County,41.744,-87.838
1503,Effingham,Effingham County,39.120,-88.543
3947,Plano,Kendall County,41.663,-88.537
4121,Rantoul,Champaign County,40.308,-88.156
0875,Centralia,Clinton County,38.522,-89.124
4235,River Forest,Cook County,41.898,-87.814
3059,Markham,Cook County,41.594,-87.695
5019,Troy,Madison County,38.729,-89.883
5238,Waterloo,Monroe County,38.336,-90.150
1070,Columbia,Monroe County,38.458,-90.216
1798,Fox Lake,Lake County,42.428,-88.184
4830,Summit,Cook County,41.788,-87.810
1177,Crestwood,Cook County,41.661,-87.753
0278,Barrington,Cook County,42.152,-88.129
4241,Riverdale,Cook County,41.643,-87.636
2273,Highland,Madison County,38.739,-89.671
3862,Peru,Bureau County,41.347,-89.133
2997,Mahomet,Champaign County,40.195,-88.404
2181,Harvard,McHenry County,42.422,-88.614
2458,Itasca,DuPage County,41.975,-88.007
4255,Rochelle,Lee County,41.920,-89.062
2424,Ingleside,Lake County,42.381,-88.139
4817,Sugar Grove,Kane County,41.761,-88.444
5422,Willowbrook,DuPage County,41.770,-87.936
4243,Riverside,Cook County,41.835,-87.823
2969,Lynwood,Cook County,41.526,-87.539
4465,Savoy,Champaign County,40.055,-88.252
4259,Rock Falls,Whiteside County,41.780,-89.689
1942,Glencoe,Cook County,42.135,-87.758
1952,Glenwood,Cook County,41.543,-87.602
1179,Crete,Cook County,41.441,-87.624
2892,Long Grove,Lake County,42.178,-87.998
3085,Maryville,Madison County,38.724,-89.956
2293,Hillside,Cook County,41.878,-87.903
2454,Island Lake,Lake County,42.279,-88.200
0609,Broadview,Cook County,41.864,-87.853
2831,Lincolnshire,Lake County,42.190,-87.908
3786,Park City,Lake County,42.348,-87.884
0932,Chester,Randolph County,37.914,-89.822
3051,Marengo,McHenry County,42.249,-88.608
2432,Inverness,Cook County,42.118,-88.096
4430,Sandwich,DeKalb County,41.650,-88.619
5079,University Park,Cook County,41.447,-87.713
4770,Stickney,Cook County,41.821,-87.783
1012,Clinton,De Witt County,40.154,-88.965
5113,Vandalia,Fayette County,38.961,-89.094
3376,Mount Carmel,Wabash County,38.411,-87.761
2850,Litchfield,Montgomery County,39.175,-89.654
2060,Greenville,Bond County,38.892,-89.413
2502,Johnsburg,McHenry County,42.380,-88.242
1146,Countryside,Cook County,41.783,-87.878
2704,Lakemoor,Lake County,42.339,-88.203
0284,Bartonville,Peoria County,40.650,-89.652
0806,Carterville,Williamson County,37.760,-89.077
1024,Coal City,Grundy County,41.279,-88.280
5421,Willow Springs,Cook County,41.741,-87.860
2689,Lake Holiday,LaSalle County,41.613,-88.672
4668,Spring Grove,McHenry County,42.444,-88.236
4673,Spring Valley,Bureau County,41.328,-89.200
2280,Highwood,Lake County,42.200,-87.809
0371,Belmont,DuPage County,41.793,-88.038
0395,Berkeley,Cook County,41.889,-87.903
3899,Pinckneyville,Perry County,38.080,-89.382
1629,Eureka,Woodford County,40.721,-89.273
3222,Milan,Rock Island County,41.453,-90.572
1180,Creve Coeur,Tazewell County,40.647,-89.591
3068,Marseilles,LaSalle County,41.331,-88.708
1651,Fairfield,Wayne County,38.379,-88.360
1736,Flora,Clay County,38.669,-88.486
0338,Beecher,Will County,41.341,-87.621
0704,Butterfield,DuPage County,41.836,-88.042
4548,Sherman,Sangamon County,39.894,-89.605
4249,Robbins,Cook County,41.644,-87.704
4539,Shelbyville,Shelby County,39.406,-88.790
3821,Paxton,Ford County,40.460,-88.095
1131,Cortland,DeKalb County,41.920,-88.689
0816,Caseyville,St. Clair County,38.637,-90.026
2713,Lakewood,McHenry County,42.229,-88.355
2341,Hometown,Cook County,41.734,-87.731
2762,Lawrenceville,Lawrence County,38.729,-87.682
3935,Pittsfield,Pike County,39.608,-90.805
0132,Anna,Union County,37.460,-89.247
3353,Morrison,Whiteside County,41.810,-89.965
1430,Dwight,Grundy County,41.098,-88.425
0690,Burnham,Cook County,41.639,-87.557
4655,Sparta,Randolph County,38.123,-89.702
4311,Rosemont,Cook County,41.995,-87.885
1523,Eldorado,Saline County,37.814,-88.438
4139,Red Bud,Randolph County,38.212,-89.994
1768,Forsyth,Macon County,39.933,-88.951
3646,Oglesby,LaSalle County,41.295,-89.060
1291,Deer Park,Cook County,42.166,-88.086
0055,Aledo,Mercer County,41.200,-90.749
1648,Fairbury,Livingston County,40.747,-88.515
3695,Oregon,Ogle County,42.015,-89.332
2110,Hainesville,Lake County,42.345,-88.068
4244,Riverton,Sangamon County,39.844,-89.540
5178,Wadsworth,Lake County,42.429,-87.924
2767,Le Roy,McLean County,40.352,-88.764
3466,New Baden,Clinton County,38.537,-89.707
1851,Galena,Jo Daviess County,42.417,-90.429
5160,Virden,Macoupin County,39.506,-89.771
4593,Sleepy Hollow,Kane County,42.094,-88.303
2988,Madison,Madison County,38.686,-90.102
5337,Westville,Vermilion County,40.042,-87.639
4351,Rushville,Schuyler County,40.121,-90.563
2895,Long Lake,Lake County,42.371,-88.128
0927,Cherry Valley,Boone County,42.235,-88.975
0007,Abingdon,Knox County,40.804,-90.402
4215,Ridgewood,Will County,41.536,-88.040
2631,Knoxville,Knox County,40.908,-90.285
1511,El Paso,McLean County,40.740,-89.018
2789,Lena,Stephenson County,42.379,-89.822
2124,Hamilton,Hancock County,40.396,-91.339
3535,Newton,Jasper County,38.991,-88.163
4832,Sumner,Lawrence County,38.717,-87.861
1334,Diamond,Grundy County,41.285,-88.251
1657,Fairmont,Will County,41.556,-88.059
5006,Trenton,Clinton County,38.606,-89.682
4547,Sheridan,LaSalle County,41.530,-88.680
4959,Tilton,Vermilion County,40.095,-87.648
5232,Washington Park,St. Clair County,38.635,-90.093
5145,Villa Grove,Douglas County,39.863,-88.162
2560,Kenilworth,Cook County,42.086,-87.718
0815,Casey,Clark County,39.305,-87.985
4945,Thornton,Cook County,41.568,-87.608
4511,Seneca,Grundy County,41.303,-88.615
1683,Farmington,Fulton County,40.697,-90.002
2694,Lake of the Woods,Champaign County,40.206,-88.369
5422,Willowbrook,Will County,41.458,-87.536
5252,Wayne,DuPage County,41.947,-88.253
3985,Polo,Ogle County,41.986,-89.579
3865,Petersburg,Menard County,40.012,-89.848
0180,Arthur,Douglas County,39.714,-88.470
1573,Elwood,Will County,41.404,-88.112
0095,Altamont,Effingham County,39.062,-88.748
0597,Brighton,Jersey County,39.041,-90.140
5103,Valley View,Kane County,41.966,-88.299
2627,Knollwood,Lake County,42.272,-87.896
1717,Fisher,Champaign County,40.315,-88.350
2298,Hinckley,DeKalb County,41.769,-88.641
4266,Rockdale,Will County,41.506,-88.115
4036,Prairie Grove,McHenry County,42.279,-88.261
0197,Athens,Menard County,39.961,-89.724
0049,Albion,Edwards County,38.378,-88.056
0359,Bellevue,Peoria County,40.684,-89.680
0736,Cambria,Williamson County,37.781,-89.119
3699,Orion,Henry County,41.355,-90.382
1924,Gilman,Iroquois County,40.767,-87.992
2515,Jonesboro,Union County,37.452,-89.268
2490,Jerome,Sangamon County,39.768,-89.681
3880,Phoenix,Cook County,41.611,-87.635
0715,Cairo,Alexander County,37.005,-89.176
3998,Port Byron,Rock Island County,41.606,-90.335
2614,Kirkland,DeKalb County,42.093,-88.851
2242,Heritage Lake,Tazewell County,40.547,-89.326
4054,Princeville,Peoria County,40.930,-89.758
1447,Earlville,LaSalle County,41.589,-88.922
2722,Lanark,Carroll County,42.102,-89.833
1415,Dunlap,Peoria County,40.862,-89.679
5328,Westlake Village,Winnebago County,42.306,-89.287
4188,Rome,Peoria County,40.883,-89.503
5431,Winchester,Scott County,39.630,-90.456
2682,Lake Camelot,Peoria County,40.631,-89.742
5225,Warsaw,Hancock County,40.359,-91.435
1761,Forest Lake,Lake County,42.208,-88.056
5143,Vienna,Johnson County,37.415,-88.898
4335,Roxana,Madison County,38.848,-90.076
5239,Waterman,DeKalb County,41.772,-88.774
5409,Williamsville,Sangamon County,39.954,-89.549
2668,Ladd,Bureau County,41.383,-89.219
0770,Capron,Boone County,42.400,-88.740
2006,Grandview,Sangamon County,39.816,-89.619
2593,Kincaid,Christian County,39.589,-89.415
1869,Gardner,Grundy County,41.186,-88.310
4977,Toluca,Marshall County,41.002,-89.133
1010,Clifton,Iroquois County,40.935,-87.934
4696,St. Elmo,Fayette County,39.027,-88.848
5518,Wyoming,Stark County,41.062,-89.773
0411,Bethany,Moultrie County,39.646,-88.738
2891,Long Creek,Macon County,39.812,-88.848
3762,Palestine,Crawford County,39.004,-87.613
2285,Hillcrest,Ogle County,41.951,-89.065
0952,Chrisman,Edgar County,39.804,-87.674
4322,Rossville,Vermilion County,40.379,-87.669
2170,Hartford,Madison County,38.833,-90.096
1210,Cuba,Fulton County,40.493,-90.191
4975,Toledo,Cumberland County,39.274,-88.244
5249,Waverly,Morgan County,39.592,-89.953
2985,Macon,Macon County,39.713,-88.997
3277,Mitchell,Madison County,38.762,-90.085
0210,Atwood,Douglas County,39.799,-88.463
1492,Edinburg,Christian County,39.657,-89.390
0872,Central City,Marion County,38.549,-89.127
5501,Worden,Madison County,38.931,-89.839
5221,Warrensburg,Macon County,39.933,-89.062
3236,Milledgeville,Carroll County,41.963,-89.775
2870,Lockport Heights,Will County,41.619,-88.025
4535,Shawneetown,Gallatin County,37.713,-88.187
2338,Homer,Champaign County,40.035,-87.958
4339,Royalton,Franklin County,37.877,-89.115
2051,Greenfield,Greene County,39.344,-90.213
3354,Morrisonville,Christian County,39.420,-89.456
2820,Lily Lake,Kane County,41.949,-88.478
1035,Cobden,Union County,37.531,-89.253
5229,Washburn,Marshall County,40.920,-89.292
3640,Odell,Livingston County,41.004,-88.525
3521,Newark,Kendall County,41.537,-88.583
1061,Colfax,McLean County,40.567,-88.616
1590,Energy,Williamson County,37.774,-89.026
5283,Wenona,LaSalle County,41.049,-89.052
4540,Sheldon,Iroquois County,40.769,-87.564
0201,Atkinson,Henry County,41.421,-90.015
0189,Ashton,Lee County,41.866,-89.221
4112,Ramsey,Fayette County,39.144,-89.109
4130,Raymond,Montgomery County,39.319,-89.572
2786,Leland,LaSalle County,41.613,-88.800
2122,Hamel,Madison County,38.889,-89.845
3029,Mansfield,Piatt County,40.211,-88.506
3954,Pleasant Hill,Pike County,39.443,-90.872
3641,Odin,Marion County,38.617,-89.052
4961,Timberlane,Boone County,42.335,-88.861
1913,Gifford,Champaign County,40.306,-88.021
0194,Astoria,Fulton County,40.228,-90.360
4528,Shannon,Carroll County,42.155,-89.740
4314,Roseville,Warren County,40.732,-90.665
2163,Harrison,Jackson County,37.797,-89.337
4786,Stonington,Christian County,39.640,-89.193
5158,Viola,Mercer County,41.203,-90.587
3177,Mendon,Adams County,40.088,-91.284
2138,Hanover,Jo Daviess County,42.256,-90.280
0044,Albany,Whiteside County,41.789,-90.219
0991,Clay City,Clay County,38.689,-88.354
4224,Ringwood,McHenry County,42.392,-88.297
1143,Coulterville,Randolph County,38.186,-89.606
1616,Essex,Kankakee County,41.177,-88.186
3819,Paw Paw,Lee County,41.689,-88.981
2350,Hopedale,Tazewell County,40.421,-89.415
4536,Sheffield,Bureau County,41.358,-89.737
4928,Texico,Jefferson County,38.439,-88.897
3957,Pleasant Plains,Sangamon County,39.873,-89.921
1850,Galatia,Saline County,37.841,-88.609
5420,Willow Lake,Stephenson County,42.333,-89.636
4652,Spaulding,Sangamon County,39.866,-89.540
3501,New Milford,Winnebago County,42.187,-89.068
0059,Alexis,Mercer County,41.063,-90.555
5385,Witt,Montgomery County,39.256,-89.348
0600,Brimfield,Peoria County,40.839,-89.886
2862,Livingston,Madison County,38.968,-89.764
2144,Hardin,Calhoun County,39.157,-90.618
2221,Hurst,Williamson County,37.833,-89.143
3693,Orangeville,Stephenson County,42.468,-89.644
5312,West Salem,Edwards County,38.521,-88.005
4942,Thomson,Carroll County,41.959,-90.099
5475,Woodhull,Henry County,41.179,-90.316
2236,Hennepin,Putnam County,41.254,-89.342
2059,Greenview,Menard County,40.083,-89.738
3143,McLean,McLean County,40.314,-89.170
3626,Oakland,Coles County,39.654,-88.026
3971,Pocahontas,Bond County,38.828,-89.540
3643,Ogden,Champaign County,40.114,-87.956
4958,Tilden,Randolph County,38.212,-89.683
0636,Brownstown,Fayette County,38.996,-88.953
1591,Enfield,White County,38.099,-88.338
1530,Elizabeth,Jo Daviess County,42.318,-90.222
4545,Sherrard,Mercer County,41.319,-90.506
1991,Grafton,Jersey County,38.970,-90.431
3678,Oneida,Knox County,41.072,-90.225
0231,Avon,Fulton County,40.662,-90.435
1681,Farmersville,Montgomery County,39.443,-89.652
4017,Potomac,Vermilion County,40.305,-87.801
0090,Alpha,Henry County,41.192,-90.380
5433,Windsor,Mercer County,41.202,-90.444
1086,Como,Whiteside County,41.766,-89.767
5243,Watson,Effingham County,39.025,-88.570
0556,Bradford,Stark County,41.177,-89.658
1288,Deer Creek,Tazewell County,40.630,-89.332
2617,Kirkwood,Warren County,40.866,-90.748
1712,Findlay,Shelby County,39.523,-88.754
3369,Mounds,Pulaski County,37.114,-89.198
3157,Mechanicsburg,Sangamon County,39.809,-89.397
1244,Dalzell,Bureau County,41.356,-89.173
0858,Cedarville,Stephenson County,42.376,-89.633
1960,Golconda,Pope County,37.367,-88.486
0621,Brooklyn,St. Clair County,38.659,-90.166
1962,Golden,Adams County,40.109,-91.018
1194,Crossville,White County,38.162,-88.065
2626,Noble,Richland County,38.698,-88.224
3619,Oak Run,Knox County,40.963,-90.145
4932,Thayer,Sangamon County,39.538,-89.763
1175,Creston,Ogle County,41.931,-88.965
2043,Green Valley,Tazewell County,40.408,-89.643
4710,St. Libory,St. Clair County,38.363,-89.710
3245,Millington,Kendall County,41.560,-88.604
3470,New Boston,Mercer County,41.170,-90.997
5482,Woodlawn,Jefferson County,38.330,-89.033
1658,Fairmount,Vermilion County,40.046,-87.831
3771,Palmyra,Macoupin County,39.435,-89.996
1958,Godley,Grundy County,41.244,-88.243
4735,Stanford,McLean County,40.435,-89.218
1804,Franklin,Morgan County,39.620,-90.044
0068,Alhambra,Madison County,38.888,-89.731
1266,Davis,Stephenson County,42.423,-89.414
2450,Irvington,Washington County,38.439,-89.163
5414,Willisville,Perry County,37.984,-89.590
0446,Bismarck,Vermilion County,40.264,-87.608
3934,Pittsburg,Williamson County,37.777,-88.850
4698,St. Francisville,Lawrence County,38.591,-87.647
5092,Valier,Franklin County,38.015,-89.043
5065,Union,McHenry County,42.233,-88.542
3666,Olive Branch,Alexander County,37.169,-89.352
0224,Ava,Jackson County,37.888,-89.495
1170,Crescent City,Iroquois County,40.770,-87.859
2412,Indian Creek,Lake County,42.227,-87.980
5428,Wilsonville,Macoupin County,39.071,-89.856
0688,Burlington,Kane County,42.053,-88.548
2813,Liberty,Adams County,39.879,-91.108
2529,Junction City,Marion County,38.580,-89.128
4796,Strasburg,Shelby County,39.353,-88.619
3368,Mound City,Pulaski County,37.085,-89.163
1633,Evansville,Randolph County,38.090,-89.938
0881,Chadwick,Carroll County,42.013,-89.891
2002,Grand Ridge,LaSalle County,41.237,-88.831
2127,Hammond,Piatt County,39.797,-88.592
1269,Dawson,Sangamon County,39.853,-89.463
1969,Golf,Cook County,42.059,-87.793
4555,Shipman,Macoupin County,39.118,-90.044
4695,St. David,Fulton County,40.493,-90.049
2460,Iuka,Marion County,38.616,-88.790
1234,Dahlgren,Hamilton County,38.198,-88.684
2917,Lost Nation,Ogle County,41.911,-89.367
4178,Rest Haven,Will County,41.262,-88.136
4184,Reynolds,Mercer County,41.332,-90.672
4119,Rankin,Vermilion County,40.465,-87.896
0660,Buckley,Iroquois County,40.597,-88.038
5491,Woodson,Morgan County,39.629,-90.219
4941,Thompsonville,Franklin County,37.918,-88.762
0663,Buda,Bureau County,41.326,-89.679
3611,Oak Grove,Rock Island County,41.411,-90.571
4406,San Jose,Logan County,40.305,-89.605
1271,Dayton,LaSalle County,41.385,-88.794
4220,Rinard,Wayne County,38.571,-88.465
0072,Allendale,Wabash County,38.527,-87.710
0892,Chapin,Morgan County,39.766,-90.399
1350,Dix,Jefferson County,38.442,-88.938
4724,St. Rose,Clinton County,38.684,-89.555
0539,Bowen,Hancock County,40.233,-91.063
0098,Altona,Knox County,41.115,-90.165
0734,Camargo,Douglas County,39.800,-88.164
1578,Emden,Logan County,40.299,-89.485
0166,Argyle,Boone County,42.355,-88.939
0667,Buffalo,Sangamon County,39.853,-89.409
1121,Cornell,Livingston County,40.990,-88.729
3969,Plymouth,Hancock County,40.292,-90.916
2311,Hoffman,Clinton County,38.541,-89.264
3601,Norwood,Peoria County,40.706,-89.699
0922,Cherry,Bureau County,41.427,-89.213
4991,Towanda,McLean County,40.564,-88.899
1898,Georgetown,McDonough County,40.461,-90.718
3173,Melvin,Ford County,40.568,-88.248
2292,Hillsdale,Rock Island County,41.614,-90.173
2539,Karnak,Pulaski County,37.294,-88.975
0387,Benson,Woodford County,40.851,-89.122
0661,Buckner,Franklin County,37.983,-89.016
3348,Moro,Madison County,38.925,-90.022
3491,New Haven,Gallatin County,37.898,-88.127
1488,Edgewood,Effingham County,38.921,-88.661
2382,Hull,Pike County,39.707,-91.207
4556,Shirley,McLean County,40.407,-89.063
5117,Varna,Marshall County,41.036,-89.226
0524,Bonnie,Jefferson County,38.203,-88.903
0773,Carbon Hill,Grundy County,41.297,-88.300
3164,Medora,Jersey County,39.177,-90.141
5272,Weldon,De Witt County,40.121,-88.745
2523,Joy,Mercer County,41.197,-90.880
1229,Cutler,Perry County,38.032,-89.566
2383,Humboldt,Coles County,39.604,-88.319
0344,Belgium,Vermilion County,40.061,-87.638
2484,Jeffersonville,Wayne County,38.443,-88.404
1971,Good Hope,McDonough County,40.558,-90.673
3668,Olivet,Vermilion County,39.942,-87.644
4251,Roberts,Ford County,40.613,-88.183
2519,Joppa,Massac County,37.206,-88.845
4826,Summerfield,St. Clair County,38.597,-89.752
3775,Panama,Bond County,39.029,-89.524
3475,New Canton,Pike County,39.636,-91.096
4722,St. Peter,Fayette County,38.868,-88.854
3697,Orient,Franklin County,37.918,-88.978
1727,Flat Rock,Crawford County,38.902,-87.672
2062,Greenwood,McHenry County,42.393,-88.389
2746,Latham,Logan County,39.969,-89.162
3086,Mason,Effingham County,38.953,-88.624
2384,Hume,Edgar County,39.797,-87.869
3215,Middletown,Logan County,40.100,-89.591
1029,Coalton,Montgomery County,39.283,-89.301
2774,Lee,DeKalb County,41.795,-88.942
3004,Malden,Bureau County,41.424,-89.369
1464,Easton,Mason County,40.233,-89.843
0173,Armington,Tazewell County,40.339,-89.311
0608,Broadlands,Champaign County,39.909,-87.994
4120,Ransom,LaSalle County,41.156,-88.650
1710,Fillmore,Montgomery County,39.115,-89.279
2564,Kenney,De Witt County,40.097,-89.086
0249,Baldwin,Randolph County,38.183,-89.843
1695,Fayetteville,St. Clair County,38.378,-89.795
1640,Ewing,Franklin County,38.089,-88.852
2905,Loraine,Adams County,40.154,-91.222
4522,Seymour,Champaign County,40.107,-88.427
5161,Virgil,Kane County,41.956,-88.537
4338,Royal,Champaign County,40.193,-87.973
4564,Sibley,Ford County,40.587,-88.381
4105,Raleigh,Saline County,37.827,-88.532
3448,Nebo,Pike County,39.443,-90.791
2854,Little York,Warren County,41.011,-90.746
3233,Millbrook,Kendall County,41.598,-88.553
3146,McNabb,Putnam County,41.177,-89.209
1529,Elliott,Ford County,40.465,-88.272
0611,Brocton,Edgar County,39.716,-87.933
1087,Compton,Lee County,41.694,-89.081
3946,Plainville,Adams County,39.786,-91.185
4467,Sawyerville,Macoupin County,39.078,-89.807
0854,Cedar Point,LaSalle County,41.263,-89.126
3013,Manchester,Scott County,39.542,-90.332
3492,New Holland,Logan County,40.185,-89.581
0966,Cisco,Piatt County,40.011,-88.726
1153,Crab Orchard,Williamson County,37.729,-88.804
2233,Henderson,Knox County,41.025,-90.356
0080,Allerton,Champaign County,39.916,-87.935
2175,Hartsburg,Logan County,40.251,-89.441
3041,Mapleton,Peoria County,40.566,-89.732
0364,Bellmont,Wabash County,38.384,-87.911
3118,McClure,Alexander County,37.318,-89.431
1232,Cypress,Johnson County,37.365,-89.018
5477,Woodland,Iroquois County,40.714,-87.731
3121,McCook,Cook County,41.798,-87.845
3842,Penfield,Champaign County,40.303,-87.947
0698,Bush,Williamson County,37.843,-89.131
0658,Buckingham,Kankakee County,41.047,-88.175
3624,Oakford,Menard County,40.103,-89.963
2535,Kangley,LaSalle County,41.146,-88.874
2419,Indianola,Vermilion County,39.927,-87.740
3769,Palmer,Christian County,39.458,-89.404
3283,Modoc,Randolph County,38.053,-90.037
2760,Lawrence,McHenry County,42.441,-88.641
1532,Elizabethtown,Hardin County,37.446,-88.305
5354,White City,Macoupin County,39.065,-89.763
0013,Adair,McDonough County,40.419,-90.497
4496,Seaton,Mercer County,41.102,-90.802
1220,Curran,Sangamon County,39.742,-89.772
3183,Menominee,Jo Daviess County,42.488,-90.533
4210,Ridgefield,McHenry County,42.268,-88.361
3257,Milton,Pike County,39.564,-90.650
5132,Verona,Grundy County,41.218,-88.501
2237,Henning,Vermilion County,40.305,-87.701
3318,Montrose,Cumberland County,39.166,-88.378
5275,Wellington,Iroquois County,40.539,-87.680
2736,LaPlace,Piatt County,39.800,-88.718
5127,Vermilion,Edgar County,39.581,-87.589
4151,Reddick,Kankakee County,41.098,-88.249
2497,Jewett,Cumberland County,39.208,-88.246
0051,Alden,McHenry County,42.459,-88.518
0739,Cameron,Warren County,40.889,-90.517
5314,West Union,Clark County,39.216,-87.666
3791,Parkersburg,Richland County,38.590,-88.057
4563,Shumway,Effingham County,39.185,-88.652
4598,Smithfield,Fulton County,40.473,-90.292
5405,Williamson,Madison County,38.986,-89.764
4099,Radom,Washington County,38.282,-89.192
1555,Ellsworth,McLean County,40.450,-88.717
2544,Keensburg,Wabash County,38.351,-87.869
0629,Broughton,Hamilton County,37.935,-88.462
5179,Waggoner,Montgomery County,39.378,-89.653
3282,Modesto,Macoupin County,39.478,-89.982
2556,Kempton,Ford County,40.936,-88.237
5472,Woodburn,Macoupin County,39.047,-90.012
4265,Rockbridge,Greene County,39.269,-90.204
1981,Gorham,Jackson County,37.718,-89.486
3565,Norris,Fulton County,40.626,-90.032
0170,Arlington,Bureau County,41.474,-89.249
4581,Sims,Wayne County,38.360,-88.531
0700,Butler,Montgomery County,39.199,-89.534
0652,Bryant,Fulton County,40.466,-90.092
0722,Calhoun,Richland County,38.650,-88.044
4706,St. Johns,Perry County,38.031,-89.241
2646,La Fayette,Stark County,41.108,-89.972
4602,Smithville,Peoria County,40.660,-89.800
1007,Cleveland,Henry County,41.506,-90.315
1246,Dana,LaSalle County,40.958,-88.950
1364,Donnellson,Bond County,39.031,-89.476
1101,Cooksville,McLean County,40.543,-88.716
1793,Fowler,Adams County,40.008,-91.259
3411,Muncie,Vermilion County,40.116,-87.845
0243,Baileyville,Ogle County,42.198,-89.595
4065,Pulaski,Pulaski County,37.214,-89.206
1649,Fairdale,DeKalb County,42.100,-88.933
5430,Wilton Center,Will County,41.351,-87.960
1090,Concord,Morgan County,39.817,-90.373
1524,Eldred,Greene County,39.288,-90.552
0397,Berlin,Sangamon County,39.759,-89.903
5311,West Point,Hancock County,40.255,-91.183
0078,Allenville,Moultrie County,39.556,-88.530
2145,Harding,LaSalle County,41.515,-88.849
1689,Ferris,Hancock County,40.469,-91.170
1572,Elwin,Macon County,39.852,-88.944
4690,St. Augustine,Knox County,40.718,-90.411
0649,Brussels,Calhoun County,38.949,-90.589
3548,Niota,Hancock County,40.617,-91.288
2897,Longview,Champaign County,39.887,-88.066
1931,Glasgow,Scott County,39.551,-90.480
2266,Hidalgo,Jasper County,39.156,-88.147
1600,Eola,DuPage County,41.778,-88.243
0134,Annapolis,Crawford County,39.144,-87.817
1330,Dewey,Champaign County,40.319,-88.282
0697,Burton,Adams County,39.905,-91.249
4800,Strawn,Livingston County,40.653,-88.396
5130,Vernon,Marion County,38.802,-89.087
2434,Iola,Clay County,38.834,-88.628
3054,Marietta,Fulton County,40.501,-90.393
1708,Fidelity,Jersey County,39.153,-90.165
3433,Naples,Scott County,39.757,-90.607
2120,Hamburg,Calhoun County,39.230,-90.718
4487,Scottville,Macoupin County,39.480,-90.105
5075,Unity,Alexander County,37.150,-89.273
0346,Belknap,Johnson County,37.325,-88.939
1480,Eddyville,Pope County,37.499,-88.588
4917,Tennessee,McDonough County,40.412,-90.839
5347,Wheeler,Jasper County,39.047,-88.316
5206,Walnut Hill,Marion County,38.477,-89.043
2968,Lynnville,Morgan County,39.687,-90.346
4355,Russellville,Lawrence County,38.819,-87.532
2861,Liverpool,Fulton County,40.392,-90.001
2296,Hillview,Greene County,39.451,-90.541
2610,Kinsman,Grundy County,41.190,-88.570
0280,Barstow,Rock Island County,41.518,-90.357
5424,Wilmington,Greene County,39.481,-90.487
1642,Exeter,Scott County,39.721,-90.497
5316,West York,Crawford County,39.171,-87.674
1554,Ellisville,Fulton County,40.627,-90.305
3730,Otterville,Jersey County,39.051,-90.398
4306,Rose Hill,Jasper County,39.104,-88.147
1449,East Brooklyn,Grundy County,41.173,-88.264
2567,Kent,Stephenson County,42.309,-89.902
0014,Adams,Adams County,39.865,-91.198
3468,New Bedford,Bureau County,41.513,-89.721
1327,Detroit,Pike County,39.621,-90.677
0417,Beverly,Adams County,39.793,-90.991
2506,Johnsonville,Wayne County,38.522,-88.537
5519,Yale,Jasper County,39.120,-88.025
2451,Irwin,Kankakee County,41.052,-87.984
0738,Camden,Schuyler County,40.154,-90.771
0436,Bingham,Fayette County,39.114,-89.213
1964,Golden Gate,Wayne County,38.359,-88.204
3229,Mill Creek,Union County,37.342,-89.253
4982,Topeka,Mason County,40.330,-89.931
2528,Junction,Gallatin County,37.723,-88.237
3405,Muddy,Saline County,37.765,-88.517
5070,Union Hill,Kankakee County,41.108,-88.147
4582,Simpson,Johnson County,37.467,-88.755
3778,Panola,Woodford County,40.784,-89.021
2658,La Prairie,Adams County,40.148,-91.003
3875,Phillipstown,White County,38.142,-88.022
0480,Bloomfield,Adams County,40.021,-91.307
4277,Rockwood,Randolph County,37.841,-89.701
1669,Fall Creek,Adams County,39.779,-91.302
5284,Wenonah,Montgomery County,39.327,-89.289
2975,Macedonia,Franklin County,38.054,-88.703
0388,Bentley,Hancock County,40.344,-91.112
2605,Kingston,Adams County,39.817,-91.028
1737,Florence,Pike County,39.627,-90.611
5096,Valley City,Pike County,39.707,-90.653
0023,Adrian,Hancock County,40.521,-91.167
0077,Allentown,Tazewell County,40.556,-89.397
0174,Armstrong,Vermilion County,40.306,-87.878
0269,Barnes,McLean County,40.503,-88.902
0402,Berryville,Richland County,38.599,-87.929
0460,Blackstone,Livingston County,41.084,-88.691
0499,Bluff City,Fayette County,38.964,-89.046
0603,Bristol,Kendall County,41.686,-88.428
0670,Buffalo Grove,Ogle County,41.981,-89.595
0711,Cache,Alexander County,37.100,-89.261
0831,Catharine,LaSalle County,41.523,-88.719
0840,Cayuga,Livingston County,40.941,-88.584
0912,Chautauqua,Jersey County,38.964,-90.386
0918,Cheneyville,Vermilion County,40.469,-87.585
0974,Clarion,Bureau County,41.505,-89.192
0983,Clarksville,Clark County,39.452,-87.798
1117,Corinth,Williamson County,37.819,-88.776
1301,Delhi,Jersey County,39.045,-90.256
1319,Denver,Hancock County,40.291,-91.107
1501,Edwards,Peoria County,40.746,-89.744
1548,Ellery,Edwards County,38.355,-88.149
1564,Elmore,Peoria County,40.957,-89.977
1789,Fountain Green,Hancock County,40.476,-90.969
1807,Franklinville,McHenry County,42.277,-88.511
1917,Gilchrist,Mercer County,41.205,-90.624
2077,Groveland,Tazewell County,40.591,-89.533
2087,Gulfport,Henderson County,40.814,-91.086
2150,Harlem,Winnebago County,42.340,-89.018
2165,Harrisonville,Monroe County,38.278,-90.350
2263,Hickory Grove,Adams County,39.938,-91.315
2470,Jamaica,Vermilion County,39.991,-87.807
2474,Jamestown,Clinton County,38.735,-89.519
2517,Jonesville,LaSalle County,41.311,-89.071
2694,Lake of the Woods,Peoria County,40.840,-89.605
2711,Lakeview,Saline County,37.672,-88.616
2813,Liberty,Saline County,37.720,-88.572
2853,Little Rock,Kendall County,41.717,-88.576
2858,Lytleville,McLean County,40.342,-88.956
2934,Lowell,LaSalle County,41.251,-89.011
3046,Marblehead,Adams County,39.840,-91.369
3120,McConnell,Stephenson County,42.434,-89.731
3130,McDowell,Livingston County,40.831,-88.585
3176,Menard,Randolph County,37.910,-89.840
3191,Meriden,LaSalle County,41.571,-89.035
3194,Merrimac,Monroe County,38.371,-90.333
3202,Meyer,Adams County,40.148,-91.504
3234,Millburn,Lake County,42.426,-88.004
3297,Monroe City,Monroe County,38.256,-90.266
3364,Mossville,Peoria County,40.816,-89.568
3416,Murdock,Douglas County,39.801,-88.078
3478,New City,Sangamon County,39.669,-89.539
3488,New Hanover,Monroe County,38.387,-90.227
3536,Newtown,Vermilion County,40.167,-87.769
3599,Norway,LaSalle County,41.466,-88.664
3627,Oakley,Macon County,39.876,-88.806
3677,Oneco,Stephenson County,42.487,-89.664
3764,Palisades,DuPage County,41.714,-87.934
3774,Paloma,Adams County,40.023,-91.195
3803,Parrish,Franklin County,37.941,-88.813
4038,Prairie View,Lake County,42.199,-87.963
4073,Putnam,Putnam County,41.185,-89.396
4171,Reno,Bond County,38.975,-89.514
4196,Ritchie,Will County,41.255,-88.105
4301,Rosamond,Christian County,39.380,-89.160
4354,Russell,Lake County,42.491,-87.912
4367,Sabina,McLean County,40.347,-88.651
4387,Salisbury,Sangamon County,39.890,-89.798
5014,Triumph,LaSalle County,41.499,-89.022
5022,Truro,Knox County,40.958,-90.042
5147,Villa Ridge,Pulaski County,37.159,-89.195
5198,Walla Walla,Cumberland County,39.201,-88.192
5215,Ware,Union County,37.448,-89.394
5226,Wartburg,Monroe County,38.291,-90.196
5260,Weaver,Clark County,39.418,-87.599
5266,Webster,Hancock County,40.466,-91.001
5333,Weston,McLean County,40.747,-88.622
5461,Wolf Lake,Union County,37.504,-89.438