phoneme,name,latitude,longitude
01619,Chicago,41.837,-87.685
00371,Aurora,41.763,-88.290
07329,Rockford,42.249,-89.075
09203,Wheeling,42.110,-87.945
04308,Joliet,41.518,-88.149
09102,Worth,41.690,-87.744
05890,Naperville,41.749,-88.162
07329,Rockford,42.259,-89.063
05154,Maine,42.034,-87.864
07666,Schaumburg,42.029,-88.090
09494,York,41.862,-87.976
00371,Aurora,41.769,-88.319
05583,Milton,41.859,-88.090
02671,Elgin,42.039,-88.326
05100,Lyons,41.775,-87.860
06619,Peoria,40.694,-89.589
01363,Capital,39.791,-89.645
01032,Bremen,41.602,-87.735
02671,Elgin,42.026,-88.318
05890,Naperville,41.766,-88.201
03680,Hanover,42.028,-88.204
06362,Orland,41.599,-87.850
02683,Elk Grove,42.030,-87.977
04827,Leyden,41.938,-87.869
06171,Northfield,42.109,-87.835
09198,Wheatland,41.682,-88.203
00116,Algonquin,42.198,-88.276
00036,Addison,41.948,-87.981
04308,Joliet,41.508,-88.083
00857,Bloom,41.515,-87.599
01664,Cicero,41.846,-87.754
06776,Plainfield,41.594,-88.200
00869,Bloomington,40.484,-88.994
02833,Evanston,42.041,-87.690
07666,Schaumburg,42.029,-88.084
00286,Arlington Heights,42.088,-87.981
07209,Rich,41.515,-87.733
08856,Vernon,42.198,-87.946
02239,Decatur,39.840,-88.955
06462,Palatine,42.110,-88.034
09003,Warren,42.373,-87.946
02484,Dundee,42.110,-88.301
09050,Wayne,41.943,-88.205
00386,Avon,42.358,-88.057
03132,Frankfort,41.514,-87.846
04933,Lockport,41.599,-88.091
06222,Oak Lawn,41.711,-87.758
03437,Grafton,42.197,-88.418
06397,Oswego,41.676,-88.318
06036,New Trier,42.101,-87.745
00724,Berwyn,41.851,-87.794
04835,Libertyville,42.284,-87.945
06117,Normal,40.514,-88.991
06224,Oak Park,41.885,-87.784
09199,Wheaton,41.866,-88.107
08092,St. Charles,41.942,-88.321
08652,Troy,41.508,-88.197
03366,Glenview,42.070,-87.788
09347,Winfield,41.853,-88.208
05381,McHenry,42.372,-88.280
06776,Plainfield,41.630,-88.245
02719,Elmhurst,41.897,-87.944
02653,Ela,42.196,-88.062
04959,Lombard,41.880,-88.008
02262,DeKalb,41.935,-88.772
01192,Buffalo Grove,42.166,-87.962
05639,Moline,41.507,-90.515
00648,Belleville,38.520,-89.984
04000,Homer,41.592,-87.964
00498,Bartlett,41.961,-88.178
02114,Crystal Lake,42.241,-88.316
07017,Quincy,39.936,-91.410
02633,Edwardsville,38.790,-89.985
06502,Park Ridge,42.011,-87.841
02131,Cunningham,40.110,-88.197
09203,Wheeling,42.130,-87.921
06196,Nunda,42.285,-88.274
01396,Carpentersville,42.121,-88.258
07818,Shields,42.281,-87.857
07316,Rock Island,41.509,-90.579
01830,Collinsville,38.700,-89.982
08093,St. Clair,38.534,-89.980
00519,Batavia,41.832,-88.317
06397,Oswego,41.683,-88.339
06168,Northbrook,42.128,-87.829
05716,Moraine,42.186,-87.806
09399,Woodridge,41.737,-88.044
03159,Fremont,42.279,-88.063
08092,St. Charles,41.919,-88.311
06205,O'Fallon,38.592,-89.911
06587,Pekin,40.569,-89.625
06086,Niles,42.019,-87.803
03904,Highland Park,42.182,-87.800
09398,Wood River,38.871,-90.080
00116,Algonquin,42.159,-88.322
00668,Belvidere,42.282,-88.891
01209,Burbank,41.734,-87.779
02195,Danville,40.124,-87.630
04661,Lansing,41.565,-87.539
03475,Grant,42.370,-88.161
04097,Huntley,42.161,-88.435
00232,Antioch,42.465,-88.114
06587,Pekin,40.593,-89.627
07487,Rutland,42.108,-88.412
06212,Oak Forest,41.603,-87.744
03272,Geneva,41.881,-88.323
00519,Batavia,41.848,-88.311
09431,Woodstock,42.315,-88.449
00165,Alton,38.891,-90.184
01372,Carbondale,37.730,-89.210
09526,Zion,42.446,-87.833
09014,Washington,40.704,-89.418
01830,Collinsville,38.676,-90.006
04351,Kankakee,41.108,-87.859
05444,Melrose Park,41.901,-87.857
09178,Westmont,41.796,-87.976
02725,Elmwood Park,41.921,-87.809
04890,Lisle,41.801,-88.075
03156,Freeport,42.297,-89.621
09039,Wauconda,42.283,-88.167
02057,Crete,41.420,-87.602
05344,Maywood,41.879,-87.843
07399,Roselle,41.980,-88.086
09499,Yorkville,41.641,-88.447
04657,Lemont,41.669,-87.962
00868,Bloomingdale,41.958,-88.081
08880,Villa Park,41.890,-87.989
02202,Darien,41.746,-87.981
01372,Carbondale,37.722,-89.224
02399,Dorr,42.286,-88.414
03669,Hampton,41.528,-90.388
05679,Montgomery,41.721,-88.358
02385,Dolton,41.639,-87.607
03132,Frankfort,41.507,-87.871
07386,Roscoe,42.449,-88.992
01525,Centreville,38.574,-90.149
03752,Harvey,41.610,-87.647
01567,Charleston,39.481,-88.187
04604,Lake Forest,42.259,-87.841
01602,Cherry Valley,42.198,-88.993
02255,Deerfield,42.166,-87.852
01103,Brookfield,41.824,-87.852
04005,Homewood,41.557,-87.666
00692,Benton,42.433,-87.860
06406,Ottawa,41.346,-88.843
05315,Matteson,41.504,-87.713
07426,Round Lake,42.353,-88.093
08376,Sycamore,41.989,-88.687
00662,Bellwood,41.881,-87.883
03134,Franklin Park,41.935,-87.866
07830,Shorewood,41.520,-88.202
01300,Calumet,41.658,-87.657
04858,Limestone,40.668,-89.702
01376,Cary,42.212,-88.238
04237,Jacksonville,39.734,-90.229
05750,Morton,40.615,-89.440
03377,Godfrey,38.956,-90.187
04657,Lemont,41.667,-87.984
02337,Dixon,41.868,-89.459
00813,Blackberry,41.852,-88.429
03950,Hinsdale,41.801,-87.928
02117,Cuba,42.196,-88.163
08187,Sterling,41.814,-89.688
01324,Campton,41.940,-88.428
05316,Mattoon,39.483,-88.373
05248,Marion,37.731,-88.933
09164,Westchester,41.851,-87.882
02884,Fairview Heights,38.589,-89.990
01992,Country Club Hills,41.568,-87.720
00493,Barrington,42.112,-88.179
04255,Jarvis,38.703,-89.867
04555,La Grange,41.805,-87.869
06974,Prospect Heights,42.095,-87.938
00358,Aux Sable,41.424,-88.306
00993,Bradley,41.142,-87.861
09007,Warrenville,41.818,-88.173
05809,Mount Vernon,38.317,-88.903
01353,Canton,40.581,-90.047
07819,Shiloh,38.561,-89.897
04874,Lindenhurst,42.411,-88.026
08357,Swansea,38.534,-89.989
01524,Centralia,38.513,-89.082
03881,Hickory Hills,41.726,-87.825
03065,Forest Park,41.879,-87.814
05526,Midlothian,41.625,-87.718
05428,Medina,40.846,-89.585
03340,Glen Carbon,38.748,-89.983
01555,Channahon,41.425,-88.267
06053,Newell,40.205,-87.594
04861,Lincoln,40.148,-89.365
06174,Northlake,41.917,-87.896
02415,Douglas,39.167,-88.533
06861,Pontiac,40.888,-88.644
08252,Streator,41.125,-88.830
04343,Justice,41.744,-87.838
02635,Effingham,39.120,-88.543
05178,Manhattan,41.425,-87.962
06780,Plano,41.663,-88.537
07073,Rantoul,40.308,-88.156
01524,Centralia,38.522,-89.124
08435,Taylorville,39.569,-89.317
01141,Bruce,41.169,-88.846
07277,River Forest,41.898,-87.814
09429,Woodside,39.731,-89.667
05237,Markham,41.594,-87.695
08652,Troy,38.729,-89.883
09026,Waterloo,38.336,-90.150
01835,Columbia,38.458,-90.216
03123,Fox Lake,42.428,-88.184
08299,Summit,41.788,-87.810
02055,Crestwood,41.661,-87.753
01555,Channahon,41.421,-88.190
00493,Barrington,42.152,-88.129
01834,Coloma,41.772,-89.691
07284,Riverdale,41.643,-87.636
06638,Peru,41.324,-89.135
03899,Highland,38.739,-89.671
06316,Olney,38.710,-88.088
04278,Jersey,39.148,-90.305
03723,Harrisburg,37.731,-88.541
06638,Peru,41.347,-89.133
05655,Monmouth,40.931,-90.609
04431,Kewanee,41.274,-89.919
05150,Mahomet,40.195,-88.404
03750,Harvard,42.422,-88.614
04220,Itasca,41.975,-88.007
00817,Blackhawk,41.437,-90.595
07308,Rochelle,41.920,-89.062
07306,Robinson,39.015,-87.750
04164,Ingleside,42.381,-88.139
08281,Sugar Grove,41.761,-88.444
06784,Plato,42.025,-88.433
09325,Willowbrook,41.770,-87.936
01589,Chemung,42.455,-88.648
06965,Princeton,41.364,-89.451
07287,Riverside,41.835,-87.823
06499,Paris,39.628,-87.710
03667,Hampshire,42.112,-88.530
05198,Manteno,41.251,-87.831
07536,Salem,38.609,-88.973
05098,Lynwood,41.526,-87.539
04390,Kendall,41.588,-88.431
09102,Worth,40.803,-89.441
07652,Savoy,40.055,-88.252
01666,Cincinnati,40.518,-89.663
07313,Rock Falls,41.780,-89.689
00692,Benton,37.997,-88.870
03351,Glencoe,42.135,-87.758
03367,Glenwood,41.543,-87.602
02057,Crete,41.441,-87.624
01577,Chatham,39.661,-89.754
03827,Helvetia,38.703,-89.652
01714,Clear Lake,39.828,-89.534
04974,Long Grove,42.178,-87.998
03641,Hall,41.359,-89.224
04279,Jerseyville,39.120,-90.328
05294,Maryville,38.724,-89.956
01631,Chillicothe,40.929,-89.495
03933,Hillside,41.878,-87.903
04213,Island Lake,42.279,-88.200
01088,Broadview,41.864,-87.853
04866,Lincolnshire,42.190,-87.908
06500,Park City,42.348,-87.884
07337,Rockton,42.453,-89.072
01609,Chester,37.914,-89.822
02561,East Lincoln,40.172,-89.302
05239,Marengo,42.249,-88.608
01646,Chouteau,38.784,-90.095
00438,Ball,39.659,-89.643
03271,Geneseo,41.455,-90.145
07604,Sandwich,41.678,-88.623
01520,Central,38.869,-89.433
04182,Inverness,42.118,-88.096
08770,Urbana,40.079,-88.150
03279,Georgetown,40.002,-87.654
01286,Caledonia,42.371,-88.901
05743,Morris,41.365,-88.409
07604,Sandwich,41.650,-88.619
05452,Mendota,41.576,-89.101
05813,Mount Zion,39.737,-88.860
08761,University Park,41.447,-87.713
08199,Stickney,41.821,-87.783
01741,Clinton,40.154,-88.965
07542,Saline,38.782,-89.644
07148,Reed,41.243,-88.214
08819,Vandalia,38.961,-89.094
05779,Mount Carmel,38.411,-87.761
06065,Newport,42.454,-87.949
07225,Richmond,42.455,-88.296
04891,Litchfield,39.175,-89.654
07751,Seward,41.505,-88.319
01838,Colona,41.452,-90.369
08280,Sugar Creek,38.612,-89.656
00572,Beardstown,40.003,-90.435
07819,Shiloh,38.341,-88.980
03931,Hillsboro,39.126,-89.523
03548,Greenville,38.892,-89.413
00985,Braceville,41.245,-88.278
07635,Saratoga,41.418,-88.420
09014,Washington,41.342,-87.599
00788,Byron,42.166,-89.264
04296,Johnsburg,42.380,-88.242
03132,Frankfort,37.907,-88.865
08288,Sullivan,39.591,-88.651
01993,Countryside,41.783,-87.878
04632,Lakemoor,42.339,-88.203
04731,Lawrence,38.732,-87.695
05682,Monticello,40.018,-88.543
06481,Pana,39.406,-89.090
05188,Manlius,41.340,-88.646
03735,Harter,38.674,-88.535
09329,Wilmington,41.334,-88.189
00360,Auburn,39.567,-89.758
00504,Bartonville,40.650,-89.652
07230,Richwoods,40.753,-89.573
01412,Carterville,37.760,-89.077
02904,Fancy Creek,39.919,-89.659
01762,Coal City,41.279,-88.280
09323,Willow Springs,41.741,-87.860
05443,Melrose,39.883,-91.343
04611,Lake Holiday,41.613,-88.672
08067,Springfield,39.847,-89.655
03475,Grant,40.442,-87.647
03273,Genoa,42.105,-88.656
08055,Spring Grove,42.444,-88.236
06894,Posen,41.632,-87.681
07309,Rochester,39.746,-89.534
08062,Spring Valley,41.328,-89.200
08109,St. Joseph,40.103,-88.061
08696,Tuscola,39.815,-88.277
08171,Staunton,39.020,-89.753
03909,Highwood,42.200,-87.809
06481,Pana,39.395,-89.091
00664,Belmont,41.793,-88.038
06537,Patton,40.443,-88.136
00700,Berkeley,41.889,-87.903
06710,Pinckneyville,38.080,-89.382
02827,Eureka,40.721,-89.273
07039,Radnor,40.842,-89.698
06867,Poplar Grove,42.370,-88.823
05533,Milan,41.453,-90.572
03150,Freeburg,38.439,-89.869
09355,Winnebago,42.247,-89.227
04858,Limestone,41.129,-87.959
02058,Creve Coeur,40.647,-89.591
01240,Burton,42.455,-88.217
04521,Knox,40.929,-90.265
00298,Aroma,41.073,-87.785
05268,Marseilles,41.331,-88.708
02870,Fairfield,38.379,-88.360
05801,Mount Pleasant,41.803,-89.907
03025,Flora,38.669,-88.486
04758,Lebanon,38.609,-89.767
04584,Lafayette,39.477,-88.292
02292,Denning,37.910,-88.985
00611,Beecher,41.341,-87.621
08721,Tyrone,37.989,-89.093
01254,Butterfield,41.836,-88.042
07811,Sherman,39.894,-89.605
08839,Venice,38.713,-90.170
07299,Robbins,41.644,-87.704
07792,Shelbyville,39.406,-88.790
03240,Gardner,39.842,-89.771
06705,Pin Oak,38.790,-89.876
01113,Brookside,38.532,-89.222
05487,Metamora,40.799,-89.328
05269,Marshall,39.401,-87.736
06555,Paxton,40.460,-88.095
02943,Felix,41.311,-88.295
05806,Mount Sterling,39.976,-90.737
01768,Coal Valley,41.437,-90.473
01962,Cortland,41.920,-88.689
01426,Caseyville,38.637,-90.026
00939,Bonus,42.295,-88.755
03195,Fulton,41.879,-90.121
03768,Havana,40.282,-90.008
08922,Wade,39.006,-88.182
04644,Lakewood,42.229,-88.355
05617,Mission,41.509,-88.654
05120,Mackinaw,40.532,-89.327
04003,Hometown,41.734,-87.731
02512,Dwight,41.072,-88.409
09265,Whitmore,39.930,-88.855
04733,Lawrenceville,38.729,-87.682
06765,Pittsfield,39.608,-90.805
00218,Anna,37.460,-89.247
07928,Smithton,38.434,-89.985
05065,Ludlow,40.363,-88.185
04137,Indian Grove,40.710,-88.530
05744,Morrison,41.810,-89.965
02512,Dwight,41.098,-88.425
01227,Burnham,41.639,-87.557
05463,Mercer,41.197,-90.724
07967,Somerset,37.818,-89.304
02751,Empire,40.337,-88.745
08029,Sparta,38.123,-89.702
03098,Foster,38.967,-90.103
05248,Marion,42.090,-89.217
04232,Jackson,41.414,-88.083
03511,Green Garden,41.426,-87.845
01069,Brighton,39.046,-90.094
07400,Rosemont,41.995,-87.885
01768,Coal Valley,41.438,-90.439
01381,Carlyle,38.610,-89.359
09189,Wethersfield,41.192,-89.926
08299,Summit,39.131,-88.636
05516,Middleport,40.816,-87.708
02666,Eldorado,37.814,-88.438
07114,Red Bud,38.212,-89.994
03077,Forsyth,39.933,-88.951
05796,Mount Morris,42.071,-89.452
06269,Oglesby,41.295,-89.060
02253,Deer Park,42.166,-88.086
01091,Broadwell,40.088,-89.433
01931,Coral,42.195,-88.535
00100,Aledo,41.200,-90.749
06430,Owen,42.383,-89.107
02865,Fairbury,40.747,-88.515
06352,Oregon,42.015,-89.332
07650,Savanna,42.081,-90.144
07487,Rutland,41.390,-88.754
05642,Momence,41.168,-87.591
03583,Grover,38.357,-88.310
03635,Hainesville,42.345,-88.068
02490,Dunleith,42.481,-90.615
05768,Mound,39.045,-88.749
07288,Riverton,39.844,-89.540
08928,Wadsworth,42.429,-87.924
07886,Six Mile,37.905,-89.092
04741,Le Roy,40.352,-88.764
04474,Kingston,42.113,-88.765
05899,Nashville,38.348,-89.424
01425,Casey,39.304,-87.959
09300,Williams,39.925,-89.545
02648,El Paso,40.703,-89.018
05952,New Baden,38.537,-89.707
06291,Old Town,40.445,-88.860
00923,Bowling,41.371,-90.609
08850,Virden,39.500,-89.751
05672,Montebello,40.422,-91.319
07687,Scott,42.107,-89.114
03209,Galena,42.417,-90.429
00871,Blount,40.213,-87.702
00264,Arcola,39.706,-88.288
04948,Logan,40.671,-89.819
08850,Virden,39.506,-89.771
07904,Sleepy Hollow,42.094,-88.303
09150,West Point,42.418,-89.869
01652,Christy,38.698,-87.856
05132,Madison,38.686,-90.102
02921,Farmington,40.666,-90.050
01208,Bunker Hill,39.027,-89.983
06243,Oakwood,40.132,-87.838
06674,Piasa,39.028,-90.211
09187,Westville,40.042,-87.639
05798,Mount Olive,39.065,-89.753
01456,Catlin,40.061,-87.725
07472,Rushville,40.121,-90.563
01473,Cedar,40.839,-90.378
07163,Riley,42.196,-88.652
06553,Pawnee,39.573,-89.582
03025,Flora,42.206,-88.891
01413,Carthage,40.414,-91.088
02712,Elm Grove,40.526,-89.551
04977,Long Lake,42.371,-88.128
09166,Western,41.369,-90.376
01602,Cherry Valley,42.235,-88.975
00012,Abingdon,40.804,-90.402
07737,Seneca,42.291,-88.525
07248,Ridgewood,41.536,-88.040
01584,Chebanse,40.951,-87.915
04523,Knoxville,40.908,-90.285
01401,Carrollton,39.330,-90.436
01246,Bushnell,40.563,-90.503
08053,Spring Garden,38.163,-88.873
00183,Amboy,41.713,-89.343
02486,Dunham,42.369,-88.650
02703,Ellington,39.994,-91.314
06101,Nokomis,39.298,-89.315
02648,El Paso,40.740,-89.018
03481,Granville,41.261,-89.216
04750,Lena,42.379,-89.822
03659,Hamilton,40.396,-91.339
03219,Galva,41.184,-90.038
02369,Dodds,38.255,-88.880
06068,Newton,38.991,-88.163
08622,Tremont,40.521,-89.432
08302,Sumner,38.717,-87.861
06408,Otter Creek,41.154,-88.761
01656,Christopher,37.973,-89.053
02326,Diamond,41.285,-88.251
01188,Buffalo,41.986,-89.569
02876,Fairmont,41.556,-88.059
08624,Trenton,38.606,-89.682
07809,Sheridan,41.530,-88.680
07987,South Fork,39.579,-89.452
08535,Tilton,40.095,-87.648
03394,Goode,38.080,-89.084
04824,Lewistown,40.408,-90.161
09223,White Hall,39.423,-90.396
03842,Henry,41.119,-89.386
07616,Sangamon,40.121,-88.516
09019,Washington Park,38.635,-90.093
05950,New Athens,38.349,-89.866
08879,Villa Grove,39.863,-88.162
02724,Elmwood,40.761,-89.920
04074,Hudson,40.628,-88.978
04392,Kenilworth,42.086,-87.718
05679,Montgomery,40.646,-89.225
02533,Earl,41.592,-88.881
02551,East Fork,39.100,-89.419
05684,Montmorency,41.708,-89.700
00664,Belmont,40.730,-87.708
01308,Cambridge,41.285,-90.135
07296,Roanoke,40.794,-89.217
03670,Hanna,41.507,-90.266
01123,Browning,37.997,-88.989
01425,Casey,39.305,-87.985
04826,Lexington,40.627,-88.755
03814,Hebron,42.454,-88.414
08506,Thornton,41.568,-87.608
07737,Seneca,41.303,-88.615
02921,Farmington,40.697,-90.002
07772,Sharon,39.051,-89.104
02499,Durand,42.410,-89.349
04617,Lake of the Woods,40.206,-88.369
05297,Mason City,40.186,-89.661
01216,Burgess,38.785,-89.547
09325,Willowbrook,41.458,-87.536
01059,Bridgeport,38.701,-87.780
02231,De Soto,37.815,-89.196
07621,Santa Anna,40.236,-88.651
09050,Wayne,41.947,-88.253
06845,Polo,41.986,-89.579
08213,Stockton,42.328,-90.040
08536,Timber,40.578,-89.819
03545,Greenup,39.229,-88.146
00205,Andalusia,41.436,-90.721
06642,Petersburg,40.012,-89.848
00307,Arthur,39.714,-88.470
03133,Franklin,42.109,-88.887
02735,Elwood,41.404,-88.112
07600,Sandoval,38.605,-89.114
00161,Altamont,39.062,-88.748
01069,Brighton,39.041,-90.140
08803,Valley View,41.966,-88.299
04135,Indian Creek,37.977,-88.317
07321,Rock Run,42.395,-89.463
08598,Toulon,41.105,-89.806
03328,Girard,39.457,-89.757
07725,Selby,41.370,-89.339
04516,Knollwood,42.272,-87.896
09064,Webber,38.351,-88.756
09104,Wesley,41.256,-88.063
06412,Otto,41.039,-87.916
08918,Wabash,39.410,-87.605
03288,Germantown,38.517,-89.541
01121,Brown,40.347,-88.394
07287,Riverside,39.998,-91.433
07102,Reading,41.063,-88.878
02415,Douglas,40.770,-88.003
04938,Locust,39.478,-89.192
02984,Fisher,40.315,-88.350
00942,Boone,42.371,-88.740
08303,Sumpter,39.277,-88.253
04025,Hopkins,41.797,-89.809
09494,York,41.986,-90.058
03942,Hinckley,41.769,-88.641
07326,Rockdale,41.506,-88.115
03704,Harlem,42.334,-89.701
07971,Somonauk,41.678,-88.686
03069,Forreston,42.163,-89.638
06935,Prairie Grove,42.279,-88.261
00342,Athens,39.961,-89.724
08086,St. Anne,41.045,-87.716
08773,Utica,41.346,-88.986
06698,Pilot,41.058,-88.076
02270,Delavan,40.361,-89.545
00089,Albion,38.378,-88.056
01530,Cerro Gordo,39.854,-88.679
05831,Moweaqua,39.632,-88.973
07387,Rose,39.395,-88.871
04129,Ina,38.151,-88.904
05139,May,39.564,-89.193
00993,Bradley,37.913,-89.566
02789,Erie,41.647,-90.125
03738,Hartland,42.370,-88.532
04658,Lamotte,39.016,-87.620
00649,Bellevue,40.684,-89.680
06666,Philo,40.018,-88.195
00347,Atlanta,40.249,-89.210
03563,Gridley,40.718,-88.890
02194,Danvers,40.544,-89.210
01165,Buckhart,39.662,-89.336
03979,Hollis,40.588,-89.704
01741,Clinton,41.763,-88.771
01187,Buena Vista,40.141,-90.619
06596,Pembroke,41.065,-87.592
07971,Somonauk,41.635,-88.687
07338,Rockvale,42.085,-89.338
00756,Big Rock,41.763,-88.537
05620,Mississippi,39.049,-90.309
03411,Goose Lake,41.364,-88.296
01307,Cambria,37.781,-89.119
01791,Coe,41.621,-90.258
04926,Lowe,39.744,-88.530
06360,Orion,41.355,-90.382
05831,Moweaqua,39.626,-89.021
03321,Gilman,40.767,-87.992
02680,Elk,37.907,-89.211
04256,Jasper,38.427,-88.306
06558,Payson,39.806,-91.196
03729,Harristown,39.841,-89.092
06306,Olive,38.962,-89.751
04314,Jonesboro,37.452,-89.268
00791,Bishop,39.045,-88.415
05030,Louisville,38.783,-88.530
06661,Phenix,41.530,-90.145
07826,Shoal Creek,38.973,-89.542
04277,Jerome,39.768,-89.681
07844,Sidney,40.004,-88.077
06672,Phoenix,41.611,-87.635
01459,Cave,37.910,-88.757
08057,Spring Lake,40.486,-89.811
01279,Cairo,37.005,-89.176
08904,Virginia,39.928,-90.221
08922,Wade,38.609,-89.436
07204,Rome,38.428,-88.974
06874,Port Byron,41.606,-90.335
04489,Kirkland,42.093,-88.851
00614,Bement,39.927,-88.533
03851,Heritage Lake,40.547,-89.326
06966,Princeville,40.930,-89.758
05265,Marrowbone,39.630,-88.762
00030,Adams,41.584,-88.765
02537,Earlville,41.589,-88.922
04659,Lanark,42.102,-89.833
00490,Barry,39.712,-91.094
02489,Dunlap,40.862,-89.679
08971,Walnut,41.544,-89.579
00686,Bennington,40.971,-89.104
05955,New Berlin,39.717,-89.890
05039,Lovington,39.730,-88.644
09175,Westlake Village,42.306,-89.287
07204,Rome,40.883,-89.503
03646,Hallock,40.930,-89.582
07027,Raccoon,38.519,-88.977
09340,Winchester,39.630,-90.456
04599,Lake Camelot,40.631,-89.742
05165,Malta,41.933,-88.883
05284,Martinsville,39.319,-87.853
01804,Colchester,40.415,-90.790
08706,Twin Grove,40.493,-89.080
01414,Cartwright,39.841,-89.909
09009,Warsaw,40.359,-91.435
02963,Field,38.432,-88.867
06398,Otego,38.934,-88.978
02402,Dorchester,39.046,-89.860
09003,Warren,42.484,-90.027
03064,Forest Lake,42.208,-88.056
08874,Vienna,37.415,-88.898
05540,Milford,40.630,-87.713
09518,Zeigler,37.899,-89.052
07411,Ross,40.370,-87.640
04008,Honey Creek,38.903,-87.733
07439,Roxana,38.848,-90.076
02518,Eagle,41.144,-88.917
03241,Garfield,41.149,-88.329
03382,Gold Hill,37.734,-88.198
05658,Monroe,42.104,-89.002
01869,Concord,41.362,-89.677
03506,Greene,41.198,-90.614
02735,Elwood,39.911,-87.632
09027,Waterman,41.772,-88.774
09308,Williamsville,39.954,-89.549
04144,Indian Point,40.765,-90.392
09468,Wysox,41.977,-89.802
08755,Unity,39.826,-88.529
04580,Ladd,41.383,-89.219
02250,Deer Creek,40.608,-89.337
07411,Ross,39.837,-87.710
01367,Capron,42.400,-88.740
03056,Forrest,40.724,-88.420
03462,Grandview,39.816,-89.619
04457,Kincaid,39.589,-89.415
06808,Pleasant View,39.692,-89.083
04660,Lancaster,42.337,-89.569
04556,La Harpe,40.593,-90.964
09343,Windsor,39.474,-88.653
02604,Eden,41.236,-89.106
03240,Gardner,41.186,-88.310
02146,Custer,41.227,-88.133
00335,Assumption,39.516,-89.081
06052,Newcomb,40.264,-88.401
06339,Orel,38.306,-88.555
08575,Toluca,41.002,-89.133
01738,Clifton,40.935,-87.934
02290,Denison,38.631,-87.690
03246,Garrett,39.826,-88.413
05515,Middlefork,40.316,-87.839
01578,Chatsworth,40.711,-88.301
05918,Nebraska,40.881,-88.883
08098,St. Elmo,39.027,-88.848
02428,Downs,40.351,-88.871
09467,Wyoming,41.062,-89.773
07593,Sand Prairie,40.436,-89.661
00327,Ashland,39.916,-90.023
04682,Laona,42.477,-89.329
00728,Bethany,39.646,-88.738
08470,Texas,40.099,-88.972
04973,Long Creek,39.812,-88.848
09467,Wyoming,41.682,-88.992
04232,Jackson,39.036,-88.637
06464,Palestine,39.004,-87.613
02169,Dale,40.436,-89.102
03923,Hillcrest,41.951,-89.065
06931,Prairie,39.281,-88.638
07397,Rosefield,40.748,-89.809
01502,Salina,41.161,-88.069
05356,McClellan,38.256,-88.984
01647,Chrisman,39.804,-87.674
07417,Rossville,40.379,-87.669
02749,Emmet,40.504,-90.752
06794,Pleasant Grove,39.403,-88.253
06955,Preston,38.809,-88.084
05279,Martin,40.525,-88.627
07625,Santa Fe,38.527,-89.435
03736,Hartford,38.833,-90.096
01164,Buckeye,42.417,-89.633
08184,Stevenson,38.603,-88.863
08099,St. Francis,39.130,-88.414
02832,Evans,41.072,-89.100
01430,Casner,38.340,-89.094
02117,Cuba,40.493,-90.191
04130,Independence,37.641,-88.546
06437,Oxford,41.194,-90.379
08571,Toledo,39.274,-88.244
09046,Waverly,39.592,-89.953
05125,Macon,39.713,-88.997
03323,Gilmer,39.982,-91.214
06600,Pendleton,38.253,-88.754
04587,Lagrange,38.975,-89.430
06464,Palestine,40.692,-89.112
05623,Mitchell,38.762,-90.085
00357,Atwood,39.799,-88.463
02620,Edinburg,39.657,-89.390
06360,Orion,40.586,-89.932
00221,Annawan,41.373,-89.912
06665,Phillips,38.171,-88.048
08189,Steuben,41.020,-89.484
01521,Central City,38.549,-89.127
09444,Worden,38.931,-89.839
07005,Quarry,38.989,-90.475
09005,Warrensburg,39.933,-89.062
05554,Milledgeville,41.963,-89.775
04934,Lockport Heights,41.619,-88.025
01103,Brookfield,41.249,-88.661
03496,Gray,38.232,-88.056
07785,Shawneetown,37.713,-88.187
05652,Money Creek,40.632,-88.882
04000,Homer,40.035,-87.958
07444,Royalton,37.877,-89.115
08029,Sparta,41.020,-90.266
03535,Greenfield,39.344,-90.213
05745,Morrisonville,39.420,-89.456
04850,Lily Lake,41.949,-88.478
01584,Chebanse,41.006,-87.910
01785,Cobden,37.531,-89.253
09013,Washburn,40.920,-89.292
03845,Hensley,40.186,-88.298
03535,Greenfield,41.149,-88.270
00460,Bannockburn,42.193,-87.866
08816,Vance,40.045,-87.880
05144,Magnolia,41.144,-89.232
07463,Rural,41.370,-90.491
06062,Newman,39.829,-88.002
08411,Tampico,41.628,-89.805
06260,Odell,41.004,-88.525
03235,Garden Plain,41.791,-90.139
00601,Bedford,38.522,-88.415
06047,Newark,41.537,-88.583
01817,Colfax,40.567,-88.616
01978,Cotton Hill,39.659,-89.545
05788,Mount Hope,40.334,-89.220
07687,Scott,40.091,-88.398
09316,Willow Branch,39.985,-88.679
02761,Energy,37.774,-89.026
09098,Wenona,41.049,-89.052
07875,Symmes,39.537,-87.707
01153,Brushy,37.774,-88.663
05247,Marine,38.786,-89.778
07793,Sheldon,40.769,-87.564
06373,Orvil,40.272,-89.432
06048,Newburg,39.622,-90.747
00346,Atkinson,41.421,-90.015
00330,Ashton,41.866,-89.221
08055,Spring Grove,41.015,-90.620
07061,Ramsey,39.144,-89.109
05775,Mount Auburn,39.735,-89.315
07090,Raymond,39.319,-89.572
05909,Nauvoo,40.551,-91.381
04783,Leland,41.613,-88.800
03657,Hamel,38.889,-89.845
05194,Mansfield,40.211,-88.506
06536,Patoka,38.784,-89.079
07536,Salem,40.746,-90.057
03027,Florence,41.332,-88.072
08429,Taylor,41.910,-89.335
00917,Bois D'Arc,39.490,-89.602
01709,Clayton,40.060,-90.970
06795,Pleasant Hill,39.443,-90.872
06183,Norton,41.056,-88.191
04872,Lyndon,41.736,-89.910
06261,Odin,38.617,-89.052
08538,Timberlane,42.335,-88.861
05024,Loudon,39.144,-88.873
05334,Mayfield,42.021,-88.773
00051,Afton,41.856,-88.764
03306,Gifford,40.306,-88.021
00337,Astoria,40.228,-90.360
03453,Grand Prairie,38.430,-89.090
00269,Argenta,39.982,-88.823
02185,Danforth,40.832,-88.006
07767,Shannon,42.155,-89.740
09230,White Oak,40.601,-89.098
07302,Roberts,41.062,-89.228
00221,Annawan,41.396,-89.891
06623,Percy,38.016,-89.619
00208,Andover,41.281,-90.262
06386,Osceola,41.196,-89.693
09460,Wyanet,41.365,-89.584
01917,Cooper,39.745,-89.440
02794,Irving,39.214,-89.420
07406,Roseville,40.732,-90.665
03724,Harrison,37.797,-89.337
05172,Manchester,42.450,-88.897
08577,Tompkins,40.857,-90.724
01248,Butler,40.430,-87.847
06408,Otter Creek,39.043,-90.412
04352,Kansas,39.547,-87.927
06351,Oreana,39.939,-88.866
08047,Spring,42.197,-88.758
03634,Haines,38.519,-88.865
01035,Brenton,40.717,-88.180
02174,Dallas City,40.591,-91.172
08227,Stonington,39.640,-89.193
08899,Viola,41.203,-90.587
05451,Mendon,40.088,-91.284
03680,Hanover,42.256,-90.280
08737,Union,40.664,-90.396
00082,Albany,41.789,-90.219
07247,Ridgway,37.827,-88.201
01679,Claremont,38.714,-87.970
04320,Jordan,41.880,-89.696
01937,Cordova,41.715,-90.284
01749,Clover,41.194,-90.266
01706,Clay City,38.689,-88.354
07262,Ringwood,42.392,-88.297
08497,Thompson,42.418,-90.154
09169,Westfield,41.448,-89.221
03151,Freedom,42.158,-89.928
04811,Levan,37.824,-89.440
01988,Coulterville,38.186,-89.606
00304,Artesia,40.612,-88.019
02806,Essex,41.177,-88.186
02871,Fairhaven,41.977,-89.919
06552,Paw Paw,41.689,-88.981
06270,Ohio,41.544,-89.456
04020,Hopedale,40.421,-89.415
04594,Lake,38.521,-89.322
07789,Sheffield,41.358,-89.737
03332,Gladstone,40.845,-90.978
08473,Texico,38.439,-88.897
08302,Sumner,41.252,-87.722
06801,Pleasant Plains,39.873,-89.921
08853,Vermont,40.319,-90.393
07222,Richland,39.390,-88.639
03207,Galatia,37.841,-88.609
02174,Dallas City,40.635,-91.164
02167,Dakota,42.418,-89.545
09322,Willow Lake,42.333,-89.636
00887,Blue Mound,39.773,-89.087
00430,Bald Hill,38.169,-89.093
03410,Goose Creek,40.112,-88.638
08023,Spaulding,39.866,-89.540
06013,New Milford,42.187,-89.068
04881,Lynn,41.288,-90.395
02895,Fall River,41.303,-88.771
05132,Madison,38.615,-88.088
02786,Equality,37.729,-88.308
04889,Lisbon,41.503,-88.424
06256,Oconee,39.278,-89.084
00142,Alma,38.699,-88.859
00107,Alexis,41.063,-90.555
06574,Pearl City,42.265,-89.826
09270,Witt,39.256,-89.348
01072,Brimfield,40.839,-89.886
08737,Union,38.959,-88.522
04920,Livingston,38.968,-89.764
03691,Hardin,39.157,-90.618
07340,Rockville,41.243,-87.951
04349,Kane,39.215,-90.375
03809,Hurst,37.833,-89.143
05928,Nelson,41.788,-89.573
06345,Orangeville,42.468,-89.644
09154,West Salem,38.521,-88.005
08499,Thomson,41.959,-90.099
00328,Ashley,38.332,-89.202
04297,Johnson,39.483,-89.314
00192,Amity,40.971,-88.765
09409,Woodhull,41.179,-90.316
02449,Drury,41.380,-90.981
03839,Hennepin,41.254,-89.342
04958,Lomax,40.674,-91.079
06075,Niantic,39.872,-89.170
03547,Greenview,40.083,-89.738
05391,McLean,40.314,-89.170
06234,Oakland,39.654,-88.026
05386,McKendree,40.003,-87.577
06826,Pocahontas,38.828,-89.540
00523,Bath,40.156,-90.115
04831,Liberty,39.194,-88.750
00985,Braceville,41.225,-88.268
04460,Kinderhook,39.715,-91.206
08671,Tunbridge,40.093,-89.091
08193,Stewardson,39.263,-88.630
06265,Ogden,40.114,-87.956
08531,Tilden,38.212,-89.683
07846,Sigel,39.251,-88.524
01134,Brownstown,38.996,-88.953
04008,Honey Creek,40.066,-91.201
01610,Chesterfield,39.224,-90.078
06716,Pine Creek,41.979,-89.455
02762,Enfield,38.099,-88.338
02400,Dora,39.732,-88.749
05309,Matherville,41.260,-90.608
00367,Augusta,40.236,-90.969
03270,Genesee,41.880,-89.817
02676,Elizabeth,42.318,-90.222
06790,Pleasant,40.330,-90.282
01109,Brooklyn,41.674,-89.109
01539,Chalmers,40.404,-90.721
07806,Sherrard,41.319,-90.506
03437,Grafton,38.970,-90.431
06327,Oneida,41.072,-90.225
02686,Elk Prairie,38.179,-88.983
08270,Sublette,41.621,-89.226
00386,Avon,40.662,-90.435
02660,Elbridge,39.531,-87.588
02919,Farmersville,39.443,-89.652
06904,Potomac,40.305,-87.801
02072,Crooked Creek,39.122,-88.138
08851,Vergennes,37.906,-89.318
00153,Alpha,41.192,-90.380
08859,Versailles,39.886,-90.630
02391,Dongola,37.361,-89.166
06071,Newtown,41.064,-88.761
08874,Vienna,41.242,-88.523
08975,Walnut Grove,41.108,-90.156
00702,Berlin,41.457,-89.344
09343,Windsor,41.202,-90.444
01860,Como,41.766,-89.767
09034,Watson,39.025,-88.570
00992,Bradford,41.177,-89.658
02250,Deer Creek,40.630,-89.332
04493,Kirkwood,40.866,-90.748
02975,Findlay,39.523,-88.754
05770,Mounds,37.114,-89.198
05420,Mechanicsburg,39.809,-89.397
02176,Dalzell,41.356,-89.173
01499,Cedarville,42.376,-89.633
00316,Ash Grove,40.624,-87.855
03381,Golconda,37.367,-88.486
07659,Saybrook,40.427,-88.526
02458,Du Bois,38.255,-89.199
05935,Neponset,41.280,-89.794
04963,Lone Grove,38.868,-88.864
09169,Westfield,39.459,-87.961
04373,Keithsburg,41.120,-90.937
08206,Stites,38.653,-90.162
08288,Sullivan,40.885,-88.300
09469,Xenia,38.619,-88.642
01109,Brooklyn,38.659,-90.166
03383,Golden,40.109,-91.018
05679,Montgomery,38.901,-87.594
09318,Willow Creek,41.757,-88.988
01609,Chester,40.093,-89.313
08737,Union,39.326,-88.092
01709,Clayton,40.882,-89.104
02086,Crossville,38.162,-88.065
04515,Noble,38.698,-88.224
06227,Oak Run,40.963,-90.145
02542,East Bend,40.362,-88.281
03754,Harwood,40.364,-88.069
09053,Waynesville,40.253,-89.091
00963,Bowdre,39.706,-88.149
06347,Orchard,38.523,-88.637
08478,Thayer,39.538,-89.763
05545,Mill Shoals,38.192,-88.318
02053,Creston,41.931,-88.965
03526,Green Valley,40.408,-89.643
04745,Leef,38.874,-89.660
06653,Petty,38.798,-87.842
08112,St. Libory,38.363,-89.710
05570,Millington,41.560,-88.604
07862,Silver Creek,42.244,-89.567
02360,Dix,40.464,-88.283
00759,Big Spring,39.311,-88.525
05956,New Boston,41.170,-90.997
02882,Fairview,40.673,-90.150
00831,Blair,38.870,-88.526
09417,Woodlawn,38.330,-89.033
03151,Freedom,41.499,-88.876
02877,Fairmount,40.046,-87.831
08145,Stanford,38.672,-88.417
06475,Palmyra,39.435,-89.996
08275,Suez,41.110,-90.608
04370,Keene,40.145,-91.203
09501,Young America,39.836,-87.851
03579,Grove,39.128,-88.282
03378,Godley,41.244,-88.243
04153,Indiantown,41.276,-89.573
08145,Stanford,40.435,-89.218
01966,Corwin,40.094,-89.548
03133,Franklin,39.620,-90.044
01349,Canoe Creek,41.613,-90.189
00419,Bainbridge,40.045,-90.507
05556,Miller,41.409,-88.643
00117,Alhambra,38.888,-89.731
02215,Davis,42.423,-89.414
04205,Irvington,38.439,-89.163
06525,Partridge,40.866,-89.461
06839,Polk,39.220,-89.975
02576,Eastern,37.991,-88.761
04019,Hope,41.148,-89.105
09313,Willisville,37.984,-89.590
03419,Goshen,41.106,-89.927
00793,Bismarck,40.264,-87.608
04884,Lynnville,42.016,-88.988
00931,Bond,38.814,-87.696
06931,Prairie,39.136,-87.791
02806,Essex,41.018,-89.812
04157,Industry,40.323,-90.620
08963,Wallace,41.418,-88.883
02928,Farrington,38.431,-88.747
05188,Manlius,41.454,-89.683
06764,Pittsburg,37.777,-88.850
09303,Williamsfield,40.923,-90.015
01849,Columbus,39.983,-91.098
02912,Farina,38.830,-88.781
09361,Winslow,42.482,-89.838
03582,Groveland,40.971,-88.989
02738,Embarrass,39.672,-87.915
04357,Kaskaskia,38.862,-89.081
03114,Four Mile,38.317,-88.651
08100,St. Francisville,38.591,-87.647
06565,Peach Orchard,40.574,-88.272
08786,Valier,38.015,-89.043
08737,Union,42.233,-88.542
02221,Dawson,40.446,-88.755
06307,Olive Branch,37.169,-89.352
04203,Iroquois,40.816,-87.823
00376,Ava,37.888,-89.495
06229,Oakdale,38.257,-89.541
05859,Murrayville,39.586,-90.252
02045,Crescent City,40.770,-87.859
05840,Mulberry Grove,38.925,-89.269
03860,Herrick,39.238,-88.971
00487,Barren,38.071,-88.992
01434,Cass,40.493,-90.282
06770,Pixley,38.802,-88.307
00651,Bellflower,40.335,-88.515
04135,Indian Creek,42.227,-87.980
09502,Young Hickory,40.670,-90.253
09336,Wilsonville,39.071,-89.856
01225,Burlington,42.053,-88.548
05279,Martin,38.911,-87.866
02044,Crescent,40.727,-87.823
04831,Liberty,39.879,-91.108
04337,Junction City,38.580,-89.128
06698,Pilot,40.217,-87.851
09198,Wheatland,38.963,-88.867
08246,Strasburg,39.353,-88.619
05769,Mound City,37.085,-89.163
00164,Alto,41.844,-88.989
02834,Evansville,38.090,-89.938
06341,Orange,40.842,-90.277
03462,Grandview,39.545,-87.825
01533,Chadwick,42.013,-89.891
09320,Willow Hill,38.985,-88.010
01554,Chandlerville,40.048,-90.155
08648,Trout Valley,42.198,-88.253
07229,Richwood,39.133,-90.545
05093,Lyman,40.626,-88.187
06700,Pilot Knob,38.254,-89.425
03455,Grand Ridge,41.237,-88.831
03664,Hammond,39.797,-88.592
00564,Bear Creek,39.486,-89.412
02221,Dawson,39.853,-89.463
07086,Rawlins,42.443,-90.447
06933,Prairie City,40.607,-90.503
05254,Mark,41.264,-89.250
00595,Beaverville,40.974,-87.591
03390,Golf,42.059,-87.793
07178,Rio,41.108,-90.381
07821,Shipman,39.118,-90.044
08097,St. David,40.493,-90.049
00369,Ora,37.906,-89.422
02123,Cullom,40.878,-88.269
05291,Maryland,42.165,-89.526
07735,Seminary,38.864,-89.204
09282,Wilberton,38.869,-88.970
00363,Audubon,39.278,-89.199
04222,Iuka,38.616,-88.790
04851,Lima,40.162,-91.406
06805,Pleasant Vale,39.626,-91.067
00125,Allen,41.151,-88.644
01400,Carroll,39.928,-87.744
02161,Dahlgren,38.198,-88.684
05469,Meridian,38.608,-89.202
05018,Lost Nation,41.911,-89.367
07186,Rest Haven,41.262,-88.136
04024,Hopewell,41.058,-89.331
05572,Mills,38.788,-89.421
02419,Dover,41.451,-89.452
06030,New Salem,39.709,-90.858
08151,Stanton,40.181,-88.078
02689,Elkhart,39.988,-89.424
07371,Romine,38.517,-88.759
07195,Reynolds,41.332,-90.672
07070,Rankin,40.465,-87.896
08702,Twigg,37.992,-88.536
01170,Buckley,40.597,-88.038
08302,Sumner,41.024,-90.727
06095,Nixon,40.106,-88.755
09430,Woodson,39.629,-90.219
06628,Perry,39.798,-90.734
01983,Cottonwood,39.340,-88.241
07811,Sherman,40.260,-89.885
08498,Thompsonville,37.918,-88.762
04656,Lamoine,40.324,-90.855
02039,Creek,40.091,-88.869
02253,Deer Park,41.288,-88.991
01183,Buda,41.326,-89.679
08051,Spring Creek,39.448,-90.737
00585,Beaver,40.900,-87.589
01872,Condit,40.257,-88.280
06214,Oak Grove,41.411,-90.571
02766,English,39.139,-90.423
04447,Kilbourne,40.170,-89.987
04804,LeRoy,42.447,-88.759
07573,San Jose,40.305,-89.605
08564,Todds Point,39.544,-88.759
02226,Dayton,41.385,-88.794
03057,Forest City,40.340,-89.827
07257,Rinard,38.571,-88.465
00127,Allendale,38.527,-87.710
01560,Chapin,39.766,-90.399
02360,Dix,38.442,-88.938
05054,Lucas,38.956,-88.416
08127,St. Rose,38.684,-89.555
00126,Allens Grove,40.283,-89.664
00964,Bowen,40.233,-91.063
00166,Altona,41.115,-90.165
06632,Perryton,41.288,-90.718
01305,Camargo,39.800,-88.164
08249,Stratton,39.615,-87.585
00050,Aetna,40.099,-89.203
07677,Sciota,40.589,-90.732
02741,Emden,40.299,-89.485
07809,Sheridan,40.178,-89.544
01726,Clement,38.618,-89.281
04743,Leech,38.322,-88.200
03506,Greene,40.798,-89.093
00457,Banner,39.194,-88.638
05124,Macomb,40.503,-90.613
04352,Kansas,40.639,-89.110
04978,Long Point,40.973,-88.873
05678,Montezuma,39.533,-90.628
06170,Northern,38.076,-88.765
06321,Omega,38.695,-88.750
00244,Apple River,42.484,-90.139
00274,Argyle,42.355,-88.939
03120,Fox,38.900,-88.106
05329,Mayberry,37.972,-88.442
01188,Buffalo,39.853,-89.409
05590,Mineral,41.368,-89.795
05993,New Haven,37.839,-88.126
09197,Wheatfield,38.697,-89.426
00900,Bluffdale,39.318,-90.528
07972,Sonora,40.504,-91.303
07912,Smallwood,38.900,-88.207
01949,Cornell,40.990,-88.729
00970,Bowling Green,39.193,-88.944
06336,Ophir,41.494,-88.983
09498,Yorktown,41.540,-89.917
06686,Pierce,41.848,-88.658
09108,West,38.950,-88.757
06824,Plymouth,40.292,-90.916
03966,Hoffman,38.541,-89.264
08403,Tallula,39.944,-89.937
04838,Licking,39.124,-87.894
06189,Norwood,40.706,-89.699
00206,Anderson,39.304,-87.727
00241,Appanoose,40.581,-91.302
01596,Cherry,41.427,-89.213
04747,Leaf River,42.126,-89.404
06068,Newton,41.712,-90.147
08600,Towanda,40.564,-88.899
06319,Omaha,37.885,-88.320
06940,Prairieton,39.611,-89.080
04323,Joshua,40.589,-90.158
06892,Portland,41.618,-90.056
00392,Ayers,39.923,-87.974
02232,De Witt,40.168,-88.763
03279,Georgetown,40.461,-90.718
05445,Melvin,40.568,-88.248
03005,Flat Branch,39.559,-88.971
02241,Decker,38.635,-88.214
03932,Hillsdale,41.614,-90.173
00316,Ash Grove,39.402,-88.523
01757,Clyde,41.882,-89.908
07235,Ridge,39.479,-88.863
04355,Karnak,37.294,-88.975
05659,Monroe Center,42.098,-89.001
00688,Benson,40.851,-89.122
00385,Avoca,40.807,-88.533
03037,Floyd,40.846,-90.499
02301,Denver,38.801,-88.205
05550,Millbrook,40.926,-89.935
01173,Buckner,37.983,-89.016
06762,Pitman,39.395,-89.644
07222,Richland,40.972,-89.329
05739,Moro,38.925,-90.022
07686,Scotland,40.404,-90.615
05993,New Haven,37.898,-88.127
06532,Patterson,39.472,-90.517
09084,Weller,41.192,-90.142
06934,Prairie Creek,40.270,-89.545
04861,Lincoln,42.070,-89.569
02616,Edgewood,38.921,-88.661
01926,Copley,41.026,-90.151
07357,Rogers,40.969,-88.190
03615,Holland,39.249,-88.750
08641,Trivoli,40.691,-89.892
03211,Galesburg,40.911,-90.411
04082,Hull,39.707,-91.207
07466,Rush,42.415,-90.043
00887,Blue Mound,40.530,-88.748
07489,Ruyle,39.213,-90.193
02088,Crouch,38.219,-88.494
06931,Prairie,40.408,-91.206
00933,Bondville,40.113,-88.370
02747,Eminence,40.276,-89.317
04372,Keith,38.584,-88.479
02003,Covington,38.439,-89.423
07824,Shirley,40.407,-89.063
08852,Vermillion,41.214,-88.993
02790,Erin,42.328,-89.779
03880,Hickory Hill,38.424,-88.645
07475,Russell,38.816,-87.570
04297,Johnson,39.221,-87.946
05283,Martinsburg,39.532,-90.859
06138,North Fork,37.819,-88.320
08827,Varna,41.036,-89.226
05032,Lovejoy,40.531,-87.710
00013,Abington,41.113,-90.842
01869,Concord,40.824,-87.588
00937,Bonnie,38.203,-88.903
01371,Carbon Hill,41.297,-88.300
05431,Medora,39.177,-90.141
02072,Crooked Creek,39.224,-88.054
09082,Weldon,40.121,-88.745
04376,Kelly,41.018,-90.503
08870,Victoria,41.019,-90.052
00478,Barnett,40.174,-89.096
02422,Dowell,37.940,-89.238
02870,Fairfield,41.541,-89.802
04325,Joy,41.197,-90.880
01123,Browning,40.145,-90.388
07536,Salem,42.071,-89.924
08220,Stonefort,37.619,-88.660
02150,Cutler,38.032,-89.566
03098,Foster,38.781,-88.964
04085,Hume,41.709,-89.807
04084,Humboldt,39.604,-88.319
05425,Media,40.763,-90.846
05814,Mountain,37.638,-88.432
09431,Woodstock,40.052,-90.619
02916,Farmers,40.409,-90.396
00627,Belgium,40.061,-87.638
04265,Jeffersonville,38.443,-88.404
05851,Munson,41.368,-90.145
02551,East Fork,38.692,-89.208
04943,Loda,40.518,-88.072
03464,Grandville,39.135,-88.002
05405,Meacham,38.789,-88.745
07222,Richland,41.149,-89.009
03395,Good Hope,40.558,-90.673
03706,Harmon,41.715,-89.574
06311,Olivet,39.942,-87.644
07090,Raymond,39.923,-88.066
04565,La Prairie,41.015,-89.575
09014,Washington,42.158,-90.163
03548,Greenville,41.542,-89.673
07302,Roberts,40.613,-88.183
00489,Berry,38.429,-88.528
04319,Joppa,37.206,-88.845
06108,Nora,42.434,-89.953
08295,Summerfield,38.597,-89.752
06482,Panama,39.029,-89.524
06030,New Salem,40.407,-90.495
05965,New Canton,39.636,-91.096
00274,Argyle,42.360,-88.940
09411,Woodland,40.228,-90.275
08125,St. Peter,38.868,-88.854
02063,Crittenden,39.916,-88.187
07424,Round Grove,41.068,-88.306
06118,Norman,41.306,-88.521
01806,Cold Spring,39.302,-88.965
03286,German,38.799,-87.972
03614,Hale,40.930,-90.737
06355,Orient,37.918,-88.978
03009,Flat Rock,38.902,-87.672
03552,Greenwood,42.393,-88.389
04702,Latham,39.969,-89.162
05296,Mason,38.953,-88.624
04085,Hume,39.797,-87.869
07240,Ridgeland,40.704,-88.073
00457,Banner,40.503,-89.942
05519,Middletown,40.100,-89.591
00564,Bear Creek,40.327,-91.199
07312,Rock Creek,40.506,-91.194
00635,Bell Plain,40.973,-89.210
05533,Milan,41.846,-88.877
01774,Coalton,39.283,-89.301
04763,Lee,41.795,-88.942
06552,Paw Paw,41.677,-88.882
05161,Malden,41.424,-89.369
00300,Arrington,38.366,-88.527
03721,Harris,40.498,-90.393
06603,Penn,41.101,-89.687
02582,Easton,40.233,-89.843
05154,Maine,41.240,-88.330
00289,Armington,40.339,-89.311
01086,Broadlands,39.909,-87.994
02706,Ellison,40.762,-90.731
07071,Ransom,41.156,-88.650
07463,Rural,39.474,-88.973
02691,Elkhorn,39.884,-90.741
05780,Mount Clare,39.099,-89.826
08084,St. Albans,40.239,-91.217
02972,Fillmore,39.115,-89.279
06340,Oran,40.183,-89.204
04402,Kenney,40.097,-89.086
08899,Viola,41.763,-89.108
03707,Harmony,40.326,-91.094
00433,Baldwin,38.183,-89.843
06429,Owego,40.881,-88.520
03236,Garden Prairie,42.253,-88.725
02939,Fayetteville,38.378,-89.795
02846,Ewing,38.089,-88.852
01120,Broughton,40.979,-88.303
04998,Loraine,40.154,-91.222
05725,Morgan,39.598,-88.109
09411,Woodland,42.153,-90.037
00727,Bethel,40.324,-90.735
07446,Rubicon,39.393,-90.188
01869,Concord,39.974,-90.961
00781,Bird,39.300,-89.994
07755,Seymour,40.107,-88.427
08869,Victor,41.667,-88.769
08903,Virgil,41.956,-88.537
02071,Crook,38.078,-88.433
06315,Olmsted,37.181,-89.089
07442,Royal,40.193,-87.973
07841,Sibley,40.587,-88.381
04913,Littleton,40.234,-90.622
08425,Tate,37.886,-88.635
08955,Walker,40.244,-91.313
07051,Raleigh,37.827,-88.532
00202,Anchor,40.529,-88.517
03454,Grand Rapids,41.238,-88.760
09481,Yates,40.721,-88.632
05917,Nebo,39.443,-90.791
04910,Little York,41.011,-90.746
05550,Millbrook,41.598,-88.553
05396,McNabb,41.177,-89.209
02675,Elliott,40.465,-88.272
04881,Linn,40.882,-89.217
07195,Reynolds,41.839,-89.107
08948,Waldo,40.798,-88.872
01094,Brocton,39.716,-87.933
01861,Compton,41.694,-89.081
06779,Plainville,39.786,-91.185
07655,Sawyerville,39.078,-89.807
08789,Valley,41.018,-89.696
01489,Cedar Point,41.263,-89.126
04788,Lenox,40.848,-90.614
04881,Lynn,41.091,-90.039
05172,Manchester,39.542,-90.332
05996,New Holland,40.185,-89.581
03899,Highland,41.145,-88.538
05643,Mona,40.894,-88.187
04763,Lee,39.968,-90.868
00992,Bradford,41.809,-89.217
01670,Cisco,40.011,-88.726
02015,Crab Orchard,37.729,-88.804
02481,Duncan,41.278,-90.845
03834,Henderson,41.025,-90.356
04998,Loraine,41.540,-90.030
03780,Hawthorne,38.089,-88.069
06803,Pleasant Ridge,40.795,-88.413
00137,Allison,38.719,-87.582
01955,Cornwall,41.363,-90.022
00135,Allerton,39.916,-87.935
00587,Beaver Creek,38.172,-88.431
03742,Hartsburg,40.251,-89.441
05139,May,41.621,-89.338
05220,Mapleton,40.566,-89.732
02654,Elba,40.839,-90.034
00655,Bellmont,38.384,-87.911
03623,Hadley,39.717,-90.965
08293,Summer Hill,39.546,-90.919
07641,Sargent,39.721,-88.038
03671,Hancock,40.415,-90.966
00707,Bernadotte,40.407,-90.272
02396,Donovan,40.883,-87.616
04089,Hunter,39.671,-87.589
05358,McClure,37.318,-89.431
02154,Cypress,37.365,-89.018
02714,Elm River,38.519,-88.309
02938,Fayette,40.639,-88.399
07077,Raritan,40.678,-90.846
04263,Jefferson,42.240,-89.891
06699,Pilot Grove,40.507,-91.075
09411,Woodland,40.714,-87.731
00833,Blairsville,37.811,-89.124
02255,Deerfield,40.586,-90.266
05363,McCook,41.798,-87.845
04972,Long Branch,37.887,-88.539
06378,Osage,41.060,-88.989
06601,Penfield,40.303,-87.947
01243,Bush,37.843,-89.131
07635,Saratoga,41.102,-89.584
01230,Burns,41.279,-90.031
01162,Buck,39.640,-87.819
01168,Buckingham,41.047,-88.175
07404,Rozetta,40.939,-90.837
08352,Swan,40.679,-90.612
05768,Mound,40.497,-90.504
00360,Auburn,39.379,-87.805
01817,Colfax,40.018,-88.400
05031,Love,39.917,-87.580
06232,Oakford,40.103,-89.963
04350,Kangley,41.146,-88.874
05094,Lynchburg,40.108,-90.268
01358,Kappa,40.676,-89.008
06865,Pope,38.778,-89.185
00373,Austin,40.006,-89.087
00983,Boynton,40.359,-89.434
04101,Hurricane,39.185,-89.201
04152,Indianola,39.927,-87.740
08141,Standard,41.257,-89.181
06472,Palmer,39.458,-89.404
01971,Cottage,37.734,-88.432
05633,Modoc,38.053,-90.037
04731,Lawrence,42.441,-88.641
09108,West,40.333,-88.623
07549,Salt Creek,40.174,-89.771
08312,Sunbury,41.063,-88.642
00577,Beason,40.144,-89.193
01613,Chestnut,40.758,-90.286
02678,Elizabethtown,37.446,-88.305
08220,Stonefort,37.622,-88.704
09218,White City,39.065,-89.763
04461,King,39.436,-89.504
06691,Pike,40.792,-88.767
05248,Marion,41.715,-89.463
00029,Adair,40.419,-90.497
02164,Derry,39.624,-90.973
07713,Seaton,41.102,-90.802
05327,Maxwell,39.649,-89.916
02135,Curran,39.742,-89.772
04050,Houston,40.157,-91.093
05459,Menominee,42.488,-90.533
07239,Ridgefield,42.268,-88.361
04763,Lee,40.584,-90.388
05583,Milton,39.564,-90.650
04670,Lanesville,39.842,-89.335
05164,Malone,40.356,-89.660
06931,Prairie,39.829,-87.596
08858,Verona,41.218,-88.501
03840,Henning,40.305,-87.701
05688,Montrose,39.166,-88.378
09433,Woodville,39.229,-90.511
05125,Macon,41.274,-89.674
09087,Wellington,40.539,-87.680
03552,Greenwood,39.393,-89.307
08737,Union,40.972,-88.407
07751,Seward,42.236,-89.358
04685,LaPlace,39.800,-88.718
08852,Vermilion,39.581,-87.589
03819,Hire,40.505,-90.843
06572,Pearl,39.450,-90.646
02526,Eagle Point,41.978,-89.657
03691,Hardin,39.528,-90.747
03218,Galt,41.789,-89.762
07133,Reddick,41.098,-88.249
04287,Jewett,39.208,-88.246
03751,Harvel,39.393,-89.559
06559,Pea Ridge,40.061,-90.855
00094,Alden,42.459,-88.518
01310,Cameron,40.889,-90.517
00418,Baileyville,42.197,-89.593
09156,West Union,39.216,-87.666
06507,Parkersburg,38.590,-88.057
07840,Shumway,39.185,-88.652
08960,Wall,40.538,-88.180
07924,Smithfield,40.473,-90.292
09304,Williamson,38.986,-89.764
07040,Radom,38.282,-89.192
02709,Ellsworth,40.450,-88.717
03659,Hamilton,41.628,-89.574
04362,Keensburg,38.351,-87.869
01120,Broughton,37.935,-88.462
05385,McKee,39.886,-90.991
05545,Mill Shoals,38.250,-88.346
08929,Waggoner,39.378,-89.653
05632,Modesto,39.478,-89.982
04386,Kempton,40.936,-88.237
09405,Woodburn,39.047,-90.012
03751,Harvel,39.358,-89.532
07325,Rockbridge,39.269,-90.204
02965,Fieldon,39.109,-90.498
00080,Alba,41.458,-89.913
04207,Isabel,40.307,-90.157
07783,Shawnee,37.748,-88.084
03417,Gorham,37.718,-89.486
06124,Norris,40.626,-90.032
00540,Baylis,39.728,-90.908
00285,Arlington,41.474,-89.249
07875,Sims,38.360,-88.531
01248,Butler,39.199,-89.534
02521,Eagle Creek,37.648,-88.325
01157,Bryant,40.466,-90.092
07921,Smithboro,38.896,-89.341
01288,Calhoun,38.650,-88.044
06505,Parker,39.387,-87.948
08959,Walkerville,39.405,-90.543
08108,St. Johns,38.031,-89.241
02877,Fairmount,39.793,-90.862
04551,La Fayette,41.108,-89.972
07930,Smithville,40.660,-89.800
01732,Cleveland,41.506,-90.315
04730,Lawndale,40.621,-88.626
06592,Pella,40.807,-88.184
09025,Waterford,40.322,-90.106
02180,Dana,40.958,-88.950
02393,Donnellson,39.031,-89.476
08632,Trilla,39.375,-88.350
00105,Alexander,39.724,-90.038
01907,Cooksville,40.543,-88.716
03117,Fowler,40.008,-91.259
05846,Muncie,40.116,-87.845
06608,Pennsylvania,40.261,-89.771
00418,Baileyville,42.198,-89.595
06677,Pickaway,39.558,-88.864
06941,Prairietown,38.966,-89.922
06985,Pulaski,37.214,-89.206
02867,Fairdale,42.100,-88.933
04421,Kerr,40.350,-87.969
09338,Wilton Center,41.351,-87.960
03970,Holcomb,42.065,-89.096
07488,Rutledge,40.258,-88.757
01869,Concord,39.817,-90.373
02028,Crane Creek,40.178,-89.872
04584,Lafayette,41.910,-89.226
02483,Dundas,38.835,-88.085
04465,Kings,42.004,-89.107
02667,Eldred,39.288,-90.552
00702,Berlin,39.759,-89.903
01326,Campus,41.023,-88.306
05304,Massilon,38.421,-88.201
09150,West Point,40.255,-91.183
05621,Missouri,40.059,-90.742
00786,Birmingham,40.238,-90.853
01126,Browns,38.377,-87.983
09198,Wheatland,41.189,-89.499
00133,Allenville,39.556,-88.530
03692,Harding,41.515,-88.849
06234,Oakland,40.234,-90.508
06835,Point Pleasant,40.676,-90.731
07819,Shiloh,39.749,-87.858
00641,Belle Prairie,40.644,-88.517
02666,Eldorado,40.316,-90.503
02415,Douglas,39.464,-87.737
02929,Ferris,40.469,-91.170
09334,Wilson,40.261,-88.871
02734,Elwin,39.852,-88.944
01267,Cable,41.283,-90.507
08089,St. Augustine,40.718,-90.411
01155,Brussels,38.949,-90.589
06093,Niota,40.617,-91.288
04985,Longview,39.887,-88.066
03335,Glasgow,39.551,-90.480
03887,Hidalgo,39.156,-88.147
06272,Ohlman,39.345,-89.219
01405,Carson,39.150,-89.001
02779,Eola,41.778,-88.243
01613,Chestnut,40.054,-89.185
00220,Annapolis,39.144,-87.817
02319,Dewey,40.319,-88.282
03874,Hickory,40.170,-90.271
01240,Burton,39.905,-91.249
00312,Asbury,37.885,-88.202
04668,Lane,40.123,-88.856
08250,Strawn,40.653,-88.396
08856,Vernon,38.802,-89.087
04184,Iola,38.834,-88.628
05245,Marietta,40.501,-90.393
02962,Fidelity,39.153,-90.165
05892,Naples,39.757,-90.607
03655,Hamburg,39.230,-90.718
07697,Scottville,39.480,-90.105
08755,Unity,37.150,-89.273
00631,Belknap,37.325,-88.939
02603,Eddyville,37.499,-88.588
03019,Flint,39.716,-90.669
08455,Tennessee,40.412,-90.839
09135,West Liberty,38.853,-88.084
09200,Wheeler,39.047,-88.316
04668,Lane,40.123,-88.856
08976,Walnut Hill,38.477,-89.043
04884,Lynnville,39.687,-90.346
07478,Russellville,38.819,-87.532
04919,Liverpool,40.392,-90.001
03938,Hillview,39.451,-90.541
02562,East Lynn,40.466,-87.800
04483,Kinsman,41.190,-88.570
00497,Barstow,41.518,-90.357
09329,Wilmington,39.481,-90.487
06603,Penn,39.624,-88.865
02852,Exeter,39.721,-90.497
09160,West York,39.171,-87.674
02708,Ellisville,40.627,-90.305
06411,Otterville,39.051,-90.398
07390,Rose Hill,39.104,-88.147
02544,East Brooklyn,41.173,-88.264
04407,Kent,42.309,-89.902
00509,Basco,40.328,-91.200
08018,Southwest,38.865,-87.871
02524,Eagle Lake,41.367,-87.554
04250,Janesville,39.374,-88.244
00030,Adams,39.865,-91.198
05954,New Bedford,41.513,-89.721
02312,Detroit,39.621,-90.677
00737,Beverly,39.793,-90.991
04301,Johnsonville,38.522,-88.537
04601,Lake City,39.754,-88.720
07269,Ripley,40.032,-90.657
09470,Yale,39.120,-88.025
01384,Carman,40.741,-91.060
04206,Irwin,41.052,-87.984
07109,Rector,37.884,-88.427
06895,Posey,38.537,-89.353
01309,Camden,40.154,-90.771
00771,Bingham,39.114,-89.213
03385,Golden Gate,38.359,-88.204
08980,Walshville,39.071,-89.619
04250,Janesville,39.375,-88.245
08632,Trilla,39.375,-88.351
05543,Mill Creek,37.342,-89.253
08583,Topeka,40.330,-89.931
04336,Junction,37.723,-88.237
05835,Muddy,37.765,-88.517
04384,Kemp,39.696,-88.185
05559,Millersburg,41.241,-90.819
08744,Union Hill,41.108,-88.147
04813,Levee,39.725,-91.307
00723,Berwick,40.799,-90.538
07411,Ross,39.449,-90.960
07876,Simpson,37.467,-88.755
05478,Merritt,39.714,-90.416
06487,Panola,40.784,-89.021
00854,Block,39.968,-88.086
04565,La Prairie,40.148,-91.003
06664,Phillipstown,38.142,-88.022
00862,Bloomfield,40.021,-91.307
07342,Rockwood,37.841,-89.701
01678,Clare,42.016,-88.829
02894,Fall Creek,39.779,-91.302
09099,Wenonah,39.327,-89.289
05112,Macedonia,38.054,-88.703
00690,Bentley,40.344,-91.112
05003,Lorenzo,41.347,-88.222
06449,Paderborn,38.360,-90.043
07219,Richfield,39.815,-91.116
01666,Cincinnati,39.629,-91.190
05926,Nekoma,41.173,-90.189
03661,Hamlet,41.314,-90.735
03707,Harmony,42.161,-88.526
04474,Kingston,39.817,-91.028
03027,Florence,39.627,-90.611
04357,Kaskaskia,37.921,-89.913
02435,Drake,39.459,-90.474
08793,Valley City,39.707,-90.653
05203,Manville,41.055,-88.766
03811,Heathsville,38.897,-87.568
05698,Moonshine,39.197,-87.901
00041,Aden,38.242,-88.458
00046,Adrian,40.521,-91.167
00050,Etna,39.389,-88.420
00063,Aiken,42.352,-90.415
00073,Akron,40.904,-89.654
00132,Allentown,40.556,-89.397
00158,Alta,40.811,-89.634
00163,Altmar,41.142,-88.892
00186,Amenia,40.022,-88.666
00187,America,37.138,-89.124
00189,Ames,38.147,-90.054
00204,Ancona,41.041,-88.873
00206,Anderson,39.982,-90.159
00206,Anderson,39.344,-89.845
00209,Andrew,39.896,-89.640
00260,Arcadia,39.839,-90.245
00262,Archer,39.781,-89.736
00292,Armstrong,40.306,-87.878
00297,Arnold,42.170,-90.226
00297,Arnold,39.721,-90.145
00351,Atlas,39.514,-90.969
00355,Atwater,39.333,-89.725
00366,Augsburg,38.867,-89.013
00392,Ayers,38.964,-89.452
00392,Ayers,42.054,-90.116
00401,Babylon,40.591,-90.349
00423,Baker,41.556,-88.811
00428,Bakerville,38.258,-88.897
00428,Bakerville,40.063,-89.197
00441,Ballou,41.278,-88.102
00468,Barclay,39.875,-89.518
00476,Barnes,40.503,-88.902
00482,Barnhill,38.284,-88.364
00488,Barr,39.405,-90.104
00488,Barr,39.962,-89.697
00489,Berry,39.713,-89.471
00521,Bates,39.724,-89.849
00532,Bay City,37.249,-88.497
00555,Beechville,38.971,-90.647
00579,Beaty,40.275,-90.246
00587,Beaver Creek,38.767,-89.394
00616,Bell,40.192,-89.388
00620,Belden,42.474,-88.347
00637,Bellair,39.142,-87.945
00647,Belleview,39.351,-90.781
00659,Belltown,39.384,-90.409
00686,Bennington,38.524,-88.131
00695,Benville,39.864,-90.865
00718,Berryville,38.599,-87.929
00743,Bible Grove,38.872,-88.446
00746,Big Bay,37.317,-88.722
00751,Big Foot Prairie,42.495,-88.599
00766,Biggs,40.241,-89.904
00772,Binghampton,41.717,-89.304
00791,Bishop,40.346,-89.875
00795,Bissell,39.846,-89.582
00798,Black,38.468,-88.103
00817,Blackhawk,42.188,-90.224
00824,Blackstone,41.084,-88.691
00830,Blaine,42.447,-88.803
00831,Blair,41.103,-88.309
00831,Blair,38.045,-89.742
00833,Blairsville,38.168,-88.464
00835,Blakes,41.459,-88.753
00842,Blanding,42.275,-90.386
00862,Bloomfield,37.453,-88.875
00862,Bloomfield,39.652,-90.556
00890,Blue Ridge,40.268,-88.488
00897,Bluff City,38.964,-89.046
00897,Bluff City,40.180,-90.230
00899,Bluff Springs,39.988,-90.346
00904,Boaz,37.292,-88.900
00906,Bobtown,40.076,-89.988
00907,Boden,41.258,-90.587
00912,Bogota,38.918,-88.240
00925,Bolivia,39.742,-89.347
00927,Bolton,42.242,-89.725
00955,Boulder,38.697,-89.226
00959,Bourbon,39.746,-88.379
00968,Bowes,42.008,-88.391
00988,Bradbury,39.324,-88.243
00991,Braden,37.996,-88.616
01026,Breckenridge,40.244,-91.287
01026,Breckenridge,39.699,-89.448
01032,Bremen,42.401,-90.414
01032,Bremen,37.971,-89.747
01049,Bryce,40.634,-87.757
01078,Bristol,41.686,-88.428
01087,Broadmoor,41.146,-89.629
01109,Brooklyn,40.226,-90.763
01117,Brookville,42.049,-89.684
01122,Brownfield,37.346,-88.607
01135,Brownsville,38.041,-88.245
01141,Bruce,39.519,-88.594
01165,Buckhart,39.750,-89.445
01167,Buckhorn,39.937,-90.836
01174,Bucks,40.265,-88.970
01182,Budd,41.099,-88.623
01187,Buena Vista,42.426,-89.678
01192,Buffalo Grove,41.981,-89.595
01216,Burgess,41.127,-90.641
01217,Burke,42.051,-90.037
01220,Burksville,38.267,-90.153
01224,Burlingame,39.924,-90.163
01231,Burnside,40.504,-91.100
01247,Bushton,39.592,-88.139
01269,Cache,37.100,-89.261
01272,Cadiz,37.579,-88.226
01317,Campbell,39.396,-88.211
01398,Kerrick,40.553,-88.987
01430,Casner,39.800,-88.791
01444,Castleton,41.118,-89.706
01453,Catharine,41.523,-88.719
01468,Cayuga,40.941,-88.584
01470,Cazenovia,40.850,-89.332
01509,Center Hill,42.081,-90.046
01519,Centerville,38.930,-90.572
01519,Centerville,41.064,-90.054
01545,Chambersburg,39.817,-90.657
01562,Chapman,39.106,-89.317
01571,Charlotte,40.820,-88.289
01581,Chauncey,38.835,-87.871
01582,Chautauqua,38.964,-90.386
01592,Cheneyville,40.469,-87.585
01612,Chesterville,39.703,-88.391
01622,Chicken Bristle,39.836,-88.367
01629,Chili,40.218,-91.142
01645,Choctaw,39.282,-87.721
01680,Clarence,40.464,-87.971
01685,Clarion,41.505,-89.192
01693,Clarksburg,39.330,-88.742
01694,Clarksdale,39.489,-89.368
01697,Clarksville,39.452,-87.798
01710,Claytonville,40.567,-87.823
01723,Cleburne,37.936,-89.054
01730,Cleone,39.423,-87.907
01733,Cliffdale,39.361,-90.626
01735,Clifford,37.824,-89.077
01753,Cloverdale,41.939,-88.120
01765,Coal Hollow,41.366,-89.363
01795,Kaufman,38.862,-89.777
01815,Coles,39.520,-88.471
01832,Colmar,40.345,-90.891
01850,Colusa,40.571,-91.168
01863,Conant,38.056,-89.482
01880,Confidence,38.923,-88.926
01898,Conrad,38.925,-90.617
01905,Cooks Mills,39.583,-88.406
01917,Cooper,40.660,-89.404
01919,Cooperstown,39.964,-90.606
01930,Cora,37.740,-89.442
01942,Corinth,37.819,-88.776
01972,Cottage Grove,37.748,-88.411
01983,Cottonwood,37.889,-88.213
01990,Council Hill,42.489,-90.354
02022,Crain,37.780,-89.508
02067,Croft,40.048,-89.588
02084,Crossroads,37.349,-88.817
02103,Cruger,40.722,-89.310
02104,Cruse,38.822,-88.678
02124,Culver,40.007,-89.687
02141,Curtis,40.062,-89.790
02163,Dailey,40.239,-87.948
02169,Dale,37.995,-88.492
02177,Damascus,42.372,-89.706
02179,Damon,40.083,-90.830
02205,Darmstadt,38.321,-89.732
02207,Darwin,39.283,-87.612
02225,Daysville,41.984,-89.318
02226,Dayton,41.489,-90.321
02242,Decorra,40.728,-90.970
02259,Dees,39.223,-88.159
02266,Delafield,38.148,-88.603
02274,Delhi,39.045,-90.256
02282,DeLong,40.817,-90.304
02285,Delta,37.684,-88.703
02290,Dennison,39.461,-87.598
02291,Denmark,37.998,-89.497
02295,Denny,38.047,-89.327
02301,Denver,40.291,-91.107
02304,Derby,40.442,-88.442
02304,Derby,37.629,-88.386
02322,Dexter,39.081,-88.683
02327,Diamond Lake,42.244,-88.010
02333,Dickerson,40.318,-88.422
02345,Dillon,40.477,-89.538
02348,Dillsburg,40.316,-88.079
02354,Disco,40.620,-91.021
02359,Divide,38.447,-88.830
02362,Dixon Springs,37.384,-88.669
02370,Doddsville,40.278,-90.652
02377,Dog Walk,37.759,-88.933
02379,Dogwood,39.064,-87.891
02407,Dorsey,38.974,-90.001
02415,Douglas,40.786,-90.084
02415,Douglas,38.424,-89.983
02421,Dow,39.013,-90.342
02440,Dressor,39.173,-89.051
02453,Dry Hill,37.817,-89.553
02467,Dudleyville,38.824,-89.418
02481,Duncan,40.984,-89.789
02482,Duncanville,38.955,-87.696
02487,Dunkel,39.468,-89.063
02493,Dunn,39.626,-88.692
02503,Durham,40.597,-91.090
02517,Egan,42.187,-89.406
02518,Eagle,37.651,-88.393
02602,Eddy,42.461,-87.898
02604,Eden,40.689,-89.833
02604,Eden,38.121,-89.668
02607,Edgar,39.756,-87.701
02616,Edgewood,42.241,-88.921
02632,Edwards,40.746,-89.744
02636,Effner,40.771,-87.526
02654,Elba,37.826,-88.326
02658,Elbow,38.642,-88.122
02661,Elco,37.301,-89.266
02663,Elderville,40.330,-91.295
02669,Eleanor,40.983,-90.695
02696,Elkton,38.292,-89.557
02701,Ellery,38.355,-88.149
02704,Ellis,39.590,-89.529
02720,Elmira,41.180,-89.832
02723,Elmore,40.957,-89.977
02733,Elvira,37.493,-89.029
02738,Embarrass,39.517,-88.091
02746,Emery,39.979,-88.951
02748,Emma,37.975,-88.120
02785,Epworth,38.071,-88.106
02801,Esmond,42.034,-88.936
02832,Evans,40.222,-89.364
02835,Evarts,42.253,-89.474
02853,Exline,41.150,-87.768
02859,Fair Haven,41.946,-89.929
02873,Fairland,39.876,-88.102
02911,Fargo,39.974,-90.855
02920,Farmingdale,39.823,-89.806
02928,Farrington,39.470,-87.546
02950,Fenton,41.731,-90.030
02990,Fishhook,39.806,-90.885
03000,Five Points,42.002,-88.740
03001,Flagg,41.896,-89.141
03017,Fletcher,40.527,-88.784
03027,Florence,42.214,-89.660
03035,Flowerfield,41.867,-88.034
03103,Fountain,38.362,-90.283
03105,Fountain Green,40.476,-90.969
03120,Fox,41.623,-88.500
03138,Franklinville,42.277,-88.511
03139,Franks,41.711,-88.680
03145,Frederick,40.070,-90.429
03154,Freeman,42.125,-88.388
03172,Friendsville,38.503,-87.816
03176,Frisco,38.113,-88.778
03193,Fuller,39.594,-88.470
03194,Fullerton,40.210,-88.744
03197,Funkhouser,39.094,-88.621
03200,Future City,37.029,-89.188
03203,Gale,37.249,-89.448
03212,Galesville,40.155,-88.556
03241,Garfield,41.085,-88.956
03279,Georgetown,42.140,-89.829
03283,Gerald,40.271,-87.930
03311,Gilchrist,40.647,-90.040
03311,Gilchrist,41.205,-90.624
03312,Gilead,39.124,-90.667
03313,Guilford,42.417,-90.300
03323,Gilmer,42.235,-88.046
03324,Gilmore,38.978,-89.620
03324,Gilmore,38.987,-88.718
03337,Glenn,37.804,-89.581
03352,Glendale,37.456,-88.671
03374,Glover,40.114,-88.019
03404,Goodrich,41.109,-88.058
03413,Gordon,39.008,-87.685
03468,Grange Hall,42.364,-87.963
03478,Grantsburg,37.391,-88.747
03485,Grass Lake,42.446,-88.136
03524,Green River,41.476,-90.319
03532,Greenbush,40.712,-90.535
03534,Greendale,38.630,-88.698
03551,Greenwich,41.118,-87.927
03575,Gross,37.533,-88.291
03580,Grove City,39.707,-89.297
03582,Groveland,40.591,-89.533
03595,Gulfport,40.814,-91.086
03608,Guthrie,40.508,-88.325
03625,Hagaman,39.310,-90.078
03651,Hallsville,40.151,-89.093
03655,Hamburg,38.866,-89.275
03704,Harlem,42.340,-89.018
03707,Harmony,38.407,-88.793
03712,Herald,37.966,-88.181
03713,Harper,42.141,-89.647
03724,Harrison,42.427,-89.191
03727,Harrisonville,38.278,-90.350
03731,Herod,37.580,-88.436
03744,Hartshorn,40.130,-87.705
03785,Hayes,39.862,-88.281
03796,Hazel Dell,39.202,-88.041
03800,Hazelhurst,41.963,-89.686
03836,Hendrix,40.419,-88.978
03879,Hickory Grove,39.938,-91.315
03879,Hickory Grove,42.060,-90.067
03883,Hicks,37.543,-88.376
03922,Hill Top,39.989,-89.883
03923,Hillcrest,39.786,-88.280
03945,Hines,41.854,-87.839
03955,Hitt,41.995,-89.736
03955,Hitt,41.317,-88.856
03957,Hord,38.884,-88.521
03972,Holder,40.451,-88.804
04017,Hoosier,38.804,-88.455
04019,Hope,40.206,-87.904
04028,Hopper,40.786,-90.991
04050,Houston,38.159,-89.781
04080,Hugo,39.754,-88.149
04089,Hunter,42.429,-88.871
04098,Huntsville,40.191,-90.864
04107,Hutton,39.413,-88.084
04119,Ideal,41.975,-89.988
04123,Illinoi,41.190,-87.526
04140,Indian Hill,42.094,-87.724
04194,Irene,42.170,-88.900
04207,Isabel,39.655,-87.950
04212,Island Grove,39.102,-88.335
04212,Island Grove,39.724,-89.961
04225,Ivanhoe,42.279,-88.042
04241,Jamaica,39.991,-87.807
04244,Jamesburg,40.262,-87.749
04247,Jamestown,38.735,-89.519
04268,Jenkins,40.153,-89.034
04289,Jimtown,39.902,-88.364
04304,Johnstown,39.363,-88.287
04311,Jones,39.453,-88.336
04317,Jonesville,41.311,-89.071
04367,Kedron,37.666,-88.341
04375,Kellerville,39.931,-90.934
04385,Kemper,39.216,-90.164
04398,Kennedy,42.242,-87.871
04399,Kenner,38.646,-88.568
04440,Kibbie,39.070,-87.938
04441,Kickapoo,40.790,-89.751
04465,Kings,39.679,-87.985
04491,Kirksville,39.571,-88.668
04500,Kittredge,42.133,-89.779
04504,Klondike,37.063,-89.232
04549,La Crosse,40.529,-91.023
04555,La Grange,39.947,-90.537
04567,La Rue,37.546,-89.454
04605,Lake Fork,39.971,-89.350
04617,Lake of the Woods,40.840,-89.605
04641,Lakeview,37.672,-88.616
04644,Lakewood,41.917,-88.198
04644,Lakewood,40.247,-90.085
04644,Lakewood,39.325,-88.899
04651,Lamb,37.532,-88.125
04660,Lancaster,38.548,-87.865
04665,Landes,38.865,-87.889
04675,Langley,41.369,-89.688
04706,Latona,38.981,-88.312
04713,Laura,40.921,-89.926
04728,Lawler,37.728,-88.286
04736,Layfield,38.106,-89.435
04767,Leeds,41.021,-88.988
04771,Leesburg,40.247,-90.317
04772,Leesville,41.025,-87.625
04777,Lehigh,41.110,-88.018
04817,Leverett,40.189,-88.210
04822,Lewisburg,39.970,-89.832
04831,Liberty,37.720,-88.572
04834,Liberty Hill,39.201,-88.154
04857,Limerick,41.495,-89.467
04895,Little America,40.406,-90.034
04906,Little Rock,41.717,-88.576
04914,Lytleville,40.342,-88.956
04920,Livingston,39.407,-87.646
04923,Loyd,39.915,-89.854
04944,Lodge,40.106,-88.560
04948,Logan,39.737,-87.605
04991,Loogootee,38.905,-88.854
04995,Loon Lake,42.447,-88.090
05023,Lotus,40.319,-88.456
05044,Lowell,41.251,-89.011
05054,Lucas,40.307,-89.368
05142,Magnet,39.439,-88.398
05187,Manley,40.584,-90.426
05210,Maple Grove,38.533,-88.094
05227,Marblehead,39.840,-91.369
05228,Marbletown,40.231,-90.197
05237,Markham,39.746,-90.328
05238,Marcus,42.158,-90.196
05248,Marion,38.551,-88.108
05264,Marquette,41.331,-89.263
05276,Marston,41.307,-90.802
05310,Matthews,37.968,-89.374
05319,Maud,38.398,-87.855
05329,Mayberry,38.271,-88.549
05340,Maysville,39.708,-90.799
05342,Mayview,40.113,-88.110
05353,McCall,40.453,-91.197
05359,McClusky,39.043,-90.320
05361,McConnell,42.434,-89.731
05365,McCormick,37.551,-88.671
05376,McDowell,40.831,-88.585
05384,McKeen,39.458,-87.614
05413,Meadowbrook,38.898,-90.006
05416,Meadows,40.744,-88.805
05443,Melrose,39.223,-87.764
05449,Menard,37.910,-89.840
05468,Meriden,41.571,-89.035
05471,Merna,40.517,-88.826
05476,Merrimac,38.371,-90.333
05493,Meyer,40.148,-91.504
05502,Middle Creek,40.373,-91.027
05524,Midland City,40.145,-89.134
05528,Midway,39.670,-89.159
05528,Midway,38.929,-89.972
05528,Midway,37.240,-88.634
05528,Midway,40.519,-89.662
05528,Midway,40.016,-87.638
05531,Milla,41.141,-88.983
05551,Millburn,42.426,-88.004
05557,Miller City,37.111,-89.356
05562,Millersville,39.451,-89.158
05580,Milo,41.193,-89.582
05612,Mira,40.084,-88.162
05629,Moccasin,39.147,-88.758
05631,Modena,41.135,-89.763
05645,Monaville,42.399,-88.111
05660,Monroe City,38.256,-90.266
05674,Monterey,40.531,-89.946
05719,Morea,38.927,-87.632
05733,Moriah,39.217,-87.939
05749,Morse,41.230,-89.645
05763,Mossville,40.816,-89.568
05778,Mount Carbon,37.752,-89.321
05849,Munger,41.964,-88.223
05849,Munger,39.757,-91.322
05852,Munster,41.106,-88.903
05853,Murdock,39.801,-88.078
05894,Narita,39.983,-89.219
05914,Neal,39.302,-88.342
05944,Nevada,41.086,-88.551
05946,Nevins,39.534,-87.639
05970,New City,39.669,-89.539
05971,New Columbia,37.311,-88.775
05976,New Delhi,39.032,-90.261
05990,New Hanover,38.387,-90.227
05994,New Hebron,38.950,-87.744
05998,New Hope,37.794,-88.689
06002,New Lebanon,42.099,-88.603
06004,New Liberty,37.122,-88.448
06014,New Palestine,37.996,-89.821
06048,Newburg,39.981,-88.804
06049,Newbern,39.007,-90.337
06063,Newmansville,40.003,-90.012
06071,Newtown,40.167,-87.769
06119,Normandy,41.562,-89.649
06180,Northville,41.563,-88.705
06186,Norway,41.466,-88.664
06201,Nutwood,39.085,-90.556
06225,Oak Point,39.211,-87.976
06237,Oakley,39.876,-88.806
06301,Olena,40.786,-90.939
06310,Oliver,39.484,-87.681
06310,Oliver,41.801,-90.068
06326,Oneco,42.487,-89.664
06331,Ontario,41.079,-90.308
06341,Orange,39.207,-87.821
06346,Oraville,37.865,-89.383
06390,Oskaloosa,38.760,-88.649
06439,Ozark,37.542,-88.763
06450,Padua,40.450,-88.764
06455,Paineville,37.809,-89.002
06466,Palisades,41.714,-87.934
06467,Palm Beach,42.377,-88.197
06473,Palmerton,40.001,-90.149
06475,Palmyra,41.852,-89.578
06479,Paloma,40.023,-91.195
06493,Paradise,39.410,-88.437
06506,Parker City,37.568,-88.798
06508,Parkland,40.462,-89.751
06513,Parkville,39.892,-88.361
06518,Parnell,40.223,-88.721
06521,Parrish,37.941,-88.813
06531,Passport,38.789,-88.244
06537,Patton,39.477,-87.559
06541,Patterson Springs,39.792,-88.193
06544,Pattonsburg,40.938,-89.184
06549,Pauline,40.127,-88.006
06577,Pierson,39.798,-88.528
06634,Pershing,37.880,-88.965
06644,Peterstown,41.498,-89.147
06645,Petersville,41.279,-90.939
06648,Petrolia,38.761,-87.779
06662,Philadelphia,39.924,-90.117
06674,Piasa,39.116,-90.124
06691,Pike,39.460,-91.035
06759,Pisgah,39.669,-90.126
06764,Pittsburg,38.871,-89.212
06778,Plainview,39.159,-89.990
06794,Pleasant Grove,37.441,-89.030
06798,Pleasant Mound,38.863,-89.290
06806,Pleasant Valley,42.226,-90.027
06839,Polk,41.312,-87.608
06847,Polsgrove,42.168,-90.024
06850,Pomona,37.628,-89.337
06854,Pond,37.445,-88.833
06860,Ponemah,40.821,-90.706
06890,Porterville,39.090,-87.801
06894,Posen,38.258,-89.336
06920,Powellton,40.536,-91.269
06931,Prairie,38.173,-89.943
06932,Prairie Center,41.469,-88.934
06939,Prairie View,42.196,-88.903
06939,Prairie View,42.199,-87.963
06955,Preston,38.106,-89.860
06973,Prospect,40.319,-88.213
06981,Providence,41.278,-89.593
06995,Putnam,41.185,-89.396
06998,Pyramid,38.334,-89.228
07034,Radford,39.578,-89.034
07066,Randolph,40.376,-88.980
07080,Raven,39.804,-87.546
07100,Reader,39.306,-90.041
07124,Red Oak,42.392,-89.672
07129,Red Top,38.372,-88.026
07156,Reevesville,37.343,-88.720
07174,Reno,38.975,-89.514
07196,Reynoldsburg,37.515,-88.776
07197,Reynoldsville,37.367,-89.395
07206,Rice,42.339,-90.394
07206,Rice,38.201,-89.384
07214,Richards,41.179,-88.836
07218,Ritchie,41.255,-88.105
07230,Richwoods,38.958,-87.554
07233,Riddleville,38.852,-87.651
07250,Riffle,38.805,-88.564
07268,Ryan,40.050,-87.806
07271,Rising Sun,37.407,-88.578
07271,Rising Sun,38.000,-88.028
07307,Roby,39.739,-89.399
07309,Rochester,38.346,-87.828
07312,Rock Creek,40.046,-91.400
07312,Rock Creek,37.537,-88.227
07335,Rockport,39.539,-91.009
07383,Rosamond,39.380,-89.160
07395,Rosecrans,42.465,-87.953
07396,Rosedale,39.044,-90.548
07410,Roslyn,39.229,-88.378
07420,Roth,37.100,-89.307
07424,Round Grove,41.785,-89.872
07440,Roxbury,41.701,-89.039
07464,Rural Hill,37.961,-88.651
07475,Russell,42.491,-87.912
07478,Russellville,42.328,-88.784
07484,Rutherford,40.025,-88.052
07495,Sabina,40.347,-88.651
07515,Saint George,41.193,-87.776
07517,Saint James,38.954,-88.851
07528,Saint Paul,38.853,-88.953
07544,Salisbury,39.890,-89.798
07557,Saluda,40.872,-90.394
07594,Sand Ridge,37.740,-89.442
07603,Sandusky,37.203,-89.272
07616,Sangamon,39.867,-88.856
07690,Scottland,39.804,-87.605
07730,Sellers,40.186,-88.105
07750,Seville,40.486,-90.344
07758,Shady Grove,37.124,-88.566
07762,Shafter,39.014,-89.185
07778,Sharpsburg,39.614,-89.351
07781,Shattuc,38.611,-89.193
07842,Sicily,39.590,-89.491
07849,Signal Hill,38.577,-90.057
07856,Siloam,39.888,-90.916
07865,Silver Lake,42.235,-88.245
07890,Skelton,40.143,-89.254
07940,Snyder,39.282,-87.668
07962,Solomon,40.249,-88.823
07967,Somerset,37.654,-88.457
08062,Spring Valley,39.897,-90.979
08106,St. Joe,38.233,-90.154
08117,St. Mary,40.346,-90.934
08138,Staley,40.113,-88.313
08156,Star City,39.134,-90.674
08161,Stark,40.996,-89.744
08163,Starks,42.088,-88.457
08167,State Road,40.076,-87.958
08172,Stavanger,41.399,-88.614
08176,Steel City,37.998,-88.879
08202,Stillwell,40.219,-91.183
08247,Stratford,41.997,-89.491
08262,Stubblefield,38.848,-89.466
08281,Sugar Grove,40.029,-90.572
08283,Sugar Island,41.006,-87.824
08292,Sulphur Springs,41.419,-88.774
08311,Sunbeam,41.127,-90.735
08318,Sunfield,38.064,-89.240
08346,Sutter,40.279,-91.344
08346,Sutter,40.397,-89.369
08348,Sutton,42.096,-88.194
08353,Swan Creek,40.668,-90.655
08360,Swanwick,38.170,-89.536
08367,Sweet Water,40.054,-89.694
08369,Swift,41.920,-88.042
08381,Sylvan Lake,42.244,-88.053
08390,Tabor,40.181,-89.135
08459,Terra Cotta,42.282,-88.301
08461,Terre Haute,40.666,-90.981
08471,Texas City,37.878,-88.393
08493,Thomas,41.512,-89.819
08524,Tice,39.985,-89.795
08541,Timothy,39.303,-88.129
08546,Tioga,40.211,-91.347
08549,Tipton,40.070,-88.035
08549,Tipton,38.236,-90.101
08633,Trimble,39.063,-87.684
08639,Triumph,41.499,-89.022
08660,Truro,40.958,-90.042
08671,Tunbridge,40.114,-89.049
08675,Tunnel Hill,37.524,-88.839
08737,Union,40.288,-89.367
08738,Union Center,39.333,-88.081
08743,Union Grove,41.834,-90.026
08752,Uniontown,40.748,-90.099
08753,Unionville,37.122,-88.547
08753,Unionville,40.025,-87.638
08753,Unionville,41.819,-89.983
08771,Urbandale,37.053,-89.186
08772,Utah,40.984,-90.488
08837,Velma,39.515,-89.233
08843,Vera,39.034,-89.113
08881,Villa Ridge,37.159,-89.195
08886,Villas,38.899,-87.754
08914,Voorhies,39.867,-88.580
08920,Wacker,42.058,-90.046
08941,Wakefield,38.840,-88.244
08955,Walker,39.676,-89.007
08962,Walla Walla,39.201,-88.192
08975,Walnut Grove,40.616,-90.559
08975,Walnut Grove,41.177,-89.361
08979,Walsh,38.089,-89.851
08983,Waltham,41.433,-89.010
08990,Wanda,38.834,-90.039
08997,Ware,37.448,-89.394
09010,Wartburg,38.291,-90.196
09033,Watkins,40.281,-88.677
09056,Weir,39.268,-87.790
09060,Weaver,39.418,-87.599
09067,Webster,40.466,-91.001
09095,Wendel,41.533,-89.210
09096,Wendelin,38.833,-88.273
09121,West End,37.890,-88.706
09150,West Point,37.899,-89.622
09152,West Ridge,39.826,-88.217
09180,Weston,40.747,-88.622
09186,Westview,38.537,-90.102
09211,Whitaker,41.251,-87.728
09235,White Rock,42.036,-89.134
09241,Whitefield,41.149,-89.505
09268,Whitton,42.226,-90.308
09291,Wildwood,42.343,-87.998
09295,Wilkinson,42.007,-88.783
09296,Willard,37.086,-89.352
09297,Willeford,37.656,-88.852
09315,Willow,42.278,-89.950
09334,Wilson,42.347,-87.906
09337,Wilton,41.379,-87.934
09352,Winkel,40.349,-89.631
09352,Winkle,38.150,-89.489
09383,Woburn,38.959,-89.346
09388,Wolf Lake,37.504,-89.438
09400,Woodbury,39.196,-88.303
09401,Woodbine,42.342,-90.145
09408,Woodford,40.847,-89.028
09433,Woodville,40.188,-91.183
09437,Woodyard,39.866,-87.656
09485,Yellow Creek,42.306,-89.856
09494,York,39.171,-87.639
09495,York Center,41.857,-87.988
09498,Yorktown,41.570,-89.850
09503,Youngstown,40.661,-90.617
09513,Zanesville,39.322,-89.653
09515,Zearing,41.446,-89.317
09522,Zenith,38.549,-88.623