phoneme,name,county,latitude,longitude
0222,Aurora,DuPage County,41.763,-88.290
4947,Thornton,Cook County,41.601,-87.600
2513,Joliet,Kendall County,41.518,-88.149
4271,Rockford,Ogle County,42.259,-89.063
2851,Lisle,DuPage County,41.772,-88.092
1524,Elgin,Cook County,42.039,-88.326
4686,Springfield,Sangamon County,39.802,-89.644
3762,Palatine,Cook County,42.111,-88.064
3853,Peoria,Peoria County,40.694,-89.589
0482,Bloomingdale,DuPage County,41.949,-88.090
3546,Niles,Cook County,42.032,-87.758
0961,Cicero,Cook County,41.846,-87.754
0483,Bloomington,McLean County,40.484,-88.994
1631,Evanston,Cook County,42.041,-87.690
0172,Arlington Heights,Cook County,42.088,-87.981
1281,Decatur,Macon County,39.840,-88.955
0407,Berwyn,Cook County,41.851,-87.794
3561,Normal,McLean County,40.514,-88.991
3617,Oak Park,Cook County,41.885,-87.784
5348,Wheaton,DuPage County,41.866,-88.107
1950,Glenview,Cook County,42.070,-87.788
3945,Plainfield,Kendall County,41.630,-88.245
1558,Elmhurst,Cook County,41.897,-87.944
0670,Buffalo Grove,Cook County,42.166,-87.962
3290,Moline,Rock Island County,41.507,-90.515
0358,Belleville,St. Clair County,38.520,-89.984
4772,Stickney,Cook County,41.773,-87.774
0281,Bartlett,Cook County,41.961,-88.178
1207,Crystal Lake,McHenry County,42.241,-88.316
4089,Quincy,Adams County,39.936,-91.410
1500,Edwardsville,Madison County,38.790,-89.985
3790,Park Ridge,Cook County,42.011,-87.841
5086,Urbana,Champaign County,40.111,-88.207
5350,Wheeling,Cook County,42.130,-87.921
0793,Carpentersville,Kane County,42.121,-88.258
4263,Rock Island,Rock Island County,41.509,-90.579
3725,Oswego,Kendall County,41.683,-88.339
0816,Caseyville,St. Clair County,38.621,-89.976
3586,Northbrook,Cook County,42.128,-87.829
5471,Woodridge,Cook County,41.737,-88.044
4698,St. Charles,DuPage County,41.919,-88.311
3607,O'Fallon,St. Clair County,38.592,-89.911
3835,Pekin,Peoria County,40.569,-89.625
2279,Highland Park,Lake County,42.182,-87.800
0067,Algonquin,Kane County,42.159,-88.322
1851,Galesburg,Knox County,40.948,-90.371
0679,Burbank,Cook County,41.734,-87.779
1255,Danville,Vermilion County,40.124,-87.630
2726,Lansing,Cook County,41.565,-87.539
2394,Huntley,Kane County,42.161,-88.435
3611,Oak Forest,Cook County,41.603,-87.744
0293,Batavia,DuPage County,41.848,-88.311
5495,Woodstock,McHenry County,42.315,-88.449
0098,Alton,Madison County,38.891,-90.184
5549,Zion,Lake County,42.446,-87.833
1067,Collinsville,Madison County,38.676,-90.006
3174,Melrose Park,Cook County,41.901,-87.857
5333,Westmont,DuPage County,41.796,-87.976
1564,Elmwood Park,Cook County,41.921,-87.809
1818,Freeport,Stephenson County,42.297,-89.621
3115,Maywood,Cook County,41.879,-87.843
4312,Roselle,Cook County,41.980,-88.086
5536,Yorkville,Kendall County,41.641,-88.447
5148,Villa Park,DuPage County,41.890,-87.989
1257,Darien,DuPage County,41.746,-87.981
0774,Carbondale,Jackson County,37.722,-89.224
3316,Montgomery,Kane County,41.721,-88.358
1358,Dolton,Cook County,41.639,-87.607
4819,Sugar Grove,Kane County,41.769,-88.431
1802,Frankfort,Cook County,41.507,-87.871
2182,Harvey,Cook County,41.610,-87.647
0898,Charleston,Coles County,39.481,-88.187
2687,Lake Forest,Lake County,42.259,-87.841
1291,Deerfield,Cook County,42.166,-87.852
0618,Brookfield,Cook County,41.824,-87.852
2345,Homewood,Cook County,41.557,-87.666
3730,Ottawa,LaSalle County,41.346,-88.843
3100,Matteson,Cook County,41.504,-87.713
4329,Round Lake,Lake County,42.353,-88.093
4874,Sycamore,DeKalb County,41.989,-88.687
0369,Bellwood,Cook County,41.881,-87.883
1804,Franklin Park,Cook County,41.935,-87.866
4568,Shorewood,Will County,41.520,-88.202
0777,Cary,McHenry County,42.212,-88.238
2469,Jacksonville,Morgan County,39.734,-90.229
1957,Godfrey,Madison County,38.956,-90.187
2723,Lemont,Cook County,41.667,-87.984
2302,Hinsdale,Cook County,41.801,-87.928
3101,Mattoon,Coles County,39.483,-88.373
3058,Marion,Williamson County,37.731,-88.933
5322,Westchester,Cook County,41.851,-87.882
1145,Country Club Hills,Cook County,41.568,-87.720
4245,Riverside,Cook County,41.833,-87.825
2652,La Grange,Cook County,41.805,-87.869
2986,Macomb,McDonough County,40.459,-90.672
0557,Bradley,Kankakee County,41.142,-87.861
5225,Warrenville,DuPage County,41.818,-88.173
3393,Mount Vernon,Jefferson County,38.317,-88.903
0907,Chatham,Sangamon County,39.676,-89.705
3355,Morris,Grundy County,41.357,-88.421
4562,Shiloh,St. Clair County,38.561,-89.897
2839,Lindenhurst,Lake County,42.411,-88.026
4863,Swansea,St. Clair County,38.534,-89.989
2266,Hickory Hills,Cook County,41.726,-87.825
2062,Greenwood,McHenry County,42.374,-88.404
1761,Forest Park,Cook County,41.879,-87.814
3221,Midlothian,Cook County,41.625,-87.718
2999,Mahomet,Champaign County,40.184,-88.407
2828,Lincoln,Logan County,40.148,-89.365
3590,Northlake,Cook County,41.917,-87.896
2534,Justice,Cook County,41.744,-87.838
1501,Effingham,Effingham County,39.120,-88.543
3949,Plano,Kendall County,41.663,-88.537
4123,Rantoul,Champaign County,40.308,-88.156
0875,Centralia,Clinton County,38.522,-89.124
4237,River Forest,Cook County,41.898,-87.814
3061,Markham,Cook County,41.594,-87.695
1131,Cortland,DeKalb County,41.935,-88.662
5021,Troy,Madison County,38.729,-89.883
5240,Waterloo,Monroe County,38.336,-90.150
1070,Columbia,Monroe County,38.458,-90.216
1797,Fox Lake,Lake County,42.428,-88.184
4832,Summit,Cook County,41.788,-87.810
1177,Crestwood,Cook County,41.661,-87.753
0279,Barrington,Cook County,42.152,-88.129
4243,Riverdale,Cook County,41.643,-87.636
2893,Long Creek,Macon County,39.827,-88.833
2275,Highland,Madison County,38.739,-89.671
3864,Peru,Bureau County,41.347,-89.133
2181,Harvard,McHenry County,42.422,-88.614
2460,Itasca,DuPage County,41.975,-88.007
4257,Rochelle,Lee County,41.920,-89.062
2426,Ingleside,Lake County,42.381,-88.139
5424,Willowbrook,DuPage County,41.770,-87.936
2971,Lynwood,Cook County,41.526,-87.539
4472,Savoy,Champaign County,40.055,-88.252
4261,Rock Falls,Whiteside County,41.780,-89.689
1941,Glencoe,Cook County,42.135,-87.758
1951,Glenwood,Cook County,41.543,-87.602
1179,Crete,Cook County,41.441,-87.624
2894,Long Grove,Lake County,42.178,-87.998
3087,Maryville,Madison County,38.724,-89.956
2295,Hillside,Cook County,41.878,-87.903
2456,Island Lake,Lake County,42.279,-88.200
0609,Broadview,Cook County,41.864,-87.853
2833,Lincolnshire,Lake County,42.190,-87.908
3788,Park City,Lake County,42.348,-87.884
0932,Chester,Randolph County,37.914,-89.822
3053,Marengo,McHenry County,42.249,-88.608
2434,Inverness,Cook County,42.118,-88.096
4437,Sandwich,DeKalb County,41.650,-88.619
5081,University Park,Cook County,41.447,-87.713
1012,Clinton,De Witt County,40.154,-88.965
5115,Vandalia,Fayette County,38.961,-89.094
3379,Mount Carmel,Wabash County,38.411,-87.761
2852,Litchfield,Montgomery County,39.175,-89.654
2060,Greenville,Bond County,38.892,-89.413
2504,Johnsburg,McHenry County,42.380,-88.242
1146,Countryside,Cook County,41.783,-87.878
2706,Lakemoor,Lake County,42.339,-88.203
0284,Bartonville,Peoria County,40.650,-89.652
0806,Carterville,Williamson County,37.760,-89.077
1024,Coal City,Grundy County,41.279,-88.280
5423,Willow Springs,Cook County,41.741,-87.860
2691,Lake Holiday,LaSalle County,41.613,-88.672
4676,Spring Grove,McHenry County,42.444,-88.236
4681,Spring Valley,Bureau County,41.328,-89.200
2282,Highwood,Lake County,42.200,-87.809
0371,Belmont,DuPage County,41.793,-88.038
0395,Berkeley,Cook County,41.889,-87.903
3901,Pinckneyville,Perry County,38.080,-89.382
1628,Eureka,Woodford County,40.721,-89.273
3225,Milan,Rock Island County,41.453,-90.572
1180,Creve Coeur,Tazewell County,40.647,-89.591
3070,Marseilles,LaSalle County,41.331,-88.708
1650,Fairfield,Wayne County,38.379,-88.360
1735,Flora,Clay County,38.669,-88.486
0338,Beecher,Will County,41.341,-87.621
0704,Butterfield,DuPage County,41.836,-88.042
4556,Sherman,Sangamon County,39.894,-89.605
4251,Robbins,Cook County,41.644,-87.704
4546,Shelbyville,Shelby County,39.406,-88.790
3823,Paxton,Ford County,40.460,-88.095
2715,Lakewood,McHenry County,42.229,-88.355
2343,Hometown,Cook County,41.734,-87.731
2764,Lawrenceville,Lawrence County,38.729,-87.682
3937,Pittsfield,Pike County,39.608,-90.805
0133,Anna,Union County,37.460,-89.247
3356,Morrison,Whiteside County,41.810,-89.965
1428,Dwight,Grundy County,41.098,-88.425
0690,Burnham,Cook County,41.639,-87.557
4663,Sparta,Randolph County,38.123,-89.702
4313,Rosemont,Cook County,41.995,-87.885
1521,Eldorado,Saline County,37.814,-88.438
4141,Red Bud,Randolph County,38.212,-89.994
1767,Forsyth,Macon County,39.933,-88.951
3647,Oglesby,LaSalle County,41.295,-89.060
1290,Deer Park,Cook County,42.166,-88.086
0055,Aledo,Mercer County,41.200,-90.749
1647,Fairbury,Livingston County,40.747,-88.515
3696,Oregon,Ogle County,42.015,-89.332
2110,Hainesville,Lake County,42.345,-88.068
0734,Camargo,Douglas County,39.827,-88.166
3351,Moro,Madison County,38.957,-89.994
4246,Riverton,Sangamon County,39.844,-89.540
5180,Wadsworth,Lake County,42.429,-87.924
2769,Le Roy,McLean County,40.352,-88.764
3467,New Baden,Clinton County,38.537,-89.707
1850,Galena,Jo Daviess County,42.417,-90.429
5162,Virden,Macoupin County,39.506,-89.771
4601,Sleepy Hollow,Kane County,42.094,-88.303
5245,Watson,Effingham County,39.046,-88.523
2990,Madison,Madison County,38.686,-90.102
5339,Westville,Vermilion County,40.042,-87.639
4353,Rushville,Schuyler County,40.121,-90.563
2897,Long Lake,Lake County,42.371,-88.128
0927,Cherry Valley,Boone County,42.235,-88.975
0007,Abingdon,Knox County,40.804,-90.402
4217,Ridgewood,Will County,41.536,-88.040
2633,Knoxville,Knox County,40.908,-90.285
2123,Hamel,Madison County,38.874,-89.870
1509,El Paso,McLean County,40.740,-89.018
2791,Lena,Stephenson County,42.379,-89.822
2124,Hamilton,Hancock County,40.396,-91.339
3536,Newton,Jasper County,38.991,-88.163
4834,Sumner,Lawrence County,38.717,-87.861
1332,Diamond,Grundy County,41.285,-88.251
1656,Fairmont,Will County,41.556,-88.059
5008,Trenton,Clinton County,38.606,-89.682
4555,Sheridan,LaSalle County,41.530,-88.680
4961,Tilton,Vermilion County,40.095,-87.648
5234,Washington Park,St. Clair County,38.635,-90.093
5147,Villa Grove,Douglas County,39.863,-88.162
2562,Kenilworth,Cook County,42.086,-87.718
1270,Dayton,LaSalle County,41.422,-88.810
0815,Casey,Clark County,39.305,-87.985
4518,Seneca,Grundy County,41.303,-88.615
1682,Farmington,Fulton County,40.697,-90.002
2696,Lake of the Woods,Champaign County,40.206,-88.369
5424,Willowbrook,Will County,41.458,-87.536
5254,Wayne,DuPage County,41.947,-88.253
3987,Polo,Ogle County,41.986,-89.579
3159,Mechanicsburg,Sangamon County,39.830,-89.431
3867,Petersburg,Menard County,40.012,-89.848
0181,Arthur,Douglas County,39.714,-88.470
1571,Elwood,Will County,41.404,-88.112
0096,Altamont,Effingham County,39.062,-88.748
0597,Brighton,Jersey County,39.041,-90.140
5105,Valley View,Kane County,41.966,-88.299
2629,Knollwood,Lake County,42.272,-87.896
1716,Fisher,Champaign County,40.315,-88.350
2300,Hinckley,DeKalb County,41.769,-88.641
4268,Rockdale,Will County,41.506,-88.115
4993,Towanda,McLean County,40.534,-88.863
4038,Prairie Grove,McHenry County,42.279,-88.261
0198,Athens,Menard County,39.961,-89.724
0049,Albion,Edwards County,38.378,-88.056
5163,Virgil,Kane County,41.936,-88.548
0359,Bellevue,Peoria County,40.684,-89.680
2352,Hopedale,Tazewell County,40.435,-89.427
0688,Burlington,Kane County,42.024,-88.546
0736,Cambria,Williamson County,37.781,-89.119
3700,Orion,Henry County,41.355,-90.382
1923,Gilman,Iroquois County,40.767,-87.992
4114,Ramsey,Fayette County,39.150,-89.090
2517,Jonesboro,Union County,37.452,-89.268
2492,Jerome,Sangamon County,39.768,-89.681
3882,Phoenix,Cook County,41.611,-87.635
0715,Cairo,Alexander County,37.005,-89.176
4000,Port Byron,Rock Island County,41.606,-90.335
2616,Kirkland,DeKalb County,42.093,-88.851
2243,Heritage Lake,Tazewell County,40.547,-89.326
4056,Princeville,Peoria County,40.930,-89.758
1445,Earlville,LaSalle County,41.589,-88.922
2724,Lanark,Carroll County,42.102,-89.833
1413,Dunlap,Peoria County,40.862,-89.679
0068,Alhambra,Madison County,38.880,-89.757
3642,Odin,Marion County,38.599,-89.062
5330,Westlake Village,Winnebago County,42.306,-89.287
4190,Rome,Peoria County,40.883,-89.503
1220,Curran,Sangamon County,39.738,-89.766
5433,Winchester,Scott County,39.630,-90.456
2684,Lake Camelot,Peoria County,40.631,-89.742
4267,Rockbridge,Greene County,39.291,-90.215
3644,Ogden,Champaign County,40.149,-87.972
1694,Fayetteville,St. Clair County,38.359,-89.758
5227,Warsaw,Hancock County,40.359,-91.435
1760,Forest Lake,Lake County,42.208,-88.056
5145,Vienna,Johnson County,37.415,-88.898
4337,Roxana,Madison County,38.848,-90.076
1615,Essex,Kankakee County,41.158,-88.187
4726,St. Rose,Clinton County,38.692,-89.545
2628,Noble,Richland County,38.709,-88.214
5241,Waterman,DeKalb County,41.772,-88.774
5411,Williamsville,Sangamon County,39.954,-89.549
3179,Mendon,Adams County,40.102,-91.291
2670,Ladd,Bureau County,41.383,-89.219
0770,Capron,Boone County,42.400,-88.740
2006,Grandview,Sangamon County,39.816,-89.619
2595,Kincaid,Christian County,39.589,-89.415
1868,Gardner,Grundy County,41.186,-88.310
2815,Liberty,Adams County,39.882,-91.092
4979,Toluca,Marshall County,41.002,-89.133
1010,Clifton,Iroquois County,40.935,-87.934
1639,Ewing,Franklin County,38.078,-88.872
4563,Shipman,Macoupin County,39.124,-90.080
4703,St. Elmo,Fayette County,39.027,-88.848
5521,Wyoming,Stark County,41.062,-89.773
0051,Alden,McHenry County,42.454,-88.536
0411,Bethany,Moultrie County,39.646,-88.738
3088,Mason,Effingham County,38.949,-88.648
0202,Atkinson,Henry County,41.456,-90.037
3764,Palestine,Crawford County,39.004,-87.613
2237,Hennepin,Putnam County,41.218,-89.298
2287,Hillcrest,Ogle County,41.951,-89.065
4547,Sheldon,Iroquois County,40.733,-87.589
0195,Astoria,Fulton County,40.228,-90.386
0952,Chrisman,Edgar County,39.804,-87.674
2385,Humboldt,Coles County,39.590,-88.305
3956,Pleasant Hill,Pike County,39.440,-90.855
4324,Rossville,Vermilion County,40.379,-87.669
2138,Hanover,Jo Daviess County,42.244,-90.301
2170,Hartford,Madison County,38.833,-90.096
3641,Odell,Livingston County,40.983,-88.525
3471,New Boston,Mercer County,41.202,-90.995
2452,Irvington,Washington County,38.451,-89.198
0600,Brimfield,Peoria County,40.835,-89.936
1210,Cuba,Fulton County,40.493,-90.191
4977,Toledo,Cumberland County,39.274,-88.244
5251,Waverly,Morgan County,39.592,-89.953
0190,Ashton,Lee County,41.867,-89.226
2987,Macon,Macon County,39.713,-88.997
4316,Roseville,Warren County,40.761,-90.616
1233,Dahlgren,Hamilton County,38.191,-88.657
3280,Mitchell,Madison County,38.762,-90.085
2234,Henderson,Knox County,41.023,-90.383
4132,Raymond,Montgomery County,39.300,-89.520
0991,Clay City,Clay County,38.666,-88.317
0211,Atwood,Douglas County,39.799,-88.463
1490,Edinburg,Christian County,39.657,-89.390
0492,Blue Mound,Macon County,39.701,-89.123
0872,Central City,Marion County,38.549,-89.127
5504,Worden,Madison County,38.931,-89.839
5223,Warrensburg,Macon County,39.933,-89.062
3239,Milledgeville,Carroll County,41.963,-89.775
4107,Raleigh,Saline County,37.813,-88.545
2872,Lockport Heights,Will County,41.619,-88.025
1849,Galatia,Saline County,37.838,-88.650
1590,Enfield,White County,38.080,-88.315
4542,Shawneetown,Gallatin County,37.713,-88.187
2340,Homer,Champaign County,40.035,-87.958
4341,Royalton,Franklin County,37.877,-89.115
3185,Menominee,Jo Daviess County,42.463,-90.535
2051,Greenfield,Greene County,39.344,-90.213
3357,Morrisonville,Christian County,39.420,-89.456
4788,Stonington,Christian County,39.655,-89.195
2822,Lily Lake,Kane County,41.949,-88.478
1035,Cobden,Union County,37.531,-89.253
5231,Washburn,Marshall County,40.920,-89.292
2462,Iuka,Marion County,38.608,-88.755
5387,Witt,Montgomery County,39.217,-89.307
0044,Albany,Whiteside County,41.749,-90.227
1528,Elizabeth,Jo Daviess County,42.316,-90.282
3522,Newark,Kendall County,41.537,-88.583
1061,Colfax,McLean County,40.567,-88.616
1589,Energy,Williamson County,37.774,-89.026
5285,Wenona,LaSalle County,41.049,-89.052
2788,Leland,LaSalle County,41.613,-88.800
3031,Mansfield,Piatt County,40.211,-88.506
4963,Timberlane,Boone County,42.335,-88.861
1912,Gifford,Champaign County,40.306,-88.021
4535,Shannon,Carroll County,42.155,-89.740
2163,Harrison,Jackson County,37.797,-89.337
5160,Viola,Mercer County,41.203,-90.587
4226,Ringwood,McHenry County,42.392,-88.297
1143,Coulterville,Randolph County,38.186,-89.606
3821,Paw Paw,Lee County,41.689,-88.981
4543,Sheffield,Bureau County,41.358,-89.737
4930,Texico,Jefferson County,38.439,-88.897
3959,Pleasant Plains,Sangamon County,39.873,-89.921
5422,Willow Lake,Stephenson County,42.333,-89.636
4660,Spaulding,Sangamon County,39.866,-89.540
3502,New Milford,Winnebago County,42.187,-89.068
0059,Alexis,Mercer County,41.063,-90.555
2864,Livingston,Madison County,38.968,-89.764
2144,Hardin,Calhoun County,39.157,-90.618
2222,Hurst,Williamson County,37.833,-89.143
3694,Orangeville,Stephenson County,42.468,-89.644
5314,West Salem,Edwards County,38.521,-88.005
4944,Thomson,Carroll County,41.959,-90.099
5478,Woodhull,Henry County,41.179,-90.316
2059,Greenview,Menard County,40.083,-89.738
3145,McLean,McLean County,40.314,-89.170
3627,Oakland,Coles County,39.654,-88.026
3973,Pocahontas,Bond County,38.828,-89.540
4960,Tilden,Randolph County,38.212,-89.683
0636,Brownstown,Fayette County,38.996,-88.953
4553,Sherrard,Mercer County,41.319,-90.506
1991,Grafton,Jersey County,38.970,-90.431
3679,Oneida,Knox County,41.072,-90.225
0232,Avon,Fulton County,40.662,-90.435
1680,Farmersville,Montgomery County,39.443,-89.652
4019,Potomac,Vermilion County,40.305,-87.801
0091,Alpha,Henry County,41.192,-90.380
5435,Windsor,Mercer County,41.202,-90.444
1086,Como,Whiteside County,41.766,-89.767
0556,Bradford,Stark County,41.177,-89.658
1287,Deer Creek,Tazewell County,40.630,-89.332
2619,Kirkwood,Warren County,40.866,-90.748
1711,Findlay,Shelby County,39.523,-88.754
3372,Mounds,Pulaski County,37.114,-89.198
1243,Dalzell,Bureau County,41.356,-89.173
0858,Cedarville,Stephenson County,42.376,-89.633
1707,Fidelity,Jersey County,39.134,-90.195
1960,Golconda,Pope County,37.367,-88.486
0621,Brooklyn,St. Clair County,38.659,-90.166
1962,Golden,Adams County,40.109,-91.018
1194,Crossville,White County,38.162,-88.065
3620,Oak Run,Knox County,40.963,-90.145
4934,Thayer,Sangamon County,39.538,-89.763
1175,Creston,Ogle County,41.931,-88.965
2043,Green Valley,Tazewell County,40.408,-89.643
4715,St. Libory,St. Clair County,38.363,-89.710
3248,Millington,Kendall County,41.560,-88.604
5485,Woodlawn,Jefferson County,38.330,-89.033
1657,Fairmount,Vermilion County,40.046,-87.831
3773,Palmyra,Macoupin County,39.435,-89.996
1958,Godley,Grundy County,41.244,-88.243
4737,Stanford,McLean County,40.435,-89.218
1803,Franklin,Morgan County,39.620,-90.044
1265,Davis,Stephenson County,42.423,-89.414
5416,Willisville,Perry County,37.984,-89.590
0445,Bismarck,Vermilion County,40.264,-87.608
3936,Pittsburg,Williamson County,37.777,-88.850
4705,St. Francisville,Lawrence County,38.591,-87.647
5094,Valier,Franklin County,38.015,-89.043
5067,Union,McHenry County,42.233,-88.542
2863,Liverpool,Fulton County,40.414,-90.036
3667,Olive Branch,Alexander County,37.169,-89.352
0225,Ava,Jackson County,37.888,-89.495
1170,Crescent City,Iroquois County,40.770,-87.859
2414,Indian Creek,Lake County,42.227,-87.980
5430,Wilsonville,Macoupin County,39.071,-89.856
2531,Junction City,Marion County,38.580,-89.128
4798,Strasburg,Shelby County,39.353,-88.619
3371,Mound City,Pulaski County,37.085,-89.163
1632,Evansville,Randolph County,38.090,-89.938
0881,Chadwick,Carroll County,42.013,-89.891
2002,Grand Ridge,LaSalle County,41.237,-88.831
2127,Hammond,Piatt County,39.797,-88.592
1268,Dawson,Sangamon County,39.853,-89.463
1969,Golf,Cook County,42.059,-87.793
4702,St. David,Fulton County,40.493,-90.049
2919,Lost Nation,Ogle County,41.911,-89.367
4180,Rest Haven,Will County,41.262,-88.136
4186,Reynolds,Mercer County,41.332,-90.672
4121,Rankin,Vermilion County,40.465,-87.896
0660,Buckley,Iroquois County,40.597,-88.038
5494,Woodson,Morgan County,39.629,-90.219
4943,Thompsonville,Franklin County,37.918,-88.762
0663,Buda,Bureau County,41.326,-89.679
3612,Oak Grove,Rock Island County,41.411,-90.571
4413,San Jose,Logan County,40.305,-89.605
4222,Rinard,Wayne County,38.571,-88.465
0072,Allendale,Wabash County,38.527,-87.710
0892,Chapin,Morgan County,39.766,-90.399
1348,Dix,Jefferson County,38.442,-88.938
0539,Bowen,Hancock County,40.233,-91.063
0099,Altona,Knox County,41.115,-90.165
1576,Emden,Logan County,40.299,-89.485
0167,Argyle,Boone County,42.355,-88.939
0667,Buffalo,Sangamon County,39.853,-89.409
1121,Cornell,Livingston County,40.990,-88.729
3971,Plymouth,Hancock County,40.292,-90.916
2313,Hoffman,Clinton County,38.541,-89.264
3602,Norwood,Peoria County,40.706,-89.699
0922,Cherry,Bureau County,41.427,-89.213
1897,Georgetown,McDonough County,40.461,-90.718
3175,Melvin,Ford County,40.568,-88.248
2294,Hillsdale,Rock Island County,41.614,-90.173
2541,Karnak,Pulaski County,37.294,-88.975
0387,Benson,Woodford County,40.851,-89.122
0661,Buckner,Franklin County,37.983,-89.016
3492,New Haven,Gallatin County,37.898,-88.127
1486,Edgewood,Effingham County,38.921,-88.661
2384,Hull,Pike County,39.707,-91.207
4564,Shirley,McLean County,40.407,-89.063
3780,Panola,Woodford County,40.796,-88.988
5119,Varna,Marshall County,41.036,-89.226
0524,Bonnie,Jefferson County,38.203,-88.903
0773,Carbon Hill,Grundy County,41.297,-88.300
3166,Medora,Jersey County,39.177,-90.141
5274,Weldon,De Witt County,40.121,-88.745
2525,Joy,Mercer County,41.197,-90.880
1228,Cutler,Perry County,38.032,-89.566
0344,Belgium,Vermilion County,40.061,-87.638
2486,Jeffersonville,Wayne County,38.443,-88.404
1971,Good Hope,McDonough County,40.558,-90.673
3669,Olivet,Vermilion County,39.942,-87.644
4253,Roberts,Ford County,40.613,-88.183
2521,Joppa,Massac County,37.206,-88.845
4828,Summerfield,St. Clair County,38.597,-89.752
3777,Panama,Bond County,39.029,-89.524
3476,New Canton,Pike County,39.636,-91.096
4725,St. Peter,Fayette County,38.868,-88.854
3698,Orient,Franklin County,37.918,-88.978
1726,Flat Rock,Crawford County,38.902,-87.672
2748,Latham,Logan County,39.969,-89.162
2386,Hume,Edgar County,39.797,-87.869
3218,Middletown,Logan County,40.100,-89.591
1029,Coalton,Montgomery County,39.283,-89.301
2776,Lee,DeKalb County,41.795,-88.942
3006,Malden,Bureau County,41.424,-89.369
1462,Easton,Mason County,40.233,-89.843
0174,Armington,Tazewell County,40.339,-89.311
0608,Broadlands,Champaign County,39.909,-87.994
4122,Ransom,LaSalle County,41.156,-88.650
1709,Fillmore,Montgomery County,39.115,-89.279
2566,Kenney,De Witt County,40.097,-89.086
0250,Baldwin,Randolph County,38.183,-89.843
4919,Tennessee,McDonough County,40.420,-90.858
2907,Loraine,Adams County,40.154,-91.222
4529,Seymour,Champaign County,40.107,-88.427
4340,Royal,Champaign County,40.193,-87.973
4572,Sibley,Ford County,40.587,-88.381
3450,Nebo,Pike County,39.443,-90.791
4494,Scottville,Macoupin County,39.477,-90.097
2856,Little York,Warren County,41.011,-90.746
3236,Millbrook,Kendall County,41.598,-88.553
3148,McNabb,Putnam County,41.177,-89.209
1527,Elliott,Ford County,40.465,-88.272
0611,Brocton,Edgar County,39.716,-87.933
1087,Compton,Lee County,41.694,-89.081
3948,Plainville,Adams County,39.786,-91.185
4474,Sawyerville,Macoupin County,39.078,-89.807
0854,Cedar Point,LaSalle County,41.263,-89.126
3015,Manchester,Scott County,39.542,-90.332
3493,New Holland,Logan County,40.185,-89.581
0966,Cisco,Piatt County,40.011,-88.726
1153,Crab Orchard,Williamson County,37.729,-88.804
0080,Allerton,Champaign County,39.916,-87.935
2175,Hartsburg,Logan County,40.251,-89.441
3043,Mapleton,Peoria County,40.566,-89.732
0364,Bellmont,Wabash County,38.384,-87.911
3120,McClure,Alexander County,37.318,-89.431
1231,Cypress,Johnson County,37.365,-89.018
5480,Woodland,Iroquois County,40.714,-87.731
1325,Detroit,Pike County,39.613,-90.651
3123,McCook,Cook County,41.798,-87.845
3844,Penfield,Champaign County,40.303,-87.947
0698,Bush,Williamson County,37.843,-89.131
0658,Buckingham,Kankakee County,41.047,-88.175
3625,Oakford,Menard County,40.103,-89.963
2537,Kangley,LaSalle County,41.146,-88.874
2421,Indianola,Vermilion County,39.927,-87.740
3771,Palmer,Christian County,39.458,-89.404
3286,Modoc,Randolph County,38.053,-90.037
2762,Lawrence,McHenry County,42.441,-88.641
1530,Elizabethtown,Hardin County,37.446,-88.305
5356,White City,Macoupin County,39.065,-89.763
0013,Adair,McDonough County,40.419,-90.497
4503,Seaton,Mercer County,41.102,-90.802
4212,Ridgefield,McHenry County,42.268,-88.361
3260,Milton,Pike County,39.564,-90.650
5134,Verona,Grundy County,41.218,-88.501
2238,Henning,Vermilion County,40.305,-87.701
3321,Montrose,Cumberland County,39.166,-88.378
5277,Wellington,Iroquois County,40.539,-87.680
2738,LaPlace,Piatt County,39.800,-88.718
5129,Vermilion,Edgar County,39.581,-87.589
4153,Reddick,Kankakee County,41.098,-88.249
2499,Jewett,Cumberland County,39.208,-88.246
0739,Cameron,Warren County,40.889,-90.517
5316,West Union,Clark County,39.216,-87.666
3793,Parkersburg,Richland County,38.590,-88.057
4571,Shumway,Effingham County,39.185,-88.652
4606,Smithfield,Fulton County,40.473,-90.292
0738,Camden,Schuyler County,40.148,-90.738
5407,Williamson,Madison County,38.986,-89.764
4101,Radom,Washington County,38.282,-89.192
1553,Ellsworth,McLean County,40.450,-88.717
2546,Keensburg,Wabash County,38.351,-87.869
0629,Broughton,Hamilton County,37.935,-88.462
5181,Waggoner,Montgomery County,39.378,-89.653
3285,Modesto,Macoupin County,39.478,-89.982
2558,Kempton,Ford County,40.936,-88.237
5475,Woodburn,Macoupin County,39.047,-90.012
1981,Gorham,Jackson County,37.718,-89.486
3566,Norris,Fulton County,40.626,-90.032
0171,Arlington,Bureau County,41.474,-89.249
4589,Sims,Wayne County,38.360,-88.531
0700,Butler,Montgomery County,39.199,-89.534
0652,Bryant,Fulton County,40.466,-90.092
0722,Calhoun,Richland County,38.650,-88.044
4712,St. Johns,Perry County,38.031,-89.241
2648,La Fayette,Stark County,41.108,-89.972
4610,Smithville,Peoria County,40.660,-89.800
1007,Cleveland,Henry County,41.506,-90.315
1245,Dana,LaSalle County,40.958,-88.950
1362,Donnellson,Bond County,39.031,-89.476
1101,Cooksville,McLean County,40.543,-88.716
1792,Fowler,Adams County,40.008,-91.259
3413,Muncie,Vermilion County,40.116,-87.845
0244,Baileyville,Ogle County,42.198,-89.595
4067,Pulaski,Pulaski County,37.214,-89.206
1648,Fairdale,DeKalb County,42.100,-88.933
5432,Wilton Center,Will County,41.351,-87.960
1090,Concord,Morgan County,39.817,-90.373
1552,Ellisville,Fulton County,40.661,-90.301
1522,Eldred,Greene County,39.288,-90.552
0397,Berlin,Sangamon County,39.759,-89.903
5313,West Point,Hancock County,40.255,-91.183
0078,Allenville,Moultrie County,39.556,-88.530
2145,Harding,LaSalle County,41.515,-88.849
1688,Ferris,Hancock County,40.469,-91.170
1570,Elwin,Macon County,39.852,-88.944
4697,St. Augustine,Knox County,40.718,-90.411
0649,Brussels,Calhoun County,38.949,-90.589
3549,Niota,Hancock County,40.617,-91.288
2899,Longview,Champaign County,39.887,-88.066
1930,Glasgow,Scott County,39.551,-90.480
2268,Hidalgo,Jasper County,39.156,-88.147
1599,Eola,DuPage County,41.778,-88.243
0135,Annapolis,Crawford County,39.144,-87.817
1328,Dewey,Champaign County,40.319,-88.282
0697,Burton,Adams County,39.905,-91.249
4802,Strawn,Livingston County,40.653,-88.396
5132,Vernon,Marion County,38.802,-89.087
2436,Iola,Clay County,38.834,-88.628
3056,Marietta,Fulton County,40.501,-90.393
3435,Naples,Scott County,39.757,-90.607
2120,Hamburg,Calhoun County,39.230,-90.718
5077,Unity,Alexander County,37.150,-89.273
0346,Belknap,Johnson County,37.325,-88.939
1478,Eddyville,Pope County,37.499,-88.588
5349,Wheeler,Jasper County,39.047,-88.316
5208,Walnut Hill,Marion County,38.477,-89.043
2970,Lynnville,Morgan County,39.687,-90.346
4357,Russellville,Lawrence County,38.819,-87.532
2298,Hillview,Greene County,39.451,-90.541
2612,Kinsman,Grundy County,41.190,-88.570
0280,Barstow,Rock Island County,41.518,-90.357
5426,Wilmington,Greene County,39.481,-90.487
1641,Exeter,Scott County,39.721,-90.497
5318,West York,Crawford County,39.171,-87.674
3732,Otterville,Jersey County,39.051,-90.398
4308,Rose Hill,Jasper County,39.104,-88.147
1447,East Brooklyn,Grundy County,41.173,-88.264
2569,Kent,Stephenson County,42.309,-89.902
0014,Adams,Adams County,39.865,-91.198
3469,New Bedford,Bureau County,41.513,-89.721
0417,Beverly,Adams County,39.793,-90.991
2508,Johnsonville,Wayne County,38.522,-88.537
5522,Yale,Jasper County,39.120,-88.025
2453,Irwin,Kankakee County,41.052,-87.984
0436,Bingham,Fayette County,39.114,-89.213
1964,Golden Gate,Wayne County,38.359,-88.204
3232,Mill Creek,Union County,37.342,-89.253
4984,Topeka,Mason County,40.330,-89.931
2530,Junction,Gallatin County,37.723,-88.237
3408,Muddy,Saline County,37.765,-88.517
5072,Union Hill,Kankakee County,41.108,-88.147
4590,Simpson,Johnson County,37.467,-88.755
2660,La Prairie,Adams County,40.148,-91.003
3877,Phillipstown,White County,38.142,-88.022
0479,Bloomfield,Adams County,40.021,-91.307
4279,Rockwood,Randolph County,37.841,-89.701
1668,Fall Creek,Adams County,39.779,-91.302
5286,Wenonah,Montgomery County,39.327,-89.289
2977,Macedonia,Franklin County,38.054,-88.703
0388,Bentley,Hancock County,40.344,-91.112
2607,Kingston,Adams County,39.817,-91.028
1736,Florence,Pike County,39.627,-90.611
5098,Valley City,Pike County,39.707,-90.653
0023,Adrian,Hancock County,40.521,-91.167
0077,Allentown,Tazewell County,40.556,-89.397
0175,Armstrong,Vermilion County,40.306,-87.878
0270,Barnes,McLean County,40.503,-88.902
0402,Berryville,Richland County,38.599,-87.929
0459,Blackstone,Livingston County,41.084,-88.691
0499,Bluff City,Fayette County,38.964,-89.046
0603,Bristol,Kendall County,41.686,-88.428
0670,Buffalo Grove,Ogle County,41.981,-89.595
0711,Cache,Alexander County,37.100,-89.261
0831,Catharine,LaSalle County,41.523,-88.719
0840,Cayuga,Livingston County,40.941,-88.584
0912,Chautauqua,Jersey County,38.964,-90.386
0918,Cheneyville,Vermilion County,40.469,-87.585
0974,Clarion,Bureau County,41.505,-89.192
0983,Clarksville,Clark County,39.452,-87.798
1117,Corinth,Williamson County,37.819,-88.776
1300,Delhi,Jersey County,39.045,-90.256
1318,Denver,Hancock County,40.291,-91.107
1499,Edwards,Peoria County,40.746,-89.744
1546,Ellery,Edwards County,38.355,-88.149
1562,Elmore,Peoria County,40.957,-89.977
1788,Fountain Green,Hancock County,40.476,-90.969
1806,Franklinville,McHenry County,42.277,-88.511
1916,Gilchrist,Mercer County,41.205,-90.624
2077,Groveland,Tazewell County,40.591,-89.533
2087,Gulfport,Henderson County,40.814,-91.086
2150,Harlem,Winnebago County,42.340,-89.018
2165,Harrisonville,Monroe County,38.278,-90.350
2265,Hickory Grove,Adams County,39.938,-91.315
2472,Jamaica,Vermilion County,39.991,-87.807
2476,Jamestown,Clinton County,38.735,-89.519
2519,Jonesville,LaSalle County,41.311,-89.071
2696,Lake of the Woods,Peoria County,40.840,-89.605
2713,Lakeview,Saline County,37.672,-88.616
2815,Liberty,Saline County,37.720,-88.572
2855,Little Rock,Kendall County,41.717,-88.576
2860,Lytleville,McLean County,40.342,-88.956
2936,Lowell,LaSalle County,41.251,-89.011
3048,Marblehead,Adams County,39.840,-91.369
3122,McConnell,Stephenson County,42.434,-89.731
3132,McDowell,Livingston County,40.831,-88.585
3178,Menard,Randolph County,37.910,-89.840
3193,Meriden,LaSalle County,41.571,-89.035
3196,Merrimac,Monroe County,38.371,-90.333
3204,Meyer,Adams County,40.148,-91.504
3237,Millburn,Lake County,42.426,-88.004
3300,Monroe City,Monroe County,38.256,-90.266
3367,Mossville,Peoria County,40.816,-89.568
3418,Murdock,Douglas County,39.801,-88.078
3479,New City,Sangamon County,39.669,-89.539
3489,New Hanover,Monroe County,38.387,-90.227
3537,Newtown,Vermilion County,40.167,-87.769
3600,Norway,LaSalle County,41.466,-88.664
3628,Oakley,Macon County,39.876,-88.806
3678,Oneco,Stephenson County,42.487,-89.664
3766,Palisades,DuPage County,41.714,-87.934
3776,Paloma,Adams County,40.023,-91.195
3805,Parrish,Franklin County,37.941,-88.813
4040,Prairie View,Lake County,42.199,-87.963
4075,Putnam,Putnam County,41.185,-89.396
4173,Reno,Bond County,38.975,-89.514
4198,Ritchie,Will County,41.255,-88.105
4303,Rosamond,Christian County,39.380,-89.160
4356,Russell,Lake County,42.491,-87.912
4369,Sabina,McLean County,40.347,-88.651
4394,Salisbury,Sangamon County,39.890,-89.798
5016,Triumph,LaSalle County,41.499,-89.022
5024,Truro,Knox County,40.958,-90.042
5149,Villa Ridge,Pulaski County,37.159,-89.195
5200,Walla Walla,Cumberland County,39.201,-88.192
5217,Ware,Union County,37.448,-89.394
5228,Wartburg,Monroe County,38.291,-90.196
5262,Weaver,Clark County,39.418,-87.599
5268,Webster,Hancock County,40.466,-91.001
5335,Weston,McLean County,40.747,-88.622
5464,Wolf Lake,Union County,37.504,-89.438