phoneme,name,county,latitude,longitude
00524,Baton Rouge,East Baton Rouge Parish,30.451,-91.155
04584,Lafayette,Lafayette Parish,30.224,-92.020
04399,Kenner,Jefferson Parish,29.994,-90.242
05658,Monroe,Ouachita Parish,32.509,-92.119
00106,Alexandria,Rapides Parish,31.311,-92.445
06942,Prairieville,Ascension Parish,30.303,-90.972
01520,Central,East Baton Rouge Parish,30.554,-91.037
04685,Laplace,St. John the Baptist Parish,30.067,-90.480
07906,Slidell,St. Tammany Parish,30.275,-89.781
08464,Terrytown,Jefferson Parish,29.910,-90.033
07482,Ruston,Lincoln Parish,32.523,-92.638
03752,Harvey,Jefferson Parish,29.904,-90.077
08290,Sulphur,Calcasieu Parish,30.237,-93.377
07801,Shenandoah,East Baton Rouge Parish,30.401,-91.001
03664,Hammond,Tangipahoa Parish,30.504,-90.461
02807,Estelle,Jefferson Parish,29.846,-90.107
03562,Gretna,Jefferson Parish,29.915,-90.054
09504,Youngsville,Lafayette Parish,30.100,-91.990
06740,Pineville,Rapides Parish,31.322,-92.434
05069,Luling,St. Charles Parish,29.932,-90.366
07281,River Ridge,Jefferson Parish,29.960,-90.216
00541,Bayou Blue,Lafourche Parish,29.634,-90.673
01673,Claiborne,Ouachita Parish,32.516,-92.192
05175,Mandeville,St. Tammany Parish,30.358,-90.066
09142,West Monroe,Ouachita Parish,32.518,-92.148
03392,Gonzales,Ascension Parish,30.239,-90.920
00423,Baker,East Baton Rouge Parish,30.588,-91.168
05587,Minden,Webster Parish,32.615,-93.287
02095,Crowley,Acadia Parish,30.214,-92.375
02003,Covington,St. Tammany Parish,30.475,-90.101
05760,Moss Bluff,Calcasieu Parish,30.303,-93.191
09422,Woodmere,Jefferson Parish,29.858,-90.080
00541,Bayou Blue,Lafourche Parish,29.632,-90.669
05726,Morgan City,St. Martin Parish,29.710,-91.192
00003,Abbeville,Vermilion Parish,29.975,-92.134
07028,Raceland,Lafourche Parish,29.727,-90.599
08538,Timberlane,Jefferson Parish,29.877,-90.032
04263,Jefferson,Jefferson Parish,29.966,-90.153
04273,Jennings,Jefferson Davis Parish,30.222,-92.657
00518,Bastrop,Morehouse Parish,32.756,-91.872
02826,Eunice,Acadia Parish,30.490,-92.419
07184,Reserve,St. John the Baptist Parish,30.054,-90.552
07687,Scott,Lafayette Parish,30.236,-92.095
08127,St. Rose,St. Charles Parish,29.947,-90.323
01054,Bridge City,Jefferson Parish,29.933,-90.170
07044,Rayne,Acadia Parish,30.235,-92.268
06229,Oakdale,Allen Parish,30.816,-92.660
02388,Donaldsonville,Ascension Parish,30.101,-90.993
02724,Elmwood,Jefferson Parish,29.957,-90.190
03133,Franklin,St. Mary Parish,29.796,-91.501
08955,Walker,Livingston Parish,30.488,-90.861
03496,Gray,Terrebonne Parish,29.698,-90.786
06532,Patterson,St. Mary Parish,29.693,-91.302
07671,Schriever,Terrebonne Parish,29.742,-90.810
04772,Leesville,Vernon Parish,31.144,-93.261
08900,Violet,St. Bernard Parish,29.896,-89.898
00388,Avondale,Jefferson Parish,29.913,-90.204
06872,Port Allen,West Baton Rouge Parish,30.452,-91.210
05256,Marksville,Avoyelles Parish,31.128,-92.066
09359,Winnsboro,Franklin Parish,32.163,-91.721
05682,Monticello,East Baton Rouge Parish,30.489,-91.049
08068,Springhill,Webster Parish,33.006,-93.467
09174,Westlake,Calcasieu Parish,30.242,-93.251
00723,Berwick,St. Mary Parish,29.695,-91.219
05194,Mansfield,De Soto Parish,32.038,-93.700
03766,Haughton,Bossier Parish,32.533,-93.504
01135,Brownsville,Ouachita Parish,32.487,-92.154
04314,Jonesboro,Jackson Parish,32.241,-92.716
00251,Arabi,St. Bernard Parish,29.954,-90.005
00543,Bayou Vista,St. Mary Parish,29.690,-91.271
07229,Richwood,Ouachita Parish,32.449,-92.085
00438,Ball,Rapides Parish,31.415,-92.412
02589,Eastwood,Bossier Parish,32.556,-93.567
08873,Vidalia,Concordia Parish,31.565,-91.426
04267,Jena,LaSalle Parish,31.683,-92.134
04232,Jackson,East Feliciana Parish,30.837,-91.218
03136,Franklinton,Washington Parish,30.847,-90.153
00839,Blanchard,Caddo Parish,32.581,-93.893
09079,Welsh,Jefferson Davis Parish,30.236,-92.823
07096,Rayville,Richland Parish,32.477,-91.755
04189,Iowa,Calcasieu Parish,30.237,-93.014
08898,Vinton,Calcasieu Parish,30.191,-93.581
03552,Greenwood,Caddo Parish,32.443,-93.973
08330,Sunset,St. Landry Parish,30.411,-92.068
08909,Vivian,Caddo Parish,32.872,-93.987
06109,Norco,St. Charles Parish,29.999,-90.412
00260,Arcadia,Bienville Parish,32.549,-92.920
09177,Westminster,East Baton Rouge Parish,30.414,-91.088
06575,Pearl River,St. Tammany Parish,30.376,-89.748
04596,Lake Arthur,Jefferson Davis Parish,30.081,-92.672
05583,Milton,Lafayette Parish,30.104,-92.076
02274,Delhi,Richland Parish,32.458,-91.493
04000,Homer,Claiborne Parish,32.792,-93.056
04933,Lockport,Lafourche Parish,29.646,-90.539
08223,Stonewall,De Soto Parish,32.282,-93.824
02796,Erwinville,West Baton Rouge Parish,30.531,-91.408
05322,Maurice,Vermilion Parish,30.109,-92.125
03452,Grand Point,St. James Parish,30.061,-90.753
04412,Kentwood,Tangipahoa Parish,30.938,-90.509
01271,Cade,St. Martin Parish,30.087,-91.905
03252,Garyville,St. John the Baptist Parish,30.056,-90.619
04459,Kinder,Allen Parish,30.485,-92.851
00692,Benton,Bossier Parish,32.695,-93.742
02712,Elm Grove,Bossier Parish,32.348,-93.553
00185,Amelia,St. Mary Parish,29.666,-91.102
04635,Lakeshore,Ouachita Parish,32.535,-92.029
03240,Gardner,Rapides Parish,31.270,-92.693
08546,Tioga,Rapides Parish,31.387,-92.426
04920,Livingston,Livingston Parish,30.502,-90.748
03635,Haynesville,Claiborne Parish,32.962,-93.140
06548,Paulina,St. James Parish,30.026,-90.713
00433,Baldwin,St. Mary Parish,29.838,-91.544
09436,Woodworth,Rapides Parish,31.147,-92.497
04130,Independence,Tangipahoa Parish,30.635,-90.501
04317,Jonesville,Catahoula Parish,31.627,-91.818
09531,Zwolle,Sabine Parish,31.632,-93.644
03834,Henderson,St. Martin Parish,30.313,-91.790
06214,Oak Grove,West Carroll Parish,32.861,-91.388
08100,St. Francisville,West Feliciana Parish,30.780,-91.376
05310,Mathews,Lafourche Parish,29.686,-90.547
07975,Sorrento,Ascension Parish,30.184,-90.859
01472,Cecilia,St. Martin Parish,30.337,-91.853
01817,Colfax,Grant Parish,31.519,-92.707
01741,Clinton,East Feliciana Parish,30.866,-91.016
06246,Oberlin,Allen Parish,30.620,-92.763
07260,Ringgold,Bienville Parish,32.328,-93.280
04949,Logansport,De Soto Parish,31.975,-93.998
00712,Bernice,Union Parish,32.822,-92.658
00082,Albany,Livingston Parish,30.504,-90.582
00177,Ama,St. Charles Parish,29.952,-90.296
08963,Wallace,St. John the Baptist Parish,30.043,-90.667
04594,Lake,Ascension Parish,30.300,-90.853
04921,Livonia,Pointe Coupee Parish,30.559,-91.556
04934,Lockport Heights,Lafourche Parish,29.651,-90.546
06628,Perry,Vermilion Parish,29.949,-92.157
02517,Egan,Acadia Parish,30.237,-92.506
07841,Sibley,Webster Parish,32.539,-93.296
07902,Slaughter,East Feliciana Parish,30.717,-91.141
03446,Grand Isle,Jefferson Parish,29.237,-89.987
02732,Elton,Jefferson Davis Parish,30.481,-92.696
03617,Hackberry,Cameron Parish,29.996,-93.342
05528,Midway,LaSalle Parish,31.692,-92.152
05090,Lydia,Iberia Parish,29.919,-91.795
09034,Watson,Livingston Parish,30.576,-90.953
02751,Empire,Plaquemines Parish,29.388,-89.597
04641,Lakeview,Caddo Parish,32.523,-93.829
02497,Dupont,Pointe Coupee Parish,30.644,-91.479
06385,Oscar,Pointe Coupee Parish,30.615,-91.461
01689,Clarks,Caldwell Parish,32.027,-92.139
07398,Roseland,Tangipahoa Parish,30.765,-90.512
00975,Boyce,Rapides Parish,31.390,-92.669
06273,Oil City,Caddo Parish,32.744,-93.972
05136,Madisonville,St. Tammany Parish,30.404,-90.157
09380,Wisner,Franklin Parish,31.981,-91.656
08109,St. Joseph,Tensas Parish,31.918,-91.233
02044,Crescent,Iberville Parish,30.248,-91.287
03041,Folsom,St. Tammany Parish,30.630,-90.187
01645,Choctaw,Lafourche Parish,29.839,-90.691
05437,Melville,St. Landry Parish,30.693,-91.744
09014,Washington,St. Landry Parish,30.616,-92.057
08737,Union,St. James Parish,30.087,-90.905
03320,Gillis,Calcasieu Parish,30.374,-93.201
02120,Cullen,Webster Parish,32.969,-93.451
07640,Sarepta,Webster Parish,32.893,-93.449
03785,Hayes,Calcasieu Parish,30.109,-92.920
01510,Center Point,Avoyelles Parish,31.248,-92.210
09080,Welcome,St. James Parish,30.059,-90.868
03543,Greensburg,St. Helena Parish,30.831,-90.672
06509,Parks,St. Martin Parish,30.214,-91.832
05679,Montgomery,Grant Parish,31.667,-92.891
07396,Rosedale,Iberville Parish,30.441,-91.452
05248,Marion,Union Parish,32.902,-92.242
05177,Mangham,Richland Parish,32.309,-91.775
06795,Pleasant Hill,Sabine Parish,31.820,-93.514
03061,Forest Hill,Rapides Parish,31.042,-92.531
05749,Morse,Acadia Parish,30.122,-92.498
06761,Pitkin,Vernon Parish,30.936,-92.936
07876,Simpson,Vernon Parish,31.246,-93.015
01709,Clayton,Concordia Parish,31.723,-91.543
07237,Ridgecrest,Concordia Parish,31.603,-91.528
07225,Richmond,Madison Parish,32.388,-91.182
08042,Spokane,Concordia Parish,31.699,-91.460
08105,St. James,St. James Parish,29.982,-90.832
05279,Martin,Red River Parish,32.085,-93.220
05732,Morganza,Pointe Coupee Parish,30.739,-91.594
01519,Centerville,St. Mary Parish,29.760,-91.428
07296,Roanoke,Jefferson Davis Parish,30.237,-92.747
05902,Natchez,Natchitoches Parish,31.675,-93.045
03866,Hester,St. James Parish,30.028,-90.771
01577,Chatham,Jackson Parish,32.306,-92.450
08874,Vienna,Lincoln Parish,32.591,-92.648
01592,Cheneyville,Rapides Parish,31.015,-92.287
03499,Grayson,Caldwell Parish,32.050,-92.109
01003,Branch,Acadia Parish,30.349,-92.268
03307,Gilbert,Franklin Parish,32.049,-91.658
08067,Springfield,Livingston Parish,30.429,-90.549
04337,Junction City,Claiborne Parish,33.007,-92.722
04822,Lewisburg,St. Tammany Parish,30.370,-90.103
07974,Sorrel,St. Mary Parish,29.889,-91.617
02676,Elizabeth,Allen Parish,30.869,-92.793
08306,Sun,St. Tammany Parish,30.649,-89.893
08681,Turkey Creek,Evangeline Parish,30.877,-92.413
06844,Pollock,Grant Parish,31.526,-92.407
01901,Converse,Sabine Parish,31.782,-93.694
03964,Hodge,Jackson Parish,32.277,-92.723
01288,Calhoun,Ouachita Parish,32.513,-92.358
09334,Wilson,East Feliciana Parish,30.920,-91.116
02599,Echo,Rapides Parish,31.110,-92.242
04447,Kilbourne,West Carroll Parish,33.000,-91.315
05674,Monterey,Concordia Parish,31.450,-91.718
04306,Joyce,Winn Parish,31.939,-92.599
01680,Clarence,Natchitoches Parish,31.822,-93.030
04986,Longville,Beauregard Parish,30.605,-93.232
00664,Belmont,Sabine Parish,31.716,-93.509
02374,Dodson,Winn Parish,32.080,-92.660
03056,Forest,West Carroll Parish,32.792,-91.413
06189,Norwood,East Feliciana Parish,30.968,-91.104
03726,Harrisonburg,Catahoula Parish,31.772,-91.822
01835,Columbia,Caldwell Parish,32.105,-92.078
03279,Georgetown,Grant Parish,31.761,-92.385
01829,Collinston,Morehouse Parish,32.691,-91.872
07315,Rock Hill,Grant Parish,31.447,-92.571
08639,Triumph,Plaquemines Parish,29.339,-89.477
07526,Saint Maurice,Winn Parish,31.760,-92.959
07542,Saline,Bienville Parish,32.165,-92.974
05060,Lucky,Bienville Parish,32.255,-92.997
05523,Midland,Acadia Parish,30.181,-92.503
02043,Creola,Grant Parish,31.474,-92.505
00619,Belcher,Caddo Parish,32.749,-93.833
03351,Glencoe,St. Mary Parish,29.806,-91.668
01304,Calvin,Winn Parish,31.966,-92.776
01446,Castor,Bienville Parish,32.253,-93.166
00342,Athens,Claiborne Parish,32.650,-93.026
02950,Fenton,Jefferson Davis Parish,30.367,-92.918
08163,Starks,Calcasieu Parish,30.315,-93.662
02285,Delta,Madison Parish,32.326,-90.927
04114,Ida,Caddo Parish,33.004,-93.895
07155,Reeves,Allen Parish,30.521,-93.048
02841,Evergreen,Avoyelles Parish,30.953,-92.109
03817,Heflin,Webster Parish,32.456,-93.264
04515,Noble,Sabine Parish,31.690,-93.684
02609,Edgefield,Red River Parish,32.051,-93.333
05686,Montpelier,St. Helena Parish,30.681,-90.649
02984,Fisher,Sabine Parish,31.494,-93.466
05398,McNary,Rapides Parish,30.987,-92.576
00327,Ashland,Natchitoches Parish,32.142,-93.098
00935,Bonita,Morehouse Parish,32.919,-91.677
05698,Moonshine,St. James Parish,29.970,-90.813
01310,Cameron,Cameron Parish,29.798,-93.325
08839,Venice,Plaquemines Parish,29.277,-89.355
04889,Lisbon,Claiborne Parish,32.796,-92.865
07021,Quitman,Jackson Parish,32.349,-92.722
02408,Dorseyville,Iberville Parish,30.177,-91.161
05748,Morrow,St. Landry Parish,30.831,-92.085
00347,Atlanta,Winn Parish,31.805,-92.738
06753,Pioneer,West Carroll Parish,32.736,-91.433
07178,Rio,Washington Parish,30.693,-89.890
08147,Stanley,De Soto Parish,31.961,-93.898
02792,Eros,Jackson Parish,32.392,-92.424
08031,Spearsville,Union Parish,32.936,-92.605
06226,Oak Ridge,Morehouse Parish,32.624,-91.773
02429,Downsville,Lincoln Parish,32.626,-92.413
03318,Gilliam,Caddo Parish,32.827,-93.845
04983,Longstreet,De Soto Parish,32.098,-93.952
06973,Prospect,Grant Parish,31.450,-92.488
04848,Lillie,Union Parish,32.932,-92.657
07850,Sikes,Winn Parish,32.081,-92.487
08394,Taft,St. Charles Parish,29.991,-90.448
08645,Trout,LaSalle Parish,31.696,-92.179
06926,Powhatan,Natchitoches Parish,31.873,-93.201
06474,Palmetto,St. Landry Parish,30.717,-91.909
04247,Jamestown,Bienville Parish,32.344,-93.212
01050,Bryceland,Bienville Parish,32.451,-92.979
05792,Mount Lebanon,Bienville Parish,32.504,-93.049
03372,Gloster,De Soto Parish,32.191,-93.815
05768,Mound,Madison Parish,32.339,-91.024
00013,Abington,Red River Parish,32.112,-93.479
00025,Acme,Concordia Parish,31.286,-91.820
00051,Afton,Madison Parish,32.245,-91.191
00065,Aimwell,Catahoula Parish,31.784,-91.993
00071,Ajax,Natchitoches Parish,31.877,-93.390
00093,Alco,Vernon Parish,31.334,-93.131
00108,Alfalfa,Rapides Parish,31.370,-92.619
00117,Alhambra,Iberville Parish,30.177,-91.123
00125,Allen,Natchitoches Parish,31.836,-93.289
00143,Almedia,St. Charles Parish,29.974,-90.301
00151,Aloha,Grant Parish,31.583,-92.772
00156,Alsen,East Baton Rouge Parish,30.571,-91.204
00164,Alto,Richland Parish,32.358,-91.860
00165,Alton,St. Tammany Parish,30.331,-89.762
00209,Andrew,Vermilion Parish,30.085,-92.243
00226,Ansley,Jackson Parish,32.396,-92.693
00232,Antioch,Claiborne Parish,32.865,-92.925
00232,Antioch,Jackson Parish,32.317,-92.689
00232,Antioch,Lincoln Parish,32.586,-92.739
00261,Arkana,Bossier Parish,33.018,-93.675
00264,Arcola,Tangipahoa Parish,30.777,-90.510
00277,Arizona,Claiborne Parish,32.789,-92.958
00290,Armistead,Red River Parish,32.005,-93.380
00327,Ashland,Concordia Parish,31.286,-91.731
00327,Ashland,Terrebonne Parish,29.530,-90.674
00345,Atkins,Bossier Parish,32.310,-93.515
00376,Eva,Concordia Parish,31.429,-91.787
00403,Batchelor,Pointe Coupee Parish,30.841,-91.661
00445,Balmoral,Tensas Parish,32.115,-91.224
00450,Bancroft,Beauregard Parish,30.565,-93.686
00463,Baptist,Tangipahoa Parish,30.505,-90.533
00551,Baywood,East Baton Rouge Parish,30.691,-90.883
00616,Bel,Allen Parish,30.520,-93.085
00633,Bell City,Calcasieu Parish,30.109,-92.920
00642,Belle River,Assumption Parish,29.888,-91.206
00649,Bellevue,Bossier Parish,32.673,-93.522
00649,Bellevue,Calcasieu Parish,30.192,-93.084
00649,Bellevue,Caldwell Parish,32.113,-92.049
00662,Bellwood,Natchitoches Parish,31.527,-93.206
00688,Benson,DeSoto Parish,31.866,-93.694
00690,Bentley,Grant Parish,31.516,-92.488
00705,Bermuda,Natchitoches Parish,31.663,-93.004
00709,Bernard,Allen Parish,30.597,-92.779
00728,Bethany,Caddo Parish,32.373,-94.043
00731,Bethlehem,Winn Parish,32.006,-92.774
00747,Big Bend,Avoyelles Parish,31.074,-91.792
00806,Black Hawk,Concordia Parish,31.155,-91.636
00832,Blairstown,East Feliciana Parish,30.753,-90.963
00898,Bluff Creek,East Feliciana Parish,30.747,-90.857
00915,Bohemia,Plaquemines Parish,29.544,-89.756
00924,Bolivar,Tangipahoa Parish,30.869,-90.395
00952,Boston,Vermilion Parish,29.883,-92.056
01121,Brown,Bienville Parish,32.178,-93.051
01173,Buckner,Richland Parish,32.301,-91.939
01231,Burnside,Ascension Parish,30.133,-90.917
01243,Bush,St. Tammany Parish,30.609,-89.900
01275,Caernarvon,St. Bernard Parish,29.864,-89.906
01364,Capitan,Lafayette Parish,30.066,-91.983
01381,Carlisle,Plaquemines Parish,29.687,-89.962
01395,Carpenter's Station,Richland Parish,32.463,-91.568
01519,Centerville,Evangeline Parish,30.893,-92.310
01575,Chase,Franklin Parish,32.097,-91.699
01613,Chestnut,Natchitoches Parish,32.057,-93.016
01637,Chipola,St. Helena Parish,30.922,-90.803
01738,Clifton,Rapides Parish,31.305,-92.871
01745,Clio,Livingston Parish,30.310,-90.610
01844,Colt,St. Tammany Parish,30.302,-89.833
01890,Conn,Caddo Parish,32.591,-93.772
01918,Coopers,Vernon Parish,31.234,-91.960
01925,Copenhagen,Caldwell Parish,32.024,-92.039
01933,Corbin,Livingston Parish,30.496,-90.849
01942,Corinth,Lincoln Parish,32.730,-92.788
02053,Creston,Natchitoches Parish,31.976,-93.050
02059,Crichton,Red River Parish,32.125,-93.434
02098,Crown Point,Jefferson Parish,29.772,-90.085
02100,Crowville,Franklin Parish,32.241,-91.590
02130,Cumnock,Washington Parish,30.952,-90.180
02164,Derry,Natchitoches Parish,31.534,-92.948
02204,Darlington,St. Helena Parish,30.878,-90.781
02253,Deer Park,Concordia Parish,31.418,-91.581
02261,Dehlco,Richland Parish,32.397,-91.769
02297,Denson,Livingston Parish,30.265,-90.634
02326,Diamond,Plaquemines Parish,29.536,-89.762
02361,Dixie,Caddo Parish,32.693,-93.835
02431,Doyle,Livingston Parish,30.504,-90.739
02451,Dry Creek,Beauregard Parish,30.669,-93.045
02493,Dunn,Richland Parish,32.464,-91.578
02508,Dutchtown,Ascension Parish,30.254,-90.989
02514,Dykesville,Claiborne Parish,32.916,-93.234
02563,East Point,Red River Parish,32.166,-93.431
02634,Effie,Avoyelles Parish,31.216,-92.156
02718,Elmer,Rapides Parish,31.133,-92.681
02748,Emma,Iberia Parish,29.939,-91.886
02773,Enon,Washington Parish,30.727,-90.084
02777,Enterprise,Catahoula Parish,31.903,-91.883
02809,Esther,Vermilion Parish,29.844,-92.175
02815,Ethel,East Feliciana Parish,30.791,-91.131
02831,Evangeline,Acadia Parish,30.262,-92.571
02832,Evans,Vernon Parish,30.989,-93.502
02863,Fairbanks,Ouachita Parish,32.644,-92.036
02882,Fairview,Concordia Parish,31.325,-91.532
02966,Fields,Beauregard Parish,30.526,-93.575
02972,Fillmore,Bossier Parish,32.563,-93.515
03003,Flanders,Lafayette Parish,30.099,-92.032
03013,Flatwoods,Rapides Parish,31.403,-92.868
03025,Flora,Natchitoches Parish,31.613,-93.098
03027,Florence,St. Mary Parish,29.788,-91.724
03113,Four Forks,Richland Parish,32.320,-91.869
03144,Fred,East Baton Rouge Parish,30.649,-91.105
03176,Frisco,Pointe Coupee Parish,30.586,-91.526
03179,Frogmore,Concordia Parish,31.603,-91.670
03179,Frogmore,Pointe Coupee Parish,30.519,-91.524
03183,Frost,Livingston Parish,30.404,-90.739
03190,Fryeburg,Bienville Parish,32.413,-93.234
03194,Fullerton,Vernon Parish,30.993,-92.982
03233,Garden City,St. Mary Parish,29.766,-91.466
03280,Georgeville,Livingston Parish,30.650,-90.622
03302,Gibson,Terrebonne Parish,29.687,-90.991
03328,Girard,Richland Parish,32.482,-91.806
03417,Gorum,Natchitoches Parish,31.433,-92.944
03446,Grand Isle,Plaquemines Parish,29.274,-89.243
03448,Grand Lake,Cameron Parish,30.016,-93.189
03453,Grand Prairie,St. Landry Parish,30.683,-92.147
03470,Grangeville,St. Helena Parish,30.742,-90.834
03475,Grant,Allen Parish,30.789,-92.949
03576,Grosse Isle,Vermilion Parish,29.965,-92.091
03604,Gurley,East Feliciana Parish,30.869,-91.134
03613,Gypsy,St. Charles Parish,30.032,-90.468
03655,Hamburg,Avoyelles Parish,31.031,-91.931
03670,Hanna,Red River Parish,31.961,-93.348
03684,Happy Jack,Plaquemines Parish,29.522,-89.734
03700,Hargis,Grant Parish,31.684,-92.830
03706,Harmon,Red River Parish,32.066,-93.431
03762,Hathaway,Jefferson Davis Parish,30.350,-92.672
03822,Helena,Tensas Parish,31.871,-91.393
03842,Henry,Vermilion Parish,29.883,-92.079
03874,Hickory,St. Tammany Parish,30.416,-89.785
03883,Hicks,Vernon Parish,31.185,-93.016
03932,Hillsdale,St. Helena Parish,30.745,-90.621
03958,Hobart,Ascension Parish,30.323,-90.939
03971,Holden,Livingston Parish,30.504,-90.669
03985,Holly Ridge,Richland Parish,32.468,-91.627
03991,Holmwood,Calcasieu Parish,30.126,-93.080
03994,Holton,Tangipahoa Parish,30.744,-90.364
04020,Hopedale,St. Bernard Parish,29.821,-89.657
04201,Ironton,Plaquemines Parish,29.649,-89.961
04207,Isabel,Washington Parish,30.675,-89.999
04311,Jones,Morehouse Parish,32.968,-91.648
04315,Jonesburg,Richland Parish,32.525,-91.757
04367,Kedron,St. Helena Parish,30.757,-90.577
04376,Kelly,Caldwell Parish,31.981,-92.177
04474,Kingston,DeSoto Parish,32.184,-93.711
04492,Kirkville,Tangipahoa Parish,30.996,-90.478
04590,Lottie,Pointe Coupee Parish,30.556,-91.642
04630,Lakeland,Pointe Coupee Parish,30.601,-91.397
04687,Larabee,Lafayette Parish,30.246,-91.989
04749,Leander,Vernon Parish,31.149,-92.847
04750,Lena,Rapides Parish,31.461,-92.771
04770,Lees Creek,Washington Parish,30.738,-89.877
04804,Leroy,Vermilion Parish,30.079,-92.192
04823,Lewiston,Tangipahoa Parish,30.941,-90.422
04831,Liberty,Red River Parish,32.073,-93.198
04904,Little Prairie,Ascension Parish,30.324,-90.922
04919,Liverpool,St. Helena Parish,30.915,-90.680
04923,Loyd,Rapides Parish,31.045,-92.358
04998,Lorraine,Tangipahoa Parish,30.506,-90.278
05063,Lucy,St. John the Baptist Parish,30.047,-90.507
05115,Mack,Vermilion Parish,29.965,-92.074
05144,Magnolia,Livingston Parish,30.560,-90.706
05234,Marchand,Ascension Parish,30.149,-90.994
05319,Maude,St. Tammany Parish,30.373,-89.813
05368,McCrea,Pointe Coupee Parish,30.869,-91.789
05418,Meaux,Vermilion Parish,30.021,-92.183
05443,Melrose,Natchitoches Parish,31.599,-92.967
05528,Midway,Bossier Parish,32.715,-93.594
05528,Midway,Rapides Parish,31.061,-92.472
05528,Midway,St. Mary Parish,29.655,-91.491
05528,Midway,Webster Parish,32.922,-93.454
05612,Mira,Caddo Parish,32.942,-93.889
05715,Mora,Natchitoches Parish,31.373,-92.948
05763,Mossville,Calcasieu Parish,30.248,-93.309
05774,Mount Airy,St. John the Baptist Parish,30.051,-90.638
05786,Mount Hermon,Washington Parish,30.960,-90.296
05813,Mount Zion,Red River Parish,31.724,-92.860
05980,New Era,Concordia Parish,31.367,-91.827
06005,New Light,Richland Parish,32.261,-91.784
06197,Nunez,Vermilion Parish,29.991,-92.229
06214,Oak Grove,Grant Parish,31.520,-92.543
06214,Oak Grove,Lincoln Parish,32.496,-92.866
06296,Oldfield,Livingston Parish,30.625,-90.844
06386,Osceola,Tangipahoa Parish,30.651,-90.311
06401,Otis,Rapides Parish,31.216,-92.728
06589,Pelican,DeSoto Parish,31.883,-93.586
06672,Phoenix,Plaquemines Parish,29.646,-89.940
06688,Piermont,Red River Parish,31.952,-93.282
06711,Pine,Washington Parish,30.908,-90.014
06718,Pine Grove,Bienville Parish,32.211,-93.051
06718,Pine Grove,Ouachita Parish,32.454,-92.051
06718,Pine Grove,St. Helena Parish,30.710,-90.754
06778,Plainview,Washington Parish,30.752,-89.969
06795,Pleasant Hill,Bienville Parish,32.480,-93.077
06795,Pleasant Hill,Jackson Parish,32.207,-92.434
06795,Pleasant Hill,Lincoln Parish,32.483,-92.734
06795,Pleasant Hill,Natchitoches Parish,31.927,-93.377
06879,Port Hudson,East Baton Rouge Parish,30.678,-91.269
06962,Pride,East Baton Rouge Parish,30.694,-90.978
06965,Princeton,Bossier Parish,32.589,-93.515
06987,Pumpkin Center,Tangipahoa Parish,30.455,-90.542
07141,Redoak,Red River Parish,31.946,-93.272
07188,Retreat,West Feliciana Parish,30.972,-91.485
07199,Rhinehart,Catahoula Parish,31.638,-92.007
07208,Riceville,Vermilion Parish,30.076,-92.514
07235,Ridge,Lafayette Parish,30.238,-92.092
07280,River Ranch,Lafayette Parish,30.173,-92.043
07348,Rocky Mount,Bossier Parish,32.815,-93.629
07385,Rosaryville,Tangipahoa Parish,30.423,-90.519
07390,Rose Hill,Vermilion Parish,29.917,-92.128
07441,Roy,Bienville Parish,32.224,-93.152
07447,Ruby,Rapides Parish,31.189,-92.249
07483,Ruth,St. Martin Parish,30.238,-91.882
07511,Saint Benedict,St. Tammany Parish,30.527,-90.112
07512,Saint Bernard,St. Bernard Parish,29.867,-89.859
07643,Satsuma,Livingston Parish,30.503,-90.800
07770,Sharkey,Tangipahoa Parish,30.370,-90.421
07782,Shaw,Concordia Parish,31.192,-91.631
07897,Slagle,Vernon Parish,31.203,-93.127
08029,Sparta,Bienville Parish,32.367,-93.080
08038,Spillman,West Feliciana Parish,30.930,-91.284
08061,Spring Ridge,Caddo Parish,32.312,-93.944
08073,Springville,Livingston Parish,30.436,-90.683
08141,Standard,LaSalle Parish,31.918,-92.220
08141,Standard,Vernon Parish,31.156,-93.361
08226,Stoney Point,Washington Parish,30.818,-90.279
08287,Sugartown,Beauregard Parish,30.840,-93.015
08295,Summerfield,Claiborne Parish,32.913,-92.829
08429,Taylor,Bienville Parish,32.546,-93.119
08434,Taylortown,Bossier Parish,32.387,-93.596
08491,Theriot,Lafourche Parish,29.751,-90.632
08491,Theriot,Terrebonne Parish,29.461,-90.751
08517,Three States,Caddo Parish,33.019,-94.043
08530,Tigerville,St. John the Baptist Parish,30.043,-90.543
08540,Timon,Natchitoches Parish,31.890,-93.239
08672,Tunica,West Feliciana Parish,30.929,-91.555
08808,Van Buren,Livingston Parish,30.436,-90.672
08837,Velma,Tangipahoa Parish,30.324,-90.407
08846,Verda,Grant Parish,31.700,-92.773
08850,Verdun,Livingston Parish,30.436,-90.672
08859,Versailles,St. Bernard Parish,29.948,-89.961
08867,Vick,Avoyelles Parish,31.230,-92.106
08870,Victoria,Natchitoches Parish,31.664,-93.226
08924,Wadesboro,Tangipahoa Parish,30.423,-90.504
08941,Wakefield,West Feliciana Parish,30.889,-91.350
08955,Walker,Jackson Parish,32.190,-92.584
08968,Walls,West Baton Rouge Parish,30.587,-91.326
08996,Warden,Richland Parish,32.538,-91.497
09046,Waverly,Madison Parish,32.446,-91.411
09080,Welcome,St. John the Baptist Parish,30.060,-90.591
09174,Westlake,Natchitoches Parish,31.758,-93.150
09180,Weston,Jackson Parish,32.244,-92.614
09193,Weyanoke,West Feliciana Parish,30.947,-91.461
09203,Wheeling,Winn Parish,31.746,-92.839
09245,Whitehall,LaSalle Parish,31.624,-92.042
09245,Whitehall,Livingston Parish,30.289,-90.700
09257,Whiteville,St. Landry Parish,30.788,-92.147
09328,Wilmer,Tangipahoa Parish,30.814,-90.362
09397,Wood Lake,St. Bernard Parish,29.808,-89.764
09417,Woodlawn,Vermilion Parish,30.062,-92.077
09452,Wright,Vermilion Parish,30.008,-92.429
09486,Yellow Pine,Webster Parish,32.477,-93.324
09529,Zona,Washington Parish,30.748,-90.081