phoneme,name,latitude,longitude
06319,Omaha,41.259,-95.938
04861,Lincoln,40.800,-96.667
00649,Bellevue,41.137,-95.891
03445,Grand Island,40.925,-98.342
04363,Kearney,40.699,-99.081
03159,Fremont,41.433,-96.498
03757,Hastings,40.586,-98.388
06114,Norfolk,42.028,-97.417
00578,Beatrice,40.268,-96.747
01536,Chalco,41.184,-96.150
04826,Lexington,40.781,-99.742
09494,York,40.868,-97.592
00136,Alliance,42.102,-102.872
00831,Blair,41.544,-96.125
07751,Seward,40.907,-97.099
05363,McCook,40.202,-100.626
02057,Crete,40.628,-96.961
07674,Schuyler,41.447,-97.059
07054,Ralston,41.205,-96.043
07844,Sidney,41.143,-102.978
09050,Wayne,42.231,-97.018
03562,Gretna,41.141,-96.240
08934,Wahoo,41.211,-96.620
00371,Aurora,40.867,-98.004
09046,Waverly,40.917,-96.528
02898,Falls City,40.061,-95.602
02865,Fairbury,40.137,-97.181
06207,O'Neill,42.458,-98.648
00360,Auburn,40.393,-95.839
09150,West Point,41.842,-96.709
03423,Gothenburg,40.929,-100.161
00327,Ashland,41.032,-96.398
01849,Columbus,41.455,-97.308
05587,Minden,40.499,-98.948
08789,Valley,41.313,-96.346
01521,Central City,41.116,-98.002
03873,Hickman,40.620,-96.629
08783,Valentine,42.873,-100.551
08124,St. Paul,41.215,-98.458
04452,Kimball,41.236,-103.663
05132,Madison,41.828,-97.455
06785,Platte,41.450,-96.570
03272,Geneva,40.527,-97.596
05540,Milford,40.774,-97.051
02168,Dakota City,42.416,-96.418
04128,Imperial,40.517,-101.643
00686,Bennington,41.365,-96.158
08737,Union,41.256,-96.415
09281,Wilber,40.481,-96.961
08385,Syracuse,40.657,-96.186
03299,Gibbon,40.748,-98.845
06686,Pierce,42.199,-97.527
09415,Woodland Park,42.054,-97.345
08334,Superior,40.021,-98.070
04861,Lincoln,40.481,-98.895
00346,Atkinson,42.587,-98.981
08441,Tecumseh,40.367,-96.196
00089,Albion,41.691,-98.004
03785,Hayes,40.481,-99.009
00066,Ainsworth,42.550,-99.863
05623,Mitchell,41.940,-103.809
08941,Wakefield,42.267,-96.863
05927,Neligh,42.129,-98.030
08067,Springfield,41.082,-96.134
03413,Gordon,42.805,-102.203
08151,Stanton,41.950,-97.224
01059,Bridgeport,41.665,-103.099
07082,Ravenna,41.026,-98.913
08348,Sutton,40.606,-97.859
03814,Hebron,40.166,-97.586
09510,Yutan,41.245,-96.397
08941,Wakefield,42.314,-96.850
06234,Oakland,41.836,-96.467
07222,Richland,41.092,-96.622
05030,Louisville,40.998,-96.162
00285,Arlington,41.453,-96.351
08344,Sutherland,41.157,-101.126
06778,Plainview,42.350,-97.792
03194,Fullerton,41.363,-97.969
06131,North Bend,41.462,-96.780
01712,Clear Creek,41.095,-96.398
00814,Blackbird,42.141,-96.352
03475,Grant,40.842,-101.725
00526,Battle Creek,41.999,-97.598
09398,Wood River,40.821,-98.600
02518,Eagle,40.817,-96.430
00538,Bayard,41.755,-103.324
03834,Henderson,40.780,-97.812
01308,Cambridge,40.282,-100.166
08464,Terrytown,41.847,-103.662
07800,Shelton,40.778,-98.729
06319,Omaha,42.147,-96.479
00142,Alma,40.098,-99.362
00862,Bloomfield,42.599,-97.646
08531,Tilden,42.043,-97.832
02711,Elm Creek,40.719,-99.372
00254,Arapahoe,40.304,-99.900
04714,Laurel,42.429,-97.090
00030,Adams,40.487,-96.511
02840,Everett,41.963,-96.500
06211,Oak Creek,41.098,-96.859
03481,Granville,41.693,-97.533
03750,Harvard,40.619,-98.097
05245,Marietta,41.255,-96.516
01529,Ceresco,41.057,-96.645
03133,Franklin,40.096,-98.953
05742,Morrill,41.963,-103.926
03899,Highland,40.473,-96.733
09026,Waterloo,41.287,-96.286
05126,Macy,42.113,-96.356
03169,Friend,40.654,-97.286
09355,Winnebago,42.236,-96.473
03273,Genoa,41.449,-97.731
06852,Ponca,42.563,-96.706
05614,Mirage,40.481,-99.123
07066,Randolph,42.378,-97.358
06386,Osceola,41.180,-97.548
01558,Chappell,41.093,-102.471
04016,Hooper,41.611,-96.548
04086,Humphrey,41.692,-97.484
03492,Grattan,42.441,-98.664
00883,Blue Hill,40.333,-98.449
08773,Utica,40.896,-97.345
02745,Emerson,42.278,-96.726
02031,Crawford,42.683,-103.413
01279,Cairo,41.001,-98.608
07472,Rushville,42.718,-102.464
00562,Beemer,41.954,-96.847
05100,Lyons,41.937,-96.477
00682,Benkelman,40.049,-101.533
02141,Curtis,40.630,-100.516
02392,Doniphan,40.772,-98.370
06392,Osmond,42.360,-97.597
08194,Stuart,42.588,-99.158
06389,Oshkosh,41.405,-102.344
04084,Humboldt,40.164,-95.945
02068,Crofton,42.729,-97.496
00297,Arnold,41.470,-100.168
01506,Center,41.267,-96.620
03919,Hill,42.767,-97.813
00390,Axtell,40.478,-99.127
04861,Lincoln,42.482,-97.544
04339,Juniata,40.590,-98.506
04997,Loup,41.227,-98.220
00107,Alexis,41.358,-97.304
02309,Deshler,40.141,-97.723
01705,Clay Center,40.522,-98.055
05930,Nemaha,40.485,-96.628
06437,Oxford,40.253,-99.632
01097,Broken Bow,41.434,-99.641
02671,Elgin,41.983,-98.084
07791,Shelby,41.192,-97.425
00722,Bertrand,40.527,-99.634
02275,Delight,41.253,-99.968
06082,Nickerson,41.517,-96.510
02724,Elmwood,40.842,-96.294
02982,Firth,40.532,-96.606
00450,Bancroft,42.058,-96.618
05132,Madison,40.568,-97.539
03862,Hershey,41.159,-101.003
08151,Stanton,40.487,-97.657
01697,Clarksville,41.252,-97.857
06638,Peru,40.474,-95.734
02735,Elwood,40.590,-99.861
04969,Lone Tree,41.115,-98.032
05406,Mead,41.228,-96.488
01695,Clarkson,41.727,-97.122
00830,Blaine,40.592,-99.132
01476,Cedar Bluffs,41.397,-96.611
07641,Sargent,41.673,-99.370
01248,Butler,41.386,-97.516
00226,Ansley,41.282,-99.397
03552,Greenwood,40.963,-96.441
02876,Fairmont,40.637,-97.585
02371,Dodge,41.721,-96.883
08806,Valparaiso,41.081,-96.832
06424,Overton,40.739,-99.538
02402,Dorchester,40.647,-97.113
07811,Sherman,41.779,-96.696
08035,Spencer,42.904,-98.720
01297,Callaway,41.292,-99.923
06475,Palmyra,40.704,-96.388
07650,Savannah,41.346,-97.197
00516,Bassett,42.586,-99.538
01814,Coleridge,42.506,-97.204
09042,Wauneta,40.418,-101.371
07862,Silver Creek,41.333,-97.666
02119,Culbertson,40.230,-100.838
03367,Glenwood,40.755,-99.081
00586,Beaver City,40.138,-99.830
04152,Indianola,40.234,-100.417
04000,Homer,42.322,-96.489
01562,Chapman,41.183,-96.735
02852,Exeter,40.644,-97.450
02870,Fairfield,40.401,-98.099
05843,Mullen,42.043,-101.043
02232,De Witt,40.394,-96.923
06555,Paxton,41.124,-101.356
06211,Oak Creek,41.183,-96.957
07102,Reading,41.178,-97.309
01962,Cortland,40.506,-96.706
05016,Lost Creek,41.520,-97.549
08091,St. Bernard,41.693,-97.650
02607,Edgar,40.388,-97.985
08624,Trenton,40.176,-101.013
05856,Murray,40.915,-95.930
01562,Chapman,41.030,-98.155
08187,Sterling,40.459,-96.378
02745,Emerson,42.330,-96.755
05160,Malcolm,40.907,-96.863
07536,Salem,40.307,-99.010
01479,Cedar Creek,41.037,-96.099
05224,Marble,41.171,-96.395
05928,Nelson,40.202,-98.068
03993,Holt,40.390,-96.743
06327,Oneida,40.394,-99.122
06472,Palmer,41.222,-98.257
07215,Richardson,41.089,-96.966
06051,Newcastle,42.670,-96.852
04948,Logan,41.705,-96.497
00793,Bismark,41.526,-97.304
03669,Hampton,40.879,-97.886
04763,Leigh,41.705,-97.238
01544,Chambers,42.219,-98.768
07630,Santee,42.841,-97.851
02846,Ewing,42.230,-98.365
06580,Pebble,41.692,-96.723
08023,Spalding,41.689,-98.363
00662,Bellwood,41.343,-97.238
02239,Decatur,42.007,-96.250
08299,Summit,41.756,-96.292
00760,Big Springs,41.061,-102.074
02829,Eustis,40.663,-100.030
04994,Loomis,40.478,-99.507
03363,Glenvil,40.481,-98.222
02481,Duncan,41.389,-97.495
05253,Mariposa,41.271,-96.731
01609,Chester,41.346,-96.842
00260,Arcadia,41.438,-99.154
07287,Riverside,40.215,-96.756
00996,Brady,41.022,-100.368
01490,Cedar Rapids,41.560,-98.145
01251,Butte,42.908,-98.831
03915,Hildreth,40.337,-99.044
04396,Kennard,41.473,-96.203
04641,Lakeview,41.500,-97.377
04165,Inglewood,41.416,-96.501
06810,Pleasanton,40.968,-99.086
02053,Creston,41.692,-97.301
06347,Orchard,42.336,-98.243
05523,Midland,40.328,-96.713
06824,Plymouth,40.303,-96.989
08984,Walton,40.799,-96.562
00125,Allen,42.416,-96.845
05471,Merna,41.484,-99.760
06364,Orleans,40.129,-99.455
06910,Potter,41.217,-103.316
01689,Clarks,41.215,-97.836
06839,Polk,41.077,-97.784
00998,Brainard,41.184,-97.004
03358,Glengary,40.486,-97.435
02691,Elkhorn,41.428,-96.403
06447,Paddock,40.045,-96.752
06642,Petersburg,41.853,-98.079
03453,Grand Prairie,41.605,-97.417
09284,Wilcox,40.365,-99.170
06934,Prairie Creek,41.107,-98.212
01145,Brule,41.094,-101.888
08870,Victoria,41.636,-99.790
01904,Cook,40.510,-96.164
01869,Concord,42.391,-96.956
06665,Phillips,40.897,-98.215
09398,Wood River,41.134,-99.796
01721,Clearwater,42.170,-98.188
06139,North Franklin,40.304,-98.772
05206,Maple,41.521,-96.626
08730,Ulysses,41.093,-97.188
04945,Lodgepole,41.150,-102.636
08963,Wallace,40.838,-101.165
02211,Davenport,40.313,-97.812
04297,Johnson,40.411,-95.998
08848,Verdigris,42.389,-98.387
04778,Leicester,40.661,-98.212
08112,St. Libory,41.082,-98.355
08249,Stratton,40.148,-101.227
00834,Blakely,40.300,-96.851
02219,Dawes,42.054,-96.472
08734,Unadilla,40.683,-96.270
07685,Scotia,41.466,-98.703
02680,Elk,41.261,-96.844
06930,Prague,41.310,-96.808
06465,Palisade,40.348,-101.107
08921,Waco,40.897,-97.463
02971,Filley,40.298,-96.529
02175,Dalton,41.407,-102.974
05658,Monroe,41.474,-97.599
09475,Yankee Hill,40.764,-96.731
04876,Lindsay,41.700,-97.694
07312,Rock Creek,41.086,-96.737
00892,Blue Springs,40.139,-96.659
00995,Bradshaw,40.884,-97.747
03642,Hallam,40.538,-96.787
05853,Murdock,40.926,-96.280
06229,Oakdale,42.070,-97.969
01317,Campbell,40.298,-98.732
04731,Lawrence,40.292,-98.260
05344,Maywood,40.658,-100.622
04043,Hoskins,42.112,-97.306
06062,Newman,41.183,-96.840
00499,Bartley,40.249,-100.312
03033,Flournoy,42.201,-96.716
03506,Green,41.090,-96.518
07398,Roseland,40.470,-98.559
01238,Burrows,41.618,-97.533
08154,Stapleton,41.480,-100.513
05093,Lyman,41.917,-104.039
05327,Maxwell,41.079,-100.525
06260,Odell,40.050,-96.803
02576,Eastern,42.743,-97.546
07284,Riverdale,40.784,-99.162
09180,Weston,41.194,-96.743
03853,Herman,41.673,-96.215
08302,Sumner,40.950,-99.505
07940,Snyder,41.704,-96.789
04948,Logan,40.299,-96.628
04948,Logan,41.975,-96.398
02691,Elkhorn,41.866,-96.836
03209,Galena,42.481,-96.837
05569,Milligan,40.500,-97.388
08737,Union,41.505,-96.838
03724,Harrison,42.687,-103.883
08389,Table Rock,40.178,-96.097
05138,Madrid,40.850,-101.543
05264,Marquette,41.003,-98.010
04860,Lynch,42.798,-98.503
06482,Panama,40.598,-96.511
09413,Woodland Hills,40.751,-96.421
02512,Dwight,41.084,-97.020
00634,Bell Creek,41.878,-96.399
06628,Perry,42.246,-96.722
03561,Gresham,41.028,-97.402
07811,Sherman,41.613,-97.308
06423,Overland,41.078,-97.986
03437,Grafton,40.661,-97.773
01609,Chester,40.010,-97.618
04891,Litchfield,41.158,-99.156
09166,Western,40.394,-97.198
03680,Hanover,40.393,-96.629
00513,Basin,42.935,-99.153
06306,Olive,41.272,-97.187
02415,Douglas,41.347,-96.733
03133,Franklin,41.265,-97.086
06792,Pleasant Dale,40.792,-96.932
08487,Thedford,41.978,-100.576
08737,Union,41.173,-97.199
02126,Cuming,41.698,-96.606
03242,Garland,40.945,-96.986
04861,Lincoln,40.212,-96.851
00677,Benedict,41.006,-97.606
03969,Holbrook,40.305,-100.010
04948,Logan,40.568,-99.009
04232,Jackson,42.449,-96.565
07811,Sherman,40.222,-96.515
08955,Walker,41.674,-97.768
02041,Creighton,42.489,-97.888
08404,Talmage,40.531,-96.022
00190,Amherst,40.769,-99.270
00229,Antelope,40.307,-98.896
04861,Lincoln,41.789,-96.959
02019,Craig,41.786,-96.364
02654,Elba,41.286,-98.568
08737,Union,40.813,-95.923
08658,Trumbull,40.680,-98.273
02590,Eaton,40.568,-98.781
00330,Ashton,41.248,-98.794
04948,Logan,42.309,-96.958
08299,Summit,41.259,-97.322
01400,Carroll,42.276,-97.189
05523,Midland,41.177,-98.117
02126,Cuming,41.781,-96.616
01506,Center,41.170,-97.072
02360,Dix,41.235,-103.486
05674,Monterey,41.783,-96.843
03133,Franklin,40.389,-97.426
03241,Garfield,41.865,-96.604
03992,Holstein,40.465,-98.652
02299,Denton,40.738,-96.844
03604,Gurley,41.322,-102.971
04997,Loup,41.413,-97.590
04014,Hooker,42.683,-96.965
07090,Raymond,42.783,-98.183
07842,Sicily,40.128,-96.737
00385,Avoca,40.796,-96.118
03367,Glenwood,40.043,-96.870
08092,St. Charles,41.810,-96.757
04055,Howard City,41.075,-98.715
07099,Read,41.090,-97.313
02923,Farnam,40.706,-100.215
05406,Mead,41.243,-98.019
05927,Neligh,41.957,-96.607
03475,Grant,40.384,-96.852
01732,Cleveland,42.040,-96.720
03196,Funk,40.463,-99.249
05187,Manley,40.920,-96.166
02415,Douglas,40.596,-96.388
06820,Plum Creek,41.094,-97.078
00603,Bee,41.006,-97.057
01759,Cody,42.936,-101.245
06452,Page,42.401,-98.417
07809,Sheridan,42.444,-98.961
02479,Dunbar,40.668,-96.030
06785,Platte,41.417,-96.952
04014,Hooker,40.385,-96.515
04067,Hubbard,42.387,-96.589
05750,Morton,42.568,-97.662
08140,Stamford,40.133,-99.593
08849,Verdon,40.148,-95.713
04221,Ithaca,41.163,-96.540
04948,Logan,41.953,-96.724
07672,Shubert,40.236,-95.682
07090,Raymond,40.957,-96.783
07382,Rosalie,42.056,-96.513
08838,Venango,40.764,-102.041
04831,Liberty,40.561,-98.885
01149,Brunswick,42.338,-97.971
05556,Miller,42.474,-98.004
05325,Max,40.114,-101.403
00915,Bohemia,41.410,-96.845
05297,Mason City,41.223,-99.300
08181,Stella,40.233,-95.773
00793,Bismark,41.874,-96.961
02221,Dawson,40.131,-95.831
08789,Valley,42.568,-97.896
01591,Cheney,40.726,-96.596
00106,Alexandria,40.245,-97.389
01138,Brownville,40.398,-95.658
06257,Oconto,41.141,-99.763
08429,Taylor,41.770,-99.379
02710,Elm,40.139,-96.850
06619,Peoria,42.656,-97.662
08681,Turkey Creek,40.043,-99.117
02932,Farwell,41.216,-98.628
08044,Sprague,40.626,-96.745
09380,Wisner,41.957,-96.973
00830,Blaine,42.040,-96.966
03053,Fordyce,42.699,-97.362
09014,Washington,41.398,-96.208
05556,Miller,40.928,-99.393
00307,Arthur,41.572,-101.692
02682,Elk Creek,41.108,-99.325
02212,Davey,40.987,-96.666
04847,Lillian,41.613,-99.538
08764,Upland,40.319,-98.901
03842,Henry,41.999,-104.047
04308,Joliet,41.618,-97.649
02384,Dolphin,42.656,-97.545
00036,Addison,42.743,-97.662
01734,Cliff,41.488,-99.972
07869,Silvercreek,42.567,-96.835
05277,Martell,40.638,-96.759
02458,Du Bois,40.035,-96.048
04820,Lewis,40.565,-97.987
05139,May,40.481,-98.781
00206,Anderson,42.071,-96.332
01092,Brock,40.480,-95.959
01686,Clark,42.489,-96.962
09433,Woodville,41.575,-97.765
01835,Columbia,42.482,-97.662
06934,Prairie Creek,41.359,-97.763
07862,Silver Creek,41.867,-96.282
08522,Thurston,42.177,-96.701
09050,Wayne,41.112,-100.152
01246,Bushnell,41.232,-103.892
05248,Marion,40.177,-98.896
05930,Nemaha,40.338,-95.673
07386,Roscoe,41.131,-101.586
00641,Belle Prairie,40.394,-97.539
01732,Cleveland,42.474,-97.789
01837,Colon,41.297,-96.606
00869,Bloomington,40.094,-99.037
02621,Edison,40.277,-99.777
02760,Endicott,40.083,-97.098
03475,Grant,42.054,-96.854
08559,Tobias,40.418,-97.336
00620,Belden,42.413,-97.207
05005,Loretto,41.765,-98.081
05446,Memphis,41.095,-96.431
00316,Ash Grove,40.177,-99.119
00498,Bartlett,41.885,-98.552
02674,Elim,41.252,-100.139
04263,Jefferson,42.583,-98.118
04997,Loup,41.140,-99.549
08478,Thayer,42.133,-96.787
08639,Triumph,41.371,-99.997
08662,Tryon,41.556,-100.967
02423,Dowling,42.569,-97.544
03475,Grant,40.176,-98.783
04948,Logan,40.389,-97.871
07474,Ruskin,40.144,-97.869
00585,Beaver,41.498,-97.826
03241,Garfield,41.507,-99.526
00628,Belgrade,41.473,-98.068
00347,Atlanta,40.367,-99.473
08989,Wann,41.147,-96.356
03383,Golden,42.318,-98.395
02730,Elsie,40.847,-101.388
01089,Broadwater,41.596,-102.853
04171,Inland,40.569,-98.209
04173,Inman,42.382,-98.528
04252,Jansen,40.185,-97.084
01147,Bruno,41.284,-96.959
05875,Myrtle,41.373,-99.264
07977,South Bend,41.002,-96.245
02666,Eldorado,40.651,-97.991
05163,Malmo,41.266,-96.722
01587,Chelsea,40.481,-97.539
03659,Hamilton,40.394,-97.653
04831,Liberty,40.568,-97.426
05750,Morton,42.937,-98.595
03696,Hardy,40.009,-97.927
04887,Linwood,41.412,-96.931
09014,Washington,40.047,-98.836
01937,Cordova,40.717,-97.353
02146,Custer,41.263,-99.807
02788,Ericson,41.780,-98.677
04861,Lincoln,40.307,-99.123
01379,Carleton,40.301,-97.679
03860,Herrick,42.807,-97.648
04969,Lone Tree,40.474,-98.123
06263,Odessa,40.702,-99.257
08103,St. Helena,42.810,-97.249
03132,Frankfort,42.809,-97.544
07340,Rockville,41.118,-98.832
05477,Merriman,42.920,-101.701
07818,Shields,42.581,-98.668
00395,Ayr,40.438,-98.440
01045,Bryan,42.126,-96.585
00788,Byron,40.004,-97.769
02603,Eddyville,41.011,-99.624
07536,Salem,40.076,-95.721
05279,Martin,41.256,-101.691
06808,Pleasant View,42.559,-98.824
00663,Belmar,41.299,-101.917
07357,Rogers,41.465,-96.915
01473,Cedar,41.460,-97.993
01520,Central,42.568,-97.779
08975,Walnut Grove,42.508,-98.243
02337,Dixon,42.416,-96.997
05283,Martinsburg,42.508,-96.831
01210,Burchard,40.148,-96.350
07809,Sheridan,40.481,-97.881
09467,Wyoming,42.175,-98.943
02416,Douglas Grove,41.550,-99.361
00724,Berwyn,41.351,-99.500
01243,Bush,42.838,-98.371
03724,Harrison,42.655,-97.779
08737,Union,42.750,-97.891
09336,Wilsonville,40.112,-100.107
01506,Center,42.609,-97.877
02181,Danbury,40.039,-100.404
05125,Macon,40.220,-99.009
06978,Prosser,40.687,-98.577
07222,Richland,41.436,-97.213
07588,Sand Creek,42.718,-98.981
08358,Swanton,40.379,-97.080
08904,Virginia,40.246,-96.497
08327,Sunol,41.155,-102.764
09085,Wellfleet,40.752,-100.730
09156,West Union,41.690,-99.500
02076,Crookston,42.928,-100.752
03526,Green Valley,42.437,-99.118
04786,Lemoyne,41.272,-101.813
04881,Lynn,40.576,-98.121
09023,Waterbury,42.458,-96.735
01079,Bristow,42.842,-98.585
01862,Comstock,41.557,-99.241
06065,Newport,42.601,-99.327
07811,Sherman,40.394,-99.009
04212,Island Grove,40.126,-96.514
02682,Elk Creek,40.286,-96.129
03044,Fontanelle,41.539,-96.428
04450,Kilgore,42.938,-100.956
00683,Bennett,40.575,-97.776
03723,Harrisburg,41.556,-103.739
05288,Merry,42.226,-96.596
09014,Washington,42.629,-98.247
03654,Halsey,41.903,-100.270
01983,Cottonwood,41.336,-98.225
05535,Milburn,41.701,-99.636
05642,Momence,40.481,-97.767
08020,Spade,42.655,-97.896
01520,Central,41.167,-97.909
04070,Hubbell,40.009,-97.498
04948,Logan,42.476,-98.132
03794,Hazard,41.091,-99.079
07924,Smithfield,40.573,-99.742
09267,Whitney,42.783,-103.256
01889,Conley,42.145,-98.787
07195,Reynolds,40.060,-97.336
07288,Riverton,40.089,-98.759
03247,Garrison,41.177,-97.167
04594,Lake,42.132,-98.551
06964,Primrose,41.623,-98.238
07442,Royal,42.332,-98.126
00262,Archer,41.165,-98.136
06208,Oak,40.237,-97.903
04823,Lewiston,40.243,-96.404
04955,Loma,41.130,-96.944
05269,Marshall,40.481,-97.995
01235,Burr,40.536,-96.300
03686,Harbine,40.192,-96.973
06965,Princeton,40.574,-96.705
09166,Western,42.714,-98.245
00668,Belvidere,40.252,-97.558
02163,Daily,42.562,-96.947
02736,Elyria,41.681,-99.006
03475,Grant,41.112,-99.980
04189,Iowa,42.484,-98.374
09397,Wood Lake,42.639,-100.238
02015,Crab Orchard,40.335,-96.422
04304,Johnstown,42.572,-100.058
04334,Julian,40.523,-95.868
05358,McClure,42.225,-98.556
03990,Holmesville,40.201,-96.658
04758,Lebanon,40.051,-100.276
07219,Richfield,41.108,-96.075
08176,Steele City,40.038,-97.025
02749,Emmet,42.476,-98.806
05142,Magnet,42.455,-97.470
02742,Emerald,40.814,-96.835
03475,Grant,40.394,-98.781
07313,Rock Falls,42.653,-98.717
08478,Thayer,40.969,-97.497
07635,Saratoga,42.777,-98.829
00915,Bohemia,42.652,-98.131
03098,Foster,42.274,-97.665
00616,Belle,42.660,-98.844
07687,Scott,42.691,-98.462
01741,Clinton,42.760,-102.349
01812,Coleman,42.761,-98.688
07764,Shamrock,42.304,-98.728
08339,Surprise,41.109,-97.311
08352,Swan,42.218,-99.122
01732,Cleveland,42.780,-99.173
06937,Prairie Home,40.865,-96.521
09326,Willowdale,42.565,-98.432
05391,McLean,42.386,-97.469
01549,Champion,40.469,-101.749
06118,Norman,40.480,-98.792
02882,Fairview,42.311,-98.906
05008,Lorton,40.596,-96.024
02143,Cushing,41.297,-98.368
04831,Liberty,40.085,-96.483
07980,South Branch,41.436,-98.232
08244,Strang,40.416,-97.587
00698,Berea,42.214,-102.980
04097,Huntley,40.210,-99.292
02709,Ellsworth,42.059,-102.280
03223,Gandy,41.470,-100.458
03785,Hayes,41.653,-100.105
03312,Gilead,40.146,-97.413
07737,Seneca,42.043,-100.833
00058,Agnew,41.017,-96.815
00229,Antelope,42.480,-98.481
03661,Hamlet,40.385,-101.235
04438,Keystone,41.216,-101.584
08177,Steel Creek,42.691,-98.368
08839,Venice,41.234,-96.354
02023,Kramer,40.588,-96.875
05700,Moorefield,40.690,-100.399
03126,Francis,42.311,-99.054
04649,Lamar,40.572,-101.979
07041,Ragan,40.310,-99.290
01950,Corner,41.698,-99.270
06108,Nora,40.162,-97.970
05843,Mullen,42.925,-98.507
09361,Winslow,41.609,-96.504
04324,Josie,42.150,-99.198
06955,Preston,40.034,-95.517
09167,Westerville,41.396,-99.381
06864,Poole,40.980,-98.970
07827,Sholes,42.333,-97.294
08051,Spring Creek,41.477,-99.277
00224,Anoka,42.947,-98.831
01240,Burton,42.912,-99.592
06509,Parks,40.042,-101.725
01043,Brewster,41.939,-99.865
01125,Brownlee,42.288,-100.626
08026,Sparks,42.941,-100.256
03575,Gross,42.946,-98.572
00004,Abbott,40.975,-98.481
00050,Etna,41.141,-100.157
00053,Agate,42.420,-103.794
00073,Akron,41.741,-98.242
00145,Almeria,41.826,-99.522
00183,Amboy,40.090,-98.439
00185,Amelia,42.236,-98.912
00189,Ames,41.452,-96.624
00210,Andrews,42.631,-103.917
00214,Angora,41.851,-103.126
00216,Angus,40.282,-97.979
00257,Arbor,40.896,-96.673
00277,Arizona,41.814,-96.134
00321,Ashby,42.023,-101.929
00335,Assumption,40.510,-98.572
00345,Atkins,41.724,-103.215
00382,Avery,41.164,-95.922
00720,Bertha,41.887,-96.347
00737,Beverly,40.288,-101.049
00771,Bingham,42.021,-102.089
00940,Bookwalter,40.062,-96.369
00947,Bordeaux,42.768,-102.814
00953,Bostwick,40.048,-98.184
00993,Bradley,41.770,-103.382
01006,Brandon,40.803,-101.912
01020,Brayton,41.463,-98.478
01037,Breslau,42.353,-97.699
01066,Briggs,41.350,-96.008
01183,Buda,40.714,-98.994
01188,Buffalo,40.989,-99.835
01381,Carlisle,40.351,-97.765
01422,Cascade,42.181,-100.386
01449,Catalpa,42.776,-98.869
01519,Centerville,40.662,-96.728
01748,Closter,41.887,-97.891
01757,Clyde,40.413,-99.418
01899,Constance,42.707,-97.436
02060,Krider,40.071,-96.746
02093,Crowell,41.728,-96.708
02201,Darr,40.821,-99.884
02231,De Soto,41.501,-96.057
02281,Deloit,42.147,-98.375
02332,Dickens,40.826,-100.993
02407,Dorsey,42.682,-98.345
02468,Duff,42.203,-99.604
02472,Dukeville,42.693,-98.134
02474,Duluth,42.018,-101.636
02501,Durant,41.092,-97.664
02505,Dustin,42.841,-98.991
02681,Elk City,41.372,-96.268
02704,Ellis,40.218,-96.876
02731,Elsmere,42.165,-100.185
02744,Emerick,41.902,-97.737
02759,Enders,40.455,-101.534
02772,Enola,41.904,-97.463
02840,Everett,41.611,-96.617
02974,Finchville,41.371,-100.083
03011,Flats,41.569,-101.352
03151,Freedom,40.424,-100.369
03281,Georgia,42.474,-101.162
03324,Gilmore,41.144,-95.951
03332,Gladstone,40.160,-97.308
03337,Glen,42.608,-103.584
03365,Glenrock,40.444,-95.891
03409,Goodwin,42.455,-96.655
03583,Grover,40.780,-97.038
03615,Holland,40.596,-96.592
03630,Haig,41.879,-103.759
03681,Hansen,40.696,-98.370
03788,Hayland,40.665,-98.587
03819,Hire,42.174,-101.418
03956,Hoagland,41.508,-100.371
04030,Horace,41.543,-98.673
04050,Houston,40.916,-97.540
04053,Howe,40.322,-95.819
04158,Inez,42.291,-99.001
04164,Ingleside,40.580,-98.444
04205,Irvington,41.321,-96.055
04228,Jacinto,41.226,-103.404
04241,Jamaica,40.699,-96.690
04249,Jamison,42.998,-99.308
04346,Kalamazoo,41.829,-97.640
04370,Keene,40.425,-99.066
04523,Knoxville,42.669,-98.296
04537,Krakow,41.395,-97.752
04636,Lakeside,42.056,-102.425
04657,Lamont,40.321,-101.873
04668,Lane,41.242,-96.161
04677,Lanham,40.003,-96.874
04750,Lena,41.701,-101.499
04752,Leat,42.896,-101.825
04881,Lynn,41.801,-102.976
04936,Lockwood,40.970,-98.244
04948,Logan,41.495,-100.300
05003,Lorenzo,41.047,-103.068
05044,Lowell,40.648,-98.847
05242,Mariaville,42.775,-99.335
05248,Marion,40.016,-100.481
05329,Mayberry,40.223,-96.312
05408,Meadow,41.016,-96.157
05417,Meadville,42.759,-99.849
05459,Menominee,42.787,-97.374
05563,Millerton,41.186,-97.215
05572,Mills,42.941,-99.444
05688,Montrose,42.922,-103.729
05780,Mount Clare,40.183,-98.218
05899,Nashville,41.406,-95.996
05903,Natick,41.956,-100.439
06047,Newark,40.641,-98.963
06111,Norden,42.869,-100.074
06176,Northport,41.682,-103.088
06186,Norway,41.999,-100.718
06256,Oconee,41.470,-97.519
06299,Olean,41.736,-96.945
06299,Olean,41.561,-98.808
06310,Oliver,41.229,-103.788
06338,Opportunity,42.596,-98.501
06372,Orum,41.546,-96.271
06428,Owasco,41.239,-103.575
06447,Paddock,42.778,-98.619
06546,Paul,40.595,-95.897
06549,Pauline,40.416,-98.346
06628,Perry,40.210,-100.723
06726,Pine Ridge,42.494,-103.472
06795,Pleasant Hill,40.587,-97.082
06806,Pleasant Valley,41.616,-96.857
06886,Portal,41.176,-96.081
06918,Powell,40.221,-97.285
06932,Prairie Center,40.859,-99.055
07015,Quick,40.439,-100.648
07080,Raven,42.276,-99.866
07132,Redbird,42.762,-98.442
07134,Redington,41.584,-103.273
07241,Ridgeley,41.624,-96.728
07260,Ringgold,41.509,-100.792
07290,Riverview,42.729,-99.589
07329,Rockford,40.252,-96.600
07387,Rose,42.181,-99.526
07400,Rosemont,40.287,-98.364
07402,Rosenburg,41.632,-97.754
07431,Round Valley,41.568,-99.519
07447,Ruby,40.831,-97.077
07499,Sacramento,40.409,-99.275
07512,Saint Bernard,41.722,-97.629
07527,Saint Michael,41.024,-98.748
07530,Saint Stephens,40.254,-98.256
07555,Saltillo,40.700,-96.683
07720,Sedan,40.343,-97.897
07936,Smyrna,40.119,-98.067
07967,Somerset,40.825,-100.861
08029,Sparta,42.655,-97.974
08105,St. James,42.735,-97.143
08134,Stafford,42.328,-98.447
08155,Star,42.611,-98.340
08232,Story,42.930,-103.939
08304,Sumter,41.589,-98.788
08368,Sweetwater,41.044,-99.007
08497,Thompson,40.068,-97.259
08816,Vance,41.777,-103.113
08837,Velma,41.631,-101.942
08841,Venus,42.457,-98.268
08861,Vesta,40.356,-96.338
08916,Vroman,40.967,-100.257
08971,Walnut,42.549,-98.209
09067,Webster,41.597,-96.790
09103,Wescott,41.539,-99.270
09263,Whitman,42.042,-101.523
09311,Willis,42.475,-96.629
09321,Willow Island,40.889,-100.072
09467,Wyoming,40.736,-95.919