phoneme,name,county,latitude,longitude
0930,Chesapeake,Chesapeake city,36.819,-76.275
0171,Arlington,Arlington County,38.890,-77.084
3559,Norfolk,Norfolk city,36.847,-76.285
4203,Richmond,Richmond city,37.554,-77.460
0058,Alexandria,Alexandria city,38.805,-77.047
2130,Hampton,Hampton city,37.030,-76.345
4250,Roanoke,Roanoke city,37.271,-79.941
4013,Portsmouth,Portsmouth city,36.835,-76.298
2967,Lynchburg,Lynchburg city,37.414,-79.142
0876,Centreville,Fairfax County,38.840,-77.429
3221,Midlothian,Chesterfield County,37.522,-77.665
2164,Harrisonburg,Harrisonburg city,38.450,-78.869
3145,McLean,Fairfax County,38.934,-77.177
2780,Leesburg,Loudoun County,39.116,-77.564
5027,Tuckahoe,Henrico County,37.590,-77.556
0902,Charlottesville,Charlottesville city,38.029,-78.477
0184,Ashburn,Loudoun County,39.044,-77.487
0458,Blacksburg,Montgomery County,37.230,-80.414
0682,Burke,Fairfax County,38.793,-77.272
5474,Woodbridge,Prince William County,38.658,-77.250
3014,Manassas,Manassas city,38.751,-77.475
1255,Danville,Danville city,36.586,-79.395
0134,Annandale,Fairfax County,38.830,-77.196
3161,Mechanicsville,Hanover County,37.609,-77.373
1643,Fair Oaks,Fairfax County,38.866,-77.369
3867,Petersburg,Petersburg city,37.228,-77.402
4686,Springfield,Fairfax County,38.789,-77.187
4764,Sterling,Loudoun County,39.006,-77.429
0604,Bristow,Prince William County,38.723,-77.536
1811,Fredericksburg,Fredericksburg city,38.303,-77.461
5433,Winchester,Winchester city,39.186,-78.163
4756,Staunton,Staunton city,38.150,-79.072
4389,Salem,Salem city,37.293,-80.055
0836,Cave Spring,Roanoke County,37.228,-80.013
2249,Herndon,Fairfax County,38.970,-77.387
1649,Fairfax,Fairfax city,38.846,-77.306
4883,Tabb,York County,37.123,-76.457
5315,West Springfield,Fairfax County,38.773,-77.221
2353,Hopewell,Hopewell city,37.304,-77.287
0954,Christiansburg,Montgomery County,37.130,-80.409
5485,Woodlawn,Fairfax County,38.717,-77.133
5255,Waynesboro,Waynesboro city,38.068,-78.889
0932,Chester,Chesterfield County,37.357,-77.442
0925,Cherry Hill,Prince William County,38.570,-77.267
3308,Montclair,Prince William County,38.611,-77.340
4308,Rose Hill,Fairfax County,38.789,-77.113
2911,Lorton,Fairfax County,38.704,-77.228
3149,McNair,Fairfax County,38.952,-77.414
3156,Meadowbrook,Chesterfield County,37.449,-77.474
2608,Kingstowne,Fairfax County,38.761,-77.145
1800,Franconia,Fairfax County,38.782,-77.146
1073,Colonial Heights,Colonial Heights city,37.244,-77.410
2755,Laurel,Henrico County,37.643,-77.509
0518,Bon Air,Chesterfield County,37.525,-77.558
1848,Gainesville,Prince William County,38.796,-77.614
0603,Bristol,Bristol city,36.596,-82.188
0676,Bull Run,Prince William County,38.784,-77.521
5145,Vienna,Fairfax County,38.901,-77.265
2323,Hollins,Botetourt County,37.344,-79.952
4783,Stone Ridge,Loudoun County,38.925,-77.555
5406,Williamsburg,Williamsburg city,37.271,-76.707
0608,Broadlands,Loudoun County,39.018,-77.520
1933,Glen Allen,Henrico County,37.666,-77.506
2029,Great Falls,Fairfax County,38.998,-77.288
2079,Groveton,Fairfax County,38.767,-77.085
2393,Huntington,Fairfax County,38.792,-77.071
3393,Mount Vernon,Fairfax County,38.735,-77.095
3081,Martinsville,Martinsville city,36.692,-79.873
3532,Newington,Fairfax County,38.738,-77.185
2735,Lansdowne,Loudoun County,39.085,-77.484
4962,Timberlake,Campbell County,37.321,-79.258
2875,Locust Grove,Orange County,38.281,-77.726
2710,Lakeside,Henrico County,37.608,-77.477
3015,Manchester,Chesterfield County,37.486,-77.534
5434,Wyndham,Henrico County,37.698,-77.612
5188,Wakefield,Fairfax County,38.825,-77.243
3468,New Baltimore,Fauquier County,38.767,-77.728
1753,Forest,Bedford County,37.364,-79.290
5010,Triangle,Prince William County,38.547,-77.337
2991,Madison Heights,Amherst County,37.431,-79.123
5475,Woodburn,Fairfax County,38.847,-77.236
5224,Warrenton,Fauquier County,38.713,-77.795
5534,Yorkshire,Prince William County,38.793,-77.448
1367,Doran,Tazewell County,37.093,-81.833
0371,Belmont,Loudoun County,39.065,-77.510
1146,Countryside,Loudoun County,39.041,-77.414
2431,Innsbrook,Henrico County,37.654,-77.576
4067,Pulaski,Pulaski County,37.048,-80.780
4606,Smithfield,Isle of Wight County,36.982,-76.631
2696,Lake of the Woods,Orange County,38.334,-77.756
2756,Laurel Hill,Fairfax County,38.717,-77.237
0007,Abingdon,Washington County,36.710,-81.977
1803,Franklin,Franklin city,36.678,-76.922
0369,Bellwood,Chesterfield County,37.422,-77.437
5159,Vinton,Roanoke County,37.281,-79.897
2046,Greenbriar,Fairfax County,38.873,-77.401
4279,Rockwood,Chesterfield County,37.463,-77.574
3035,Mantua,Fairfax County,38.854,-77.259
2892,Long Branch,Fairfax County,38.831,-77.270
3321,Montrose,Henrico County,37.521,-77.378
1739,Floris,Fairfax County,38.937,-77.413
0188,Ashland,Hanover County,37.759,-77.480
1067,Collinsville,Henry County,36.715,-79.915
0676,Bull Run,Fairfax County,38.840,-77.490
2810,Lexington,Lexington city,37.784,-79.443
5479,Woodlake,Chesterfield County,37.421,-77.679
3582,North Springfield,Fairfax County,38.804,-77.205
1683,Farmville,Cumberland County,37.296,-78.400
4798,Strasburg,Shenandoah County,38.989,-78.359
0796,Carrollton,Isle of Wight County,36.947,-76.561
3319,Montpelier,Hanover County,37.821,-77.684
0334,Bedford,Bedford County,37.334,-79.523
0666,Buena Vista,Buena Vista city,37.734,-79.354
0555,Braddock,Fairfax County,38.831,-77.357
0352,Belle Haven,Fairfax County,38.785,-77.063
1773,Fort Lee,Prince George County,37.236,-77.333
0594,Bridgewater,Rockingham County,38.382,-78.977
5495,Woodstock,Shenandoah County,38.882,-78.506
3058,Marion,Smyth County,36.835,-81.515
1151,Covington,Covington city,37.793,-79.994
1405,Dumfries,Prince William County,38.568,-77.328
1585,Emporia,Emporia city,36.686,-77.542
4202,Richlands,Tazewell County,37.093,-81.794
1622,Ettrick,Chesterfield County,37.240,-77.430
3690,Orange,Orange County,38.245,-78.111
0497,Bluefield,Tazewell County,37.253,-81.271
3328,Moorefield,Loudoun County,38.996,-77.504
4283,Rocky Mount,Franklin County,36.998,-79.892
2956,Luray,Page County,38.665,-78.459
4642,South Hill,Mecklenburg County,36.727,-78.129
0402,Berryville,Clarke County,39.152,-77.982
1674,Falmouth,Stafford County,38.324,-77.468
4912,Tazewell,Tazewell County,37.115,-81.520
1595,Enon,Chesterfield County,37.331,-77.323
5134,Verona,Augusta County,38.202,-79.008
2206,Hayfield,Fairfax County,38.752,-77.136
3382,Mount Hermon,Pittsylvania County,36.678,-79.422
0610,Broadway,Rockingham County,38.613,-78.799
2602,Kings Park,Fairfax County,38.806,-77.243
5079,University Center,Loudoun County,39.057,-77.444
2868,Loch Lomond,Prince William County,38.786,-77.478
5021,Troy,Fluvanna County,37.951,-78.246
3597,Norton,Norton city,36.933,-82.629
2847,Linville,Rockingham County,38.521,-78.838
1018,Cloverdale,Botetourt County,37.365,-79.906
1233,Dahlgren,King George County,38.331,-77.051
5313,West Point,King William County,37.532,-76.796
0459,Blackstone,Nottoway County,37.080,-77.997
3581,North Shore,Franklin County,37.082,-79.658
2774,Lebanon,Russell County,36.901,-82.080
3071,Marshall,Fauquier County,38.865,-77.858
0494,Blue Ridge,Botetourt County,37.378,-79.807
1541,Elkton,Rockingham County,38.408,-78.624
1240,Daleville,Botetourt County,37.410,-79.913
5457,Wise,Wise County,36.976,-82.576
2296,Hillsville,Carroll County,36.763,-80.735
5435,Windsor,Isle of Wight County,36.808,-76.744
3196,Merrimac,Montgomery County,37.190,-80.426
1398,Dublin,Pulaski County,37.106,-80.685
1654,Fairlawn,Pulaski County,37.148,-80.578
3612,Oak Grove,Loudoun County,38.984,-77.404
4551,Shenandoah,Page County,38.485,-78.625
3099,Matoaca,Chesterfield County,37.230,-77.477
2691,Lake Holiday,Frederick County,39.307,-78.325
5485,Woodlawn,Carroll County,36.722,-80.823
0162,Arcola,Loudoun County,38.952,-77.534
4192,Rice,Prince Edward County,37.275,-78.291
3500,New Market,Shenandoah County,38.648,-78.671
0115,Amherst,Amherst County,37.585,-79.051
4175,Rio,Albemarle County,38.076,-78.461
2923,Louisa,Louisa County,38.025,-78.004
3437,Narrows,Giles County,37.332,-80.811
3386,Mount Jackson,Shenandoah County,38.746,-78.642
5251,Waverly,Sussex County,37.036,-77.095
1110,Copper Hill,Floyd County,37.082,-80.134
5141,Victoria,Lunenburg County,36.995,-78.227
4739,Stanley,Page County,38.575,-78.503
1270,Dayton,Rockingham County,38.415,-78.939
0942,Chilhowie,Smyth County,36.798,-81.682
5227,Warsaw,Richmond County,37.959,-76.758
1980,Gore,Frederick County,39.264,-78.332
2968,Lyndhurst,Augusta County,38.029,-78.945
1037,Coeburn,Wise County,36.944,-82.464
5048,Twin Lakes,Greene County,38.249,-78.444
2060,Greenville,Augusta County,38.003,-79.156
1978,Gordonsville,Orange County,38.137,-78.188
3218,Middletown,Frederick County,39.028,-78.281
0598,Brightwood,Madison County,38.422,-78.194
4768,Stuart,Patrick County,36.641,-80.266
4344,Ruckersville,Greene County,38.233,-78.369
0983,Clarksville,Halifax County,36.618,-78.565
1147,Courtland,Southampton County,36.716,-77.068
2067,Gretna,Pittsylvania County,36.954,-79.359
0826,Castlewood,Russell County,36.890,-82.280
4692,Springville,Tazewell County,37.197,-81.403
0654,Buchanan,Botetourt County,37.527,-79.680
1490,Edinburg,Shenandoah County,38.821,-78.566
0907,Chatham,Pittsylvania County,36.826,-79.398
0544,Bowling Green,Caroline County,38.050,-77.347
1551,Elliston,Montgomery County,37.217,-80.233
3841,Pembroke,Giles County,37.320,-80.639
2678,Lahore,Orange County,38.199,-77.968
2113,Halifax,Halifax County,36.766,-78.928
0201,Atkins,Smyth County,36.867,-81.423
1930,Glasgow,Rockbridge County,37.634,-79.450
3097,Mathews,Mathews County,37.437,-76.320
0846,Cedar Bluff,Tazewell County,37.088,-81.759
0291,Bassett,Henry County,36.759,-79.990
1580,Emory,Washington County,36.773,-81.836
2764,Lawrenceville,Brunswick County,36.758,-77.847
2023,Gratton,Tazewell County,37.135,-81.414
1090,Concord,Appomattox County,37.345,-78.983
2412,Independence,Grayson County,36.622,-81.151
2166,Harriston,Augusta County,38.217,-78.832
5246,Wattsville,Accomack County,37.934,-75.500
0178,Arrington,Nelson County,37.684,-78.901
4243,Riverdale,Halifax County,36.687,-78.900
1157,Craigsville,Augusta County,38.079,-79.383
1397,Dryden,Lee County,36.778,-82.942
2519,Jonesville,Lee County,36.689,-83.111
4026,Pound,Wise County,37.124,-82.601
4724,St. Paul,Russell County,36.907,-82.317
0367,Belview,Montgomery County,37.167,-80.510
2757,Laurel Park,Henry County,36.689,-79.801
2464,Ivy,Albemarle County,38.057,-78.597
2589,Keysville,Charlotte County,37.040,-78.483
4819,Sugar Grove,Smyth County,36.776,-81.412
1244,Damascus,Washington County,36.634,-81.784
1770,Fort Defiance,Augusta County,38.240,-78.972
0549,Boyce,Clarke County,39.093,-78.059
4216,Ridgeway,Henry County,36.577,-79.858
1710,Fincastle,Botetourt County,37.499,-79.877
5188,Wakefield,Sussex County,36.968,-76.990
2097,Gwynn,Mathews County,37.504,-76.289
3494,New Hope,Augusta County,38.198,-78.906
4308,Rose Hill,Lee County,36.672,-83.367
4328,Round Hill,Loudoun County,39.133,-77.769
3368,Motley,Pittsylvania County,37.070,-79.341
3212,Middleburg,Loudoun County,38.969,-77.736
2463,Ivanhoe,Wythe County,36.840,-80.967
4170,Remington,Fauquier County,38.534,-77.808
0532,Boston,Accomack County,37.609,-75.843
4401,Saluda,Middlesex County,37.606,-76.595
1346,Dinwiddie,Dinwiddie County,37.078,-77.587
4247,Riverview,Wise County,36.935,-82.482
2124,Hamilton,Loudoun County,39.134,-77.662
2647,La Crosse,Mecklenburg County,36.700,-78.100
3685,Opal,Fauquier County,38.621,-77.800
1016,Clover,Halifax County,36.833,-78.733
4079,Quantico,Prince William County,38.522,-77.294
1384,Draper,Pulaski County,37.006,-80.747
0204,Atlantic,Accomack County,37.901,-75.508
2364,Hot Springs,Bath County,38.000,-79.832
0352,Belle Haven,Accomack County,37.555,-75.824
4493,Scottsville,Albemarle County,37.811,-78.488
5086,Urbanna,Middlesex County,37.638,-76.574
4770,Stewartsville,Bedford County,37.271,-79.793
3265,Mineral,Louisa County,38.011,-77.909
5380,Whitewood,Buchanan County,37.236,-81.857
2452,Irvington,Lancaster County,37.662,-76.419
0895,Cheriton,Northampton County,37.290,-75.971
5020,Troutville,Botetourt County,37.418,-79.875
4516,Selma,Alleghany County,37.807,-79.848
1252,Dante,Dickenson County,36.985,-82.284
2673,Lafayette,Montgomery County,37.236,-80.211
1742,Floyd,Floyd County,36.911,-80.320
3293,Moneta,Bedford County,37.181,-79.617
2359,Horntown,Accomack County,37.970,-75.464
4899,Tangier,Accomack County,37.826,-75.992
0683,Burkeville,Nottoway County,37.188,-78.201
0310,Baywood,Grayson County,36.610,-81.012
3509,New River,Pulaski County,37.133,-80.591
3322,Montvale,Bedford County,37.385,-79.731
1639,Ewing,Lee County,36.637,-83.432
2934,Low Moor,Alleghany County,37.789,-79.884
1216,Cumberland,Cumberland County,37.496,-78.245
1732,Flint Hill,Rappahannock County,38.763,-78.100
4563,Shipman,Nelson County,37.724,-78.839
0025,Afton,Albemarle County,38.022,-78.833
1983,Goshen,Rockbridge County,37.987,-79.498
2582,Keswick,Albemarle County,38.025,-78.356
0970,Claremont,Surry County,37.228,-76.964
0046,Alberta,Brunswick County,36.866,-77.886
4088,Quinby,Accomack County,37.554,-75.734
0472,Bland,Bland County,37.102,-81.116
4856,Sussex,Sussex County,36.915,-77.279
0960,Churchville,Augusta County,38.226,-79.162
3973,Pocahontas,Tazewell County,37.304,-81.340
4482,Schuyler,Nelson County,37.792,-78.698
5535,Yorktown,York County,37.239,-76.510
1650,Fairfield,Rockbridge County,37.879,-79.289
1411,Dungannon,Scott County,36.828,-82.472
4936,The Plains,Fauquier County,38.862,-77.774
1010,Clifton,Fairfax County,38.780,-77.387
3874,Phenix,Charlotte County,37.080,-78.748
0307,Bayside,Accomack County,37.748,-75.717
0798,Carrsville,Isle of Wight County,36.712,-76.826
1439,Eagle Rock,Botetourt County,37.641,-79.801
4855,Surry,Surry County,37.138,-76.835
2990,Madison,Madison County,38.380,-78.257
3806,Parrott,Pulaski County,37.205,-80.616
2143,Harborton,Accomack County,37.662,-75.830
4006,Port Royal,Caroline County,38.172,-77.191
1291,Deerfield,Augusta County,38.197,-79.407
4789,Stony Creek,Sussex County,36.948,-77.401
0504,Bobtown,Accomack County,37.651,-75.793
0262,Barboursville,Orange County,38.171,-78.282
3311,Monterey,Highland County,38.412,-79.581
2138,Hanover,Hanover County,37.767,-77.370
3220,Midland,Fauquier County,38.600,-77.724
4005,Port Republic,Rockingham County,38.289,-78.813
2552,Keller,Accomack County,37.619,-75.764
5019,Troutdale,Grayson County,36.702,-81.440
0770,Capron,Southampton County,36.711,-77.200
1007,Cleveland,Russell County,36.944,-82.152
3180,Mendota,Washington County,36.711,-82.302
4488,Scotland,Surry County,37.184,-76.786
2954,Lunenburg,Lunenburg County,36.961,-78.266
3478,New Castle,Craig County,37.500,-80.111
4492,Scottsburg,Halifax County,36.757,-78.790
0563,Branchville,Southampton County,36.570,-77.249
1660,Fairview,Mecklenburg County,36.815,-78.467
2293,Hillsboro,Loudoun County,39.198,-77.723
3773,Palmyra,Fluvanna County,37.861,-78.263
1070,Columbia,Fluvanna County,37.752,-78.162
5232,Washington,Rappahannock County,38.713,-78.159
5218,Warfield,Brunswick County,36.896,-77.826
0897,Charles City,Charles City County,37.343,-77.073
4698,St. Charles,Lee County,36.802,-83.057
4616,Snowville,Pulaski County,37.033,-80.561
1807,Franktown,Northampton County,37.479,-75.879
0294,Batesville,Albemarle County,37.996,-78.722
4446,Sanford,Accomack County,37.925,-75.664
0732,Calverton,Fauquier County,38.632,-77.671
5377,Whitesville,Accomack County,37.782,-75.663
2048,Greenbush,Accomack County,37.741,-75.681
0006,Abilene,Charlotte County,37.142,-78.544
0022,Aden,Prince William County,38.655,-77.537
0035,Airmont,Loudoun County,39.085,-77.787
0085,Alma,Page County,38.591,-78.558
0118,Ammon,Amelia County,37.211,-77.768
0156,Ararat,Patrick County,36.599,-80.511
0159,Arcadia,Botetourt County,37.545,-79.624
0331,Beaverdam,Hanover County,37.941,-77.654
0371,Belmont,Spotsylvania County,38.154,-77.866
0479,Bloomfield,Loudoun County,39.053,-77.821
0489,Blue Grass,Highland County,38.500,-79.550
0558,Bradshaw,Montgomery County,37.300,-80.224
0605,Britain,Loudoun County,39.253,-77.697
0607,Broad Run,Fauquier County,38.830,-77.721
0616,Brooke,Stafford County,38.388,-77.380
0650,Brutus,Pittsylvania County,37.011,-79.269
0659,Buckland,Prince William County,38.780,-77.674
0669,Buffalo Gap,Augusta County,38.187,-79.239
0671,Buffalo Springs,Mecklenburg County,36.646,-78.662
0705,Butterworth,Dinwiddie County,37.051,-77.627
0726,Callao,Northumberland County,37.969,-76.560
0727,Callaway,Franklin County,37.011,-80.049
0736,Cambria,Montgomery County,37.143,-80.396
0805,Cartersville,Cumberland County,37.667,-78.088
0811,Casanova,Fauquier County,38.657,-77.717
0830,Catawba,Roanoke County,37.383,-80.109
0839,Caylor,Lee County,36.631,-83.494
0870,Centerville,Montgomery County,37.170,-80.538
0874,Central Point,Caroline County,37.989,-77.132
0875,Centralia,Chesterfield County,37.381,-77.460
0889,Chancellor,Spotsylvania County,38.284,-77.601
0933,Chesterfield,Chesterfield County,37.376,-77.504
0956,Chula,Amelia County,37.389,-77.903
1017,Clover Creek,Highland County,38.270,-79.549
1038,Cochran,Brunswick County,36.843,-77.905
1043,Cohasset,Fluvanna County,37.770,-78.303
1050,Colchester,Fairfax County,38.669,-77.234
1181,Cripple Creek,Wythe County,36.821,-81.098
1191,Cross Keys,Rockingham County,38.358,-78.846
1200,Crozier,Goochland County,37.637,-77.797
1216,Cumberland,New Kent County,37.329,-76.742
1267,Dawn,Caroline County,37.835,-77.363
1297,Delaplane,Fauquier County,38.915,-77.920
1330,DeWitt,Dinwiddie County,37.039,-77.643
1375,Dover,Loudoun County,38.976,-77.674
1497,Edom,Rockingham County,38.526,-78.861
1561,Elmont,Hanover County,37.711,-77.493
1565,Elon,Amherst County,37.518,-79.195
1588,Endicott,Franklin County,36.888,-80.150
1635,Evergreen,Appomattox County,37.319,-78.766
1638,Ewell,James City County,37.329,-76.742
1670,Falling Spring,Alleghany County,37.886,-79.979
1684,Farnham,Richmond County,37.885,-76.625
1708,Fife,Goochland County,37.749,-78.062
1817,Freeman,Brunswick County,36.755,-77.693
1847,Gainesboro,Frederick County,39.278,-78.259
1901,Germantown,Fauquier County,38.614,-77.742
1991,Grafton,York County,37.165,-76.469
2007,Grandy,Brunswick County,36.801,-77.955
2035,Green Bay,Prince Edward County,37.134,-78.315
2061,Greenwich,Prince William County,38.749,-77.648
2062,Greenwood,Albemarle County,38.056,-78.771
2075,Grove,James City County,37.230,-76.630
2085,Guinea,Caroline County,38.144,-77.438
2089,Gum Springs,Fairfax County,38.740,-77.082
2112,Halfway,Fauquier County,38.657,-77.717
2134,Hanging Rock,Roanoke County,37.328,-80.040
2148,Hardy,Bedford County,37.232,-79.811
2204,Hayes,Gloucester County,37.278,-76.504
2344,Homeville,Sussex County,36.949,-77.171
2371,Howardsville,Albemarle County,37.735,-78.647
2371,Howardsville,Loudoun County,39.038,-77.839
2386,Hume,Fauquier County,38.832,-77.999
2396,Hurley,Buchanan County,37.419,-82.022
2413,Index,King George County,38.194,-77.080
2481,Java,Pittsylvania County,36.836,-79.228
2550,Keene,Albemarle County,37.865,-78.555
2609,Kingsville,Prince Edward County,37.246,-78.444
2672,Ladysmith,Caroline County,38.017,-77.515
2725,Lancaster,Lancaster County,37.770,-76.466
2733,Langley,Fairfax County,38.946,-77.159
2781,Leesville,Campbell County,37.119,-79.385
2828,Lincoln,Loudoun County,39.115,-77.695
2838,Linden,Fauquier County,38.908,-78.075
2896,Long Island,Campbell County,37.079,-79.094
2928,Love,Augusta County,37.885,-79.010
2992,Madison Mills,Madison County,38.281,-78.141
3044,Maplewood,Amelia County,37.316,-78.049
3061,Markham,Fauquier County,38.904,-78.002
3132,McDowell,Highland County,38.336,-79.491
3255,Millwood,Clarke County,39.069,-78.038
3299,Monroe,Amherst County,37.502,-79.128
3363,Morven,Amelia County,37.418,-78.076
3380,Mount Gilead,Loudoun County,39.059,-77.664
3407,Mountville,Loudoun County,39.025,-77.712
3443,Natural Bridge,Rockbridge County,37.630,-79.543
3476,New Canton,Buckingham County,37.705,-78.299
3499,New London,Campbell County,37.302,-79.280
3524,Newbern,Pulaski County,37.073,-80.691
3534,Newport,Giles County,37.294,-80.495
3548,Nineveh,Warren County,39.016,-78.165
3555,Nora,Dickenson County,37.071,-82.347
3560,Norge,James City County,37.368,-76.771
3612,Oak Grove,Westmoreland County,38.182,-76.997
3614,Oak Hill,Fairfax County,38.926,-77.402
3701,Oriskany,Botetourt County,37.616,-79.984
3744,Owens,King George County,38.339,-77.086
3771,Palmer,Lancaster County,37.624,-76.351
3787,Paris,Fauquier County,39.004,-77.951
3813,Paytes,Spotsylvania County,38.227,-77.833
3840,Pemberton,Goochland County,37.675,-78.085
3887,Piedmont,Augusta County,38.214,-78.899
3941,Pittsville,Pittsylvania County,36.982,-79.462
4033,Powhatan,Powhatan County,37.542,-77.919
4119,Randolph,Charlotte County,36.894,-78.698
4129,Rawlings,Brunswick County,36.949,-77.779
4164,Reedville,Northumberland County,37.842,-76.276
4178,Rescue,Isle of Wight County,36.996,-76.561
4182,Reva,Culpeper County,38.494,-78.133
4224,Ringgold,Pittsylvania County,36.608,-79.295
4270,Rockfish,Nelson County,37.801,-78.756
4277,Rockville,Hanover County,37.726,-77.678
4289,Rogers,Montgomery County,37.088,-80.397
4298,Romancoke,King William County,37.574,-76.851
4310,Rosedale,Russell County,36.959,-81.931
4328,Round Hill,Frederick County,39.194,-78.242
4361,Rutherford,Fairfax County,38.829,-77.263
4440,Sandy Hook,Goochland County,37.753,-77.912
4500,Seaford,York County,37.198,-76.433
4631,Somerset,Orange County,38.208,-78.218
4632,Somerville,Fauquier County,38.522,-77.609
4654,Southbridge,Prince William County,38.576,-77.299
4666,Spencer,Henry County,36.620,-80.007
4749,Starkey,Roanoke County,37.201,-79.999
4767,Stevensville,King and Queen County,37.728,-76.920
4787,Stony Point,Albemarle County,38.113,-78.371
4819,Sugar Grove,Montgomery County,37.102,-80.343
4857,Sutherland,Dinwiddie County,37.196,-77.560
4882,Syria,Madison County,38.488,-78.326
4898,Tamworth,Cumberland County,37.648,-78.081
4909,Taylorstown,Loudoun County,39.254,-77.575
4933,Thaxton,Bedford County,37.353,-79.616
4973,Tobaccoville,Powhatan County,37.483,-78.096
5117,Vanderpool,Highland County,38.369,-79.625
5178,Wadesville,Clarke County,39.242,-78.039
5211,Walters,Isle of Wight County,36.773,-76.849
5219,Warm Springs,Bath County,38.046,-79.791
5239,Waterford,Loudoun County,39.187,-77.610
5358,White Hall,Albemarle County,38.118,-78.661
5358,White Hall,Frederick County,39.291,-78.148
5361,White House,New Kent County,37.572,-77.042
5363,White Oak,Stafford County,38.301,-77.375
5416,Willisville,Loudoun County,39.007,-77.834
5475,Woodburn,Loudoun County,39.090,-77.619
5477,Woodford,Caroline County,38.113,-77.409
5497,Woodville,Rappahannock County,38.607,-78.175
5522,Yale,Sussex County,36.846,-77.287
5524,Yancey Mills,Albemarle County,38.047,-78.725