phoneme,name,latitude,longitude
01605,Chesapeake,36.819,-76.275
00285,Arlington,38.890,-77.084
06114,Norfolk,36.847,-76.285
07225,Richmond,37.554,-77.460
00106,Alexandria,38.805,-77.047
03669,Hampton,37.030,-76.345
07296,Roanoke,37.271,-79.941
06893,Portsmouth,36.835,-76.298
05094,Lynchburg,37.414,-79.142
01525,Centreville,38.840,-77.429
07187,Reston,38.969,-77.341
05526,Midlothian,37.522,-77.665
03726,Harrisonburg,38.450,-78.869
05391,McLean,38.934,-77.177
04771,Leesburg,39.116,-77.564
08663,Tuckahoe,37.590,-77.556
01572,Charlottesville,38.029,-78.477
00320,Ashburn,39.044,-77.487
00823,Blacksburg,37.230,-80.414
01217,Burke,38.793,-77.272
09403,Woodbridge,38.658,-77.250
05171,Manassas,38.751,-77.475
02195,Danville,36.586,-79.395
00219,Annandale,38.830,-77.196
05422,Mechanicsville,37.609,-77.373
06241,Oakton,38.881,-77.301
02860,Fair Oaks,38.866,-77.369
06642,Petersburg,37.228,-77.402
08067,Springfield,38.789,-77.187
08187,Sterling,39.006,-77.429
01079,Bristow,38.723,-77.536
03146,Fredericksburg,38.303,-77.461
09340,Winchester,39.186,-78.163
08171,Staunton,38.150,-79.072
07536,Salem,37.293,-80.055
01462,Cave Spring,37.228,-80.013
03857,Herndon,38.970,-77.387
02869,Fairfax,38.846,-77.306
08387,Tabb,37.123,-76.457
01557,Chantilly,38.894,-77.431
09155,West Springfield,38.773,-77.221
04024,Hopewell,37.304,-77.287
01651,Christiansburg,37.130,-80.409
09417,Woodlawn,38.717,-77.133
09051,Waynesboro,38.068,-78.889
01609,Chester,37.357,-77.442
01599,Cherry Hill,38.570,-77.267
05670,Montclair,38.611,-77.340
07390,Rose Hill,38.789,-77.113
05008,Lorton,38.704,-77.228
05397,McNair,38.952,-77.414
05413,Meadowbrook,37.449,-77.474
05473,Merrifield,38.874,-77.227
04475,Kingstowne,38.761,-77.145
03129,Franconia,38.782,-77.146
01839,Colonial Heights,37.244,-77.410
04714,Laurel,37.643,-77.509
00929,Bon Air,37.525,-77.558
03206,Gainesville,38.796,-77.614
01078,Bristol,36.596,-82.188
01203,Bull Run,38.784,-77.521
07034,Radford,37.132,-80.576
08874,Vienna,38.901,-77.265
03978,Hollins,37.344,-79.952
08219,Stone Ridge,38.925,-77.555
09302,Williamsburg,37.271,-76.707
01086,Broadlands,39.018,-77.520
03905,Highland Springs,37.546,-77.328
03338,Glen Allen,37.666,-77.506
03503,Great Falls,38.998,-77.288
03584,Groveton,38.767,-77.085
04095,Huntington,38.792,-77.071
05809,Mount Vernon,38.735,-77.095
05284,Martinsville,36.692,-79.873
06058,Newington,38.738,-77.185
04679,Lansdowne,39.085,-77.484
08537,Timberlake,37.321,-79.258
04940,Locust Grove,38.281,-77.726
04636,Lakeside,37.608,-77.477
05172,Manchester,37.486,-77.534
09342,Wyndham,37.698,-77.612
08941,Wakefield,38.825,-77.243
05953,New Baltimore,38.767,-77.728
03056,Forest,37.364,-79.290
08626,Triangle,38.547,-77.337
05133,Madison Heights,37.431,-79.123
09405,Woodburn,38.847,-77.236
09006,Warrenton,38.713,-77.795
09497,Yorkshire,38.793,-77.448
02401,Doran,37.093,-81.833
00664,Belmont,39.065,-77.510
01993,Countryside,39.041,-77.414
04174,Innsbrook,37.654,-77.576
06985,Pulaski,37.048,-80.780
07924,Smithfield,36.982,-76.631
04617,Lake of the Woods,38.334,-77.756
04718,Laurel Hill,38.717,-77.237
00012,Abingdon,36.710,-81.977
03133,Franklin,36.678,-76.922
00662,Bellwood,37.422,-77.437
08898,Vinton,37.281,-79.897
07979,South Boston,36.699,-78.901
03530,Greenbriar,38.873,-77.401
07342,Rockwood,37.463,-77.574
05201,Mantua,38.854,-77.259
04972,Long Branch,38.831,-77.270
05688,Montrose,37.521,-77.378
03031,Floris,38.937,-77.413
00327,Ashland,37.759,-77.480
01830,Collinsville,36.715,-79.915
01203,Bull Run,38.840,-77.490
04826,Lexington,37.784,-79.443
09410,Woodlake,37.421,-77.679
06161,North Springfield,38.804,-77.205
02922,Farmville,37.296,-78.400
08246,Strasburg,38.989,-78.359
01401,Carrollton,36.947,-76.561
05686,Montpelier,37.821,-77.684
06905,Potomac Mills,38.646,-77.294
00601,Bedford,37.334,-79.523
01187,Buena Vista,37.734,-79.354
00989,Braddock,38.831,-77.357
04106,Hutchison,38.964,-77.411
00639,Belle Haven,38.785,-77.063
03084,Fort Lee,37.236,-77.333
01064,Bridgewater,38.382,-78.977
09431,Woodstock,38.882,-78.506
05248,Marion,36.835,-81.515
02003,Covington,37.793,-79.994
02476,Dumfries,38.568,-77.328
02753,Emporia,36.686,-77.542
07224,Richlands,37.093,-81.794
02820,Ettrick,37.240,-77.430
06341,Orange,38.245,-78.111
00894,Bluefield,37.253,-81.271
05700,Moorefield,38.996,-77.504
07348,Rocky Mount,36.998,-79.892
05080,Luray,38.665,-78.459
07991,South Hill,36.727,-78.129
08745,Union Mill,38.801,-77.387
00718,Berryville,39.152,-77.982
02901,Falmouth,38.324,-77.468
08436,Tazewell,37.115,-81.520
02773,Enon,37.331,-77.323
08858,Verona,38.202,-79.008
03787,Hayfield,38.752,-77.136
05786,Mount Hermon,36.678,-79.422
01090,Broadway,38.613,-78.799
04468,Kings Park,38.806,-77.243
08759,University Center,39.057,-77.444
04928,Loch Lomond,38.786,-77.478
08652,Troy,37.951,-78.246
06183,Norton,36.933,-82.629
04886,Linville,38.521,-78.838
01753,Cloverdale,37.365,-79.906
02161,Dahlgren,38.331,-77.051
09150,West Point,37.532,-76.796
00824,Blackstone,37.080,-77.997
06159,North Shore,37.082,-79.658
04758,Lebanon,36.901,-82.080
05269,Marshall,38.865,-77.858
00890,Blue Ridge,37.378,-79.807
02696,Elkton,38.408,-78.624
02170,Daleville,37.410,-79.913
09376,Wise,36.976,-82.576
03935,Hillsville,36.763,-80.735
09343,Windsor,36.808,-76.744
05476,Merrimac,37.190,-80.426
02460,Dublin,37.106,-80.685
02874,Fairlawn,37.148,-80.578
06214,Oak Grove,38.984,-77.404
07801,Shenandoah,38.485,-78.625
05314,Matoaca,37.230,-77.477
04611,Lake Holiday,39.307,-78.325
09417,Woodlawn,36.722,-80.823
00264,Arcola,38.952,-77.534
07206,Rice,37.275,-78.291
06009,New Market,38.648,-78.671
00190,Amherst,37.585,-79.051
07080,Raven,37.093,-81.859
07178,Rio,38.076,-78.461
05026,Louisa,38.025,-78.004
05895,Narrows,37.332,-80.811
05790,Mount Jackson,38.746,-78.642
09046,Waverly,37.036,-77.095
01928,Copper Hill,37.082,-80.134
08870,Victoria,36.995,-78.227
08147,Stanley,38.575,-78.503
02226,Dayton,38.415,-78.939
01630,Chilhowie,36.798,-81.682
09009,Warsaw,37.959,-76.758
03416,Gore,39.264,-78.332
05095,Lyndhurst,38.029,-78.945
07786,Shawsville,37.168,-80.255
01787,Coeburn,36.944,-82.464
08708,Twin Lakes,38.249,-78.444
03548,Greenville,38.003,-79.156
01329,Cana,36.590,-80.672
07076,Rapidan,38.313,-78.066
02854,Exmore,37.532,-75.823
03414,Gordonsville,38.137,-78.188
05519,Middletown,39.028,-78.281
01070,Brightwood,38.422,-78.194
08194,Stuart,36.641,-80.266
07449,Ruckersville,38.233,-78.369
07165,Riner,37.067,-80.441
01697,Clarksville,36.618,-78.565
01996,Courtland,36.716,-77.068
03562,Gretna,36.954,-79.359
01445,Castlewood,36.890,-82.280
09066,Weber City,36.623,-82.562
08073,Springville,37.197,-81.403
01161,Buchanan,37.527,-79.680
02620,Edinburg,38.821,-78.566
01577,Chatham,36.826,-79.398
00970,Bowling Green,38.050,-77.347
02707,Elliston,37.217,-80.233
08148,Stanleytown,36.744,-79.963
06596,Pembroke,37.320,-80.639
04589,Lahore,38.199,-77.968
03640,Halifax,36.766,-78.928
00345,Atkins,36.867,-81.423
03335,Glasgow,37.634,-79.450
05310,Mathews,37.437,-76.320
01475,Cedar Bluff,37.088,-81.759
00516,Bassett,36.759,-79.990
02746,Emory,36.773,-81.836
04733,Lawrenceville,36.758,-77.847
03492,Gratton,37.135,-81.414
01869,Concord,37.345,-78.983
04130,Independence,36.622,-81.151
03728,Harriston,38.217,-78.832
09036,Wattsville,37.934,-75.500
00300,Arrington,37.684,-78.901
07284,Riverdale,36.687,-78.900
06820,Plum Creek,37.130,-80.501
02020,Craigsville,38.079,-79.383
02456,Dryden,36.778,-82.942
04317,Jonesville,36.689,-83.111
06915,Pound,37.124,-82.601
08124,St. Paul,36.907,-82.317
00660,Belview,37.167,-80.510
04719,Laurel Park,36.689,-79.801
04226,Ivy,38.057,-78.597
04439,Keysville,37.040,-78.483
08281,Sugar Grove,36.776,-81.412
02177,Damascus,36.634,-81.784
03081,Fort Defiance,38.240,-78.972
00975,Boyce,39.093,-78.059
07247,Ridgeway,36.577,-79.858
07210,Rich Creek,37.382,-80.823
02973,Fincastle,37.499,-79.877
08941,Wakefield,36.968,-76.990
03611,Gwynn,37.504,-76.289
05998,New Hope,38.198,-78.906
07390,Rose Hill,36.672,-83.367
01325,Camptown,36.686,-76.895
07425,Round Hill,39.133,-77.769
05765,Motley,37.070,-79.341
05511,Middleburg,38.969,-77.736
07722,Sedley,36.776,-76.984
04225,Ivanhoe,36.840,-80.967
07169,Remington,38.534,-77.808
00952,Boston,37.609,-75.843
07557,Saluda,37.606,-76.595
02353,Dinwiddie,37.078,-77.587
07290,Riverview,36.935,-82.482
03659,Hamilton,39.134,-77.662
04549,La Crosse,36.700,-78.100
03393,Goochland,37.684,-77.885
06334,Opal,38.621,-77.800
01749,Clover,36.833,-78.733
07004,Quantico,38.522,-77.294
02437,Draper,37.006,-80.747
00348,Atlantic,37.901,-75.508
04044,Hot Springs,38.000,-79.832
00639,Belle Haven,37.555,-75.824
07696,Scottsville,37.811,-78.488
00017,Accomac,37.720,-75.665
08770,Urbanna,37.638,-76.574
08197,Stewartsville,37.271,-79.793
05590,Mineral,38.011,-77.909
09259,Whitewood,37.236,-81.857
04205,Irvington,37.662,-76.419
01564,Cheriton,37.290,-75.971
07649,Savageville,37.681,-75.757
08650,Troutville,37.418,-79.875
07732,Selma,37.807,-79.848
03253,Gasburg,36.567,-77.896
02192,Dante,36.985,-82.284
04584,Lafayette,37.236,-80.211
03037,Floyd,36.911,-80.320
05649,Moneta,37.181,-79.617
02349,Dillwyn,37.543,-78.457
04034,Horntown,37.970,-75.464
08413,Tangier,37.826,-75.992
01219,Burkeville,37.188,-78.201
00551,Baywood,36.610,-81.012
06027,New River,37.133,-80.591
05690,Montvale,37.385,-79.731
02846,Ewing,36.637,-83.432
05041,Low Moor,37.789,-79.884
09237,White Stone,37.648,-76.389
00874,Bloxom,37.830,-75.623
06081,Nickelsville,36.753,-82.415
02357,Disputanta,37.124,-77.226
02125,Cumberland,37.496,-78.245
03020,Flint Hill,38.763,-78.100
07821,Shipman,37.724,-78.839
01294,Callaghan,37.812,-80.074
00051,Afton,38.022,-78.833
03419,Goshen,37.987,-79.498
04425,Keswick,38.025,-78.356
00051,Afton,38.032,-78.839
05395,McMullin,36.814,-81.578
01679,Claremont,37.228,-76.964
00085,Alberta,36.866,-77.886
07016,Quinby,37.554,-75.734
02588,Eastville,37.353,-75.946
00841,Bland,37.102,-81.116
08343,Sussex,36.915,-77.279
01663,Churchville,38.226,-79.162
06826,Pocahontas,37.304,-81.340
07674,Schuyler,37.792,-78.698
09498,Yorktown,37.239,-76.510
02870,Fairfield,37.879,-79.289
02485,Dungannon,36.828,-82.472
08485,The Plains,38.862,-77.774
01738,Clifton,38.780,-77.387
06661,Phenix,37.080,-78.748
03811,Heathsville,37.918,-76.472
00547,Bayside,37.748,-75.717
00752,Big Island,37.534,-79.360
08447,Temperanceville,37.893,-75.547
01404,Carrsville,36.712,-76.826
02528,Eagle Rock,37.641,-79.801
08340,Surry,37.138,-76.835
05132,Madison,38.380,-78.257
08393,Tacoma,36.938,-82.534
06522,Parrott,37.205,-80.616
03689,Harborton,37.662,-75.830
06882,Port Royal,38.172,-77.191
00756,Big Rock,37.353,-82.189
02255,Deerfield,38.197,-79.407
08225,Stony Creek,36.948,-77.401
00906,Bobtown,37.651,-75.793
00466,Barboursville,38.171,-78.282
01025,Breaks,37.301,-82.279
05674,Monterey,38.412,-79.581
03680,Hanover,37.767,-77.370
05523,Midland,38.600,-77.724
06881,Port Republic,38.289,-78.813
01025,Breaks,37.296,-82.281
04374,Keller,37.619,-75.764
08649,Troutdale,36.702,-81.440
01367,Capron,36.711,-77.200
01732,Cleveland,36.944,-82.152
05452,Mendota,36.711,-82.302
07686,Scotland,37.184,-76.786
06380,Osaka,36.947,-82.811
05077,Lunenburg,36.961,-78.266
05968,New Castle,37.500,-80.111
07695,Scottsburg,36.757,-78.790
01004,Branchville,36.570,-77.249
02882,Fairview,36.815,-78.467
03931,Hillsboro,39.198,-77.723
06475,Palmyra,37.861,-78.263
01835,Columbia,37.752,-78.162
09014,Washington,38.713,-78.159
03937,Hilltown,36.729,-80.982
02479,Dunbar,36.974,-82.747
08998,Warfield,36.896,-77.826
01566,Charles City,37.343,-77.073
08092,St. Charles,36.802,-83.057
02470,Duffield,36.719,-82.796
07949,Snowville,37.033,-80.561
08450,Templeton,37.082,-77.355
03140,Franktown,37.479,-75.879
00522,Batesville,37.996,-78.722
07615,Sanford,37.925,-75.664
01303,Calverton,38.632,-77.671
06216,Oak Hall,37.937,-75.546
05510,Middlebrook,38.051,-79.214
09256,Whitesville,37.782,-75.663
05420,Mechanicsburg,37.148,-80.941
03532,Greenbush,37.741,-75.681
00004,Abbott,37.429,-80.134
00011,Abilene,37.142,-78.544
00020,Achilles,37.280,-76.440
00026,Acorn,36.962,-78.984
00041,Aden,38.655,-77.537
00064,Aily,37.087,-82.286
00067,Airlie,38.657,-77.717
00068,Airmont,39.085,-77.787
00071,Ajax,36.981,-79.577
00088,Albin,39.222,-78.199
00094,Alden,38.274,-77.072
00124,Alleghany,37.747,-80.240
00132,Allentown,37.696,-75.689
00142,Alma,38.591,-78.558
00153,Alpha,37.583,-78.417
00165,Alton,36.573,-79.003
00173,Alvarado,36.650,-81.887
00194,Ammon,37.211,-77.768
00198,Amsterdam,37.427,-79.906
00207,Andersonville,37.468,-78.569
00208,Andover,36.924,-82.797
00213,Angola,37.402,-78.240
00232,Antioch,37.847,-78.421
00232,Antioch,38.859,-77.686
00255,Ararat,36.599,-80.511
00260,Arcadia,37.545,-79.624
00260,Arcadia,38.106,-77.530
00285,Arlington,37.220,-76.004
00292,Armstrong,38.112,-79.521
00296,Arno,36.927,-82.812
00301,Arrowhead,37.979,-78.594
00311,Arvonia,37.684,-78.341
00321,Ashby,37.578,-78.175
00321,Ashby,39.011,-78.135
00331,Ashwood,37.972,-79.850
00342,Athens,37.992,-77.417
00352,Atlee,37.658,-77.407
00353,Atoka,38.976,-77.809
00375,Austinville,36.851,-80.912
00377,Avalon,36.804,-76.271
00386,Avon,38.000,-78.827
00390,Axtell,37.701,-78.601
00410,Bagby,37.926,-77.231
00411,Bagdad,37.905,-77.423
00433,Baldwin,37.740,-79.851
00449,Banco,38.451,-78.282
00457,Banner,36.949,-82.430
00476,Barnes,38.221,-78.448
00498,Bartlett,36.941,-76.537
00503,Bartonsville,39.111,-78.212
00511,Basham,37.036,-80.343
00526,Battle Creek,38.606,-78.586
00547,Bayside,38.106,-76.653
00549,Bayview,37.277,-75.968
00575,Bearwallow,37.241,-81.744
00582,Beaumont,37.666,-77.908
00592,Beaverdam,37.941,-77.654
00603,Bee,37.115,-82.172
00609,Beech Grove,37.876,-78.939
00617,Bel Air,38.336,-77.434
00629,Belinda,37.911,-75.662
00636,Bella Vista,37.107,-80.787
00637,Bellair,38.039,-78.531
00638,Bellamy,37.398,-76.573
00640,Belle Meade,38.657,-77.717
00647,Belleview,37.484,-76.734
00664,Belmont,37.163,-80.447
00664,Belmont,38.154,-77.866
00669,Belvoir,38.657,-77.717
00672,Ben Hur,36.733,-83.082
00674,Bena,37.271,-76.456
00689,Bent Creek,37.535,-78.827
00694,Bentonville,38.832,-78.316
00698,Berea,38.362,-77.520
00700,Berkeley,38.079,-78.486
00717,Berrytown,38.368,-78.657
00720,Bertha,36.902,-80.828
00722,Bertrand,37.669,-76.517
00726,Bessemer,37.647,-79.811
00727,Bethel,39.031,-78.043
00727,Bethel,38.248,-79.650
00727,Bethel,38.655,-77.307
00727,Bethel,36.675,-81.878
00734,Beulah,37.384,-76.442
00735,Beulahville,37.855,-77.179
00737,Beverly,37.952,-77.179
00737,Beverly,37.303,-75.933
00759,Big Spring,38.725,-78.423
00790,Biscoe,37.818,-77.058
00791,Bishop,37.208,-81.560
00813,Blackberry,37.859,-76.282
00819,Blacklick,36.943,-81.257
00826,Blackwater,36.627,-83.051
00826,Blackwater,37.427,-76.400
00827,Blackwell,36.829,-81.856
00828,Blackwood,36.925,-82.693
00835,Blakes,37.499,-76.368
00848,Blenheim,37.904,-78.488
00849,Blessing,36.936,-81.205
00862,Bloomfield,39.053,-77.821
00873,Blowing Rock,37.226,-82.431
00882,Blue Grass,38.500,-79.550
00908,Boer,37.770,-76.582
00920,Bolar,38.217,-79.676
00920,Bowler,37.277,-78.705
00952,Boston,38.541,-78.132
00995,Bradshaw,37.300,-80.224
01009,Brandywine,37.489,-79.153
01059,Bridgeport,37.710,-78.334
01062,Bridgetown,37.446,-75.926
01066,Briggs,39.108,-78.014
01074,Brink,36.618,-77.634
01080,Britain,39.253,-77.697
01083,Broad Run,38.830,-77.721
01084,Broaddus,38.067,-77.295
01085,Broadford,36.927,-81.672
01089,Broadwater,37.393,-75.709
01100,Brooke,38.388,-77.380
01103,Brookfield,38.311,-77.433
01109,Brooklyn,37.151,-80.560
01113,Brookside,38.671,-78.436
01129,Browns Mill,38.951,-77.284
01132,Brownsburg,37.928,-79.319
01135,Brownsville,38.052,-78.699
01137,Browntown,37.836,-78.565
01143,Bruceville,37.092,-78.379
01149,Brunswick,36.648,-77.871
01156,Brutus,37.011,-79.269
01157,Bryant,37.801,-78.956
01169,Buckland,38.780,-77.674
01191,Buffalo Gap,38.187,-79.239
01193,Buffalo Springs,36.646,-78.662
01193,Buffalo Springs,37.610,-78.862
01195,Buford,36.567,-79.546
01216,Burgess,37.882,-76.345
01232,Burnsville,38.178,-79.647
01233,Burnt Factory,39.194,-78.076
01241,Burtonville,38.273,-78.349
01257,Butterworth,37.051,-77.627
01261,Bybee,37.926,-78.206
01289,Colley,37.154,-82.246
01296,Callao,37.969,-76.560
01297,Callaway,37.011,-80.049
01301,Calvary,38.873,-78.552
01304,Calvin,36.852,-82.942
01307,Cambria,37.143,-80.396
01317,Campbell,38.032,-78.302
01351,Canova,38.677,-77.442
01376,Carrie,37.032,-82.206
01385,Carmel,38.827,-78.433
01405,Carson,37.035,-77.396
01407,Carsonville,36.677,-81.070
01411,Cartersville,37.667,-78.088
01411,Cartersville,36.727,-79.384
01413,Carthage,36.968,-80.496
01420,Casanova,38.657,-77.717
01422,Cascade,36.564,-79.670
01429,Cashville,37.702,-75.808
01444,Castleton,38.606,-78.107
01451,Catawba,37.383,-80.109
01465,Cavetown,38.615,-78.449
01467,Caylor,36.631,-83.494
01482,Cedar Grove,36.604,-78.011
01482,Cedar Grove,39.268,-78.189
01482,Cedar Grove,37.173,-75.965
01484,Cedar Hill,39.276,-78.114
01484,Cedar Hill,36.850,-79.313
01489,Cedar Point,37.692,-77.909
01504,Centenary,37.709,-78.512
01519,Centerville,37.757,-75.621
01519,Centerville,38.338,-79.006
01519,Centerville,37.170,-80.538
01523,Central Point,37.989,-77.132
01524,Centralia,37.381,-77.460
01528,Ceres,37.018,-81.343
01538,Chalk Level,36.919,-79.278
01550,Champlain,38.013,-76.993
01551,Chance,38.057,-77.008
01552,Chancellor,38.284,-77.601
01583,Cheapside,37.201,-75.984
01605,Chesapeake,37.308,-75.952
01606,Chesapeake Beach,37.841,-76.250
01610,Chesterfield,37.376,-77.504
01614,Chestnut Grove,38.181,-78.484
01614,Chestnut Grove,37.420,-78.606
01614,Chestnut Grove,37.822,-76.439
01615,Chestnut Hill,38.299,-77.111
01615,Chestnut Hill,37.563,-77.422
01627,Childress,37.821,-77.984
01627,Childress,37.056,-80.504
01648,Christchurch,37.605,-76.534
01658,Chula,37.389,-77.903
01673,Claiborne,38.160,-77.456
01675,Clancie,37.581,-76.693
01677,Claraville,37.917,-76.446
01710,Claytonville,39.091,-78.022
01711,Clayville,37.460,-77.817
01712,Clear Creek,36.939,-82.598
01713,Clear Fork,37.212,-81.187
01720,Clearview,37.548,-75.904
01733,Clifdale,37.681,-80.015
01735,Clifford,37.644,-79.022
01740,Climax,36.887,-79.489
01741,Clinton,37.543,-78.126
01747,Clopton,37.346,-76.540
01747,Clopton,37.475,-77.446
01751,Clover Creek,38.270,-79.549
01752,Clover Hill,38.117,-78.483
01752,Clover Hill,38.452,-79.030
01753,Cloverdale,37.751,-78.236
01777,Coan,37.958,-76.480
01783,Cobham,38.063,-78.268
01788,Cochran,36.843,-77.905
01796,Cohasset,37.770,-78.303
01804,Colchester,38.669,-77.234
01810,Coldwater,37.654,-76.734
01833,Cologne,37.531,-76.691
01855,Comertown,38.498,-78.588
01859,Commonwealth,38.075,-78.487
01861,Compton,38.782,-78.369
01865,Conaway,37.352,-82.212
01869,Concord,36.957,-77.799
01869,Concord,37.364,-76.619
01887,Conklin,38.896,-77.517
01906,Cookstown,38.295,-77.702
01908,Cooktown,38.987,-77.383
01911,Cool Spring,36.834,-77.826
01924,Copeland,37.888,-79.699
01933,Corbin,38.199,-77.389
01942,Corinth,36.789,-80.879
01942,Corinth,36.831,-76.946
01980,Cotton Town,37.397,-78.302
01989,Council,37.080,-82.068
01999,Cove Creek,37.178,-81.293
02005,Cowan,37.185,-80.577
02006,Cowart,37.995,-76.472
02014,Crab,37.265,-76.491
02018,Crafton,37.920,-78.295
02022,Crane,37.910,-79.676
02061,Cripple Creek,36.821,-81.098
02065,Crockett,36.886,-81.192
02081,Cross Keys,38.358,-78.846
02088,Crouch,37.763,-76.897
02099,Crows,37.719,-80.203
02102,Crozier,37.637,-77.797
02113,Crystal Hill,36.856,-78.909
02120,Cullen,37.118,-78.649
02125,Cumberland,37.329,-76.742
02131,Cunningham,37.874,-78.320
02133,Curdsville,37.416,-78.456
02166,Daisy,37.761,-76.922
02179,Damon,37.823,-78.659
02199,Darbyville,36.830,-83.052
02201,Dare,37.169,-76.438
02207,Darwin,37.100,-82.491
02209,Daugherty,37.689,-75.666
02211,Davenport,37.101,-82.137
02220,Dawn,37.835,-77.363
02222,Dawsonville,38.265,-78.315
02234,Deel,37.236,-82.088
02245,Deep Creek,37.767,-75.753
02269,Delaplane,38.915,-77.920
02304,Derby,36.936,-82.826
02321,DeWitt,37.039,-77.643
02340,Dyke,38.254,-78.540
02361,Dixie,37.782,-78.236
02361,Dixie,37.501,-76.414
02384,Dolphin,36.829,-77.787
02397,Dooley,36.931,-82.654
02402,Dorchester,37.468,-77.475
02402,Dorchester,36.942,-82.644
02406,Dorset,37.468,-77.805
02419,Dover,38.976,-77.674
02450,Dry Branch,37.234,-80.618
02452,Dry Fork,37.273,-81.063
02452,Dry Fork,36.754,-79.400
02459,Duane,37.867,-77.247
02478,Dunavant,38.362,-77.665
02481,Duncan,36.912,-80.490
02483,Dundas,36.915,-78.022
02484,Dundee,36.592,-79.376
02499,Durand,36.720,-77.588
02509,Dutton,37.498,-76.457
02534,Earls,37.229,-77.892
02548,East End,38.094,-76.801
02563,East Point,37.720,-75.815
02578,Eastham,38.072,-78.412
02595,Ebenezer,36.817,-79.191
02607,Edgar,37.853,-77.297
02610,Edgehill,37.413,-76.519
02610,Edgehill,38.265,-77.144
02613,Edgerton,36.779,-77.778
02630,Edom,38.526,-78.861
02633,Edwardsville,37.907,-76.365
02655,Elberon,37.074,-76.884
02672,Ely,36.769,-82.990
02682,Elk Creek,36.721,-81.177
02716,Elma,37.754,-78.795
02722,Elmont,37.711,-77.493
02726,Elon,37.518,-79.195
02760,Endicott,36.888,-80.150
02762,Enfield,37.746,-77.219
02785,Epworth,37.791,-77.212
02810,Estes,38.619,-78.061
02815,Ethel,37.996,-76.781
02819,Etta,38.143,-77.173
02821,Eubanks,39.158,-77.770
02841,Evergreen,37.319,-78.766
02845,Ewell,37.329,-76.742
02852,Exeter,36.876,-82.854
02860,Fair Oaks,37.531,-77.316
02879,Fairplay,37.837,-76.619
02881,Fairport,37.833,-76.290
02882,Fairview,37.266,-75.969
02882,Fairview,38.654,-78.429
02884,Fairview Heights,37.817,-79.813
02896,Falling Spring,37.886,-79.979
02921,Farmington,38.051,-78.544
02923,Farnham,37.885,-76.625
02940,Featherstone,38.635,-77.264
02968,Fife,37.749,-78.062
02996,Fitzhugh,36.666,-77.764
02999,Five Forks,38.777,-77.276
02999,Five Forks,38.299,-78.135
02999,Five Forks,37.579,-78.859
02999,Five Forks,36.584,-80.278
02999,Five Forks,37.238,-78.577
02999,Five Forks,38.650,-78.168
03008,Flat Iron,38.148,-76.921
03009,Flat Rock,37.523,-77.823
03010,Flat Top,37.029,-82.397
03013,Flatwoods,37.545,-79.879
03017,Fletcher,38.393,-78.433
03020,Flint Hill,36.795,-79.494
03049,Ford,37.149,-77.736
03052,Fordsville,38.401,-78.116
03062,Forest Hills,38.657,-78.472
03072,Forkland,37.010,-77.956
03086,Fort Mitchell,36.918,-78.486
03098,Foster,37.453,-76.385
03113,Four Forks,37.582,-78.844
03116,Fourway,38.750,-78.268
03116,Fourway,37.133,-81.493
03120,Fox,36.609,-81.293
03133,Franklin,38.043,-78.442
03154,Freeman,36.755,-77.693
03156,Freeport,37.539,-76.507
03158,Freetown,38.048,-78.712
03159,Fremont,37.126,-82.385
03165,Freshwater,37.751,-78.927
03171,Friendship,36.730,-81.741
03178,Frog Level,37.853,-77.324
03178,Frog Level,37.100,-81.563
03180,Frogtown,39.066,-77.934
03192,Fulkerson,36.663,-82.435
03199,Furnace,38.447,-78.558
03205,Gainesboro,39.278,-78.259
03210,Gayles,38.297,-77.315
03220,Galveston,36.920,-79.383
03266,Gaylord,39.188,-77.931
03279,Georgetown,37.832,-76.446
03282,Gera,38.234,-77.180
03288,Germantown,38.614,-77.742
03307,Gilbert,38.146,-78.374
03313,Guilford,37.825,-75.652
03317,Gilley,37.099,-82.675
03332,Gladstone,37.547,-78.849
03362,Glenmore,37.672,-78.590
03362,Glenmore,37.672,-78.590
03367,Glenwood,36.589,-79.366
03370,Globe,37.813,-77.200
03382,Gold Hill,37.624,-78.370
03394,Goode,37.359,-79.392
03401,Goodloe,36.861,-82.860
03406,Goodview,37.214,-79.725
03434,Grady,36.787,-79.637
03437,Grafton,37.165,-76.469
03465,Grandy,36.801,-77.955
03473,Granite Springs,38.188,-77.854
03481,Granville,37.382,-77.241
03494,Gravel Hill,37.584,-78.375
03500,Graysville,37.713,-75.679
03507,Green Acres,36.579,-79.350
03509,Green Bay,37.965,-77.695
03509,Green Bay,37.134,-78.315
03522,Green Pond,36.881,-79.509
03525,Green Spring,39.304,-78.169
03526,Green Valley,38.080,-79.599
03535,Greenfield,37.928,-78.838
03535,Greenfield,36.938,-79.282
03544,Greentown,36.688,-77.779
03550,Greenway,37.341,-77.082
03550,Greenway,37.584,-78.834
03551,Greenwich,38.749,-77.648
03552,Greenwood,38.056,-78.771
03552,Greenwood,37.954,-79.966
03565,Griffith,37.866,-79.727
03567,Grimes,39.278,-78.126
03571,Grit,37.076,-79.248
03574,Groseclose,36.889,-81.347
03574,Groseclose,36.908,-81.209
03579,Grove,37.230,-76.630
03581,Grove Hill,38.529,-78.612
03584,Groveton,38.813,-77.548
03593,Guinea,38.144,-77.438
03598,Gum Spring,37.776,-77.897
03599,Gum Springs,38.740,-77.082
03622,Haden,37.716,-79.834
03626,Hagan,36.704,-83.287
03630,Hague,38.072,-76.651
03635,Haynesville,37.950,-76.662
03639,Halfway,38.657,-77.717
03655,Hamburg,38.658,-78.514
03655,Hamburg,38.805,-78.638
03659,Hamilton,37.659,-78.125
03668,Hampstead,38.333,-77.142
03668,Hampstead,37.606,-77.130
03675,Hanging Rock,37.328,-80.040
03682,Hansonville,36.824,-82.146
03694,Hardscrabble,38.561,-79.573
03696,Hardy,37.232,-79.811
03697,Hardyville,37.557,-76.372
03706,Harman,37.293,-82.202
03720,Harrington,37.844,-79.975
03723,Harrisburg,37.027,-78.748
03749,Hartwood,38.402,-77.565
03752,Harvey,37.598,-79.624
03760,Hatcher,37.562,-78.299
03764,Hatton,37.759,-78.513
03769,Havelock,38.021,-76.839
03783,Haycock,36.873,-80.270
03785,Hayes,37.278,-76.504
03787,Hayfield,39.234,-78.290
03793,Haywood,38.453,-78.252
03817,Heflin,38.488,-77.578
03828,Hematite,37.740,-80.176
03830,Hemlock,37.069,-80.216
03835,Hendersonville,37.146,-78.088
03842,Henry,36.829,-79.992
03842,Henry,36.797,-77.393
03854,Hermitage,37.341,-76.596
03855,Hermosa,36.940,-79.121
03882,Hickory Ridge,38.579,-77.364
03885,Hicksville,37.193,-81.135
03889,Hideaway Lake,37.509,-78.045
03899,Highland,37.165,-80.679
03902,Highland Heights,37.549,-75.834
03904,Highland Park,37.123,-80.998
03921,Hill Grove,37.058,-79.256
03923,Hillcrest,37.483,-78.274
03925,Hilldale,38.667,-78.434
03931,Hillsboro,37.710,-76.983
03940,Hilton Village,37.085,-80.786
03946,Hinesville,36.702,-79.573
03952,Hinton,38.466,-78.972
03963,Hockley,37.396,-76.461
03963,Hockley,37.509,-76.731
03984,Holly Hills,37.506,-77.756
03987,Hollywood,37.390,-78.716
03987,Hollywood,36.834,-79.496
04004,Homeville,36.949,-77.171
04011,Honeyville,38.579,-78.562
04013,Hood,38.355,-78.383
04022,Hopeton,37.807,-75.638
04024,Hopewell,38.873,-77.719
04024,Hopewell,36.747,-79.464
04025,Hopkins,37.791,-75.704
04037,Horsepen,37.228,-81.520
04038,Horseshoe,37.664,-77.149
04045,Hotchkiss,38.001,-79.581
04056,Howardsville,37.735,-78.647
04056,Howardsville,39.038,-77.839
04061,Howland,37.871,-76.455
04073,Huddleston,37.157,-79.474
04076,Huffman,37.348,-80.402
04085,Hume,38.832,-77.999
04092,Hunters,37.941,-78.246
04097,Huntly,38.826,-78.112
04099,Hurley,37.419,-82.022
04114,Ida,38.589,-78.424
04125,Imboden,36.887,-82.805
04128,Imperial,36.842,-83.021
04131,Index,38.194,-77.080
04136,Indian Field,37.948,-76.717
04147,Indian Valley,36.909,-80.552
04161,Ingham,38.529,-78.578
04165,Inglewood,36.642,-78.384
04165,Inglewood,38.390,-78.665
04168,Ingram,36.744,-79.158
04173,Inman,36.910,-82.803
04175,Ino,37.763,-76.798
04181,Intervale,37.298,-79.978
04192,Irby,37.032,-78.043
04217,Isom,37.187,-82.462
04241,Jamaica,37.715,-76.694
04247,Jamestown,37.212,-76.775
04248,Jamesville,37.515,-75.931
04251,Janey,37.222,-82.030
04256,Jasper,36.768,-82.823
04257,Java,36.836,-79.228
04263,Jefferson,37.614,-77.905
04278,Jersey,38.211,-77.139
04300,Johnsontown,37.425,-75.914
04314,Jonesboro,37.784,-78.978
04320,Jordan,37.676,-75.693
04370,Keene,37.865,-78.555
04372,Keith,37.841,-77.256
04376,Kelly,37.387,-79.060
04395,Kennon,37.311,-76.994
04396,Kennard,37.916,-76.748
04410,Kentuck,36.660,-79.298
04434,Key West,38.057,-78.441
04439,Keysville,38.757,-78.035
04444,Kidds Store,37.804,-78.362
04452,Kimball,38.687,-78.403
04453,Kimballton,37.366,-80.677
04457,Kincaid,37.951,-79.939
04460,Kinderhook,38.370,-78.428
04476,Kingsville,37.246,-78.444
04477,Kingswood,37.687,-78.946
04532,Korea,38.631,-78.013
04538,Kremlin,38.029,-76.691
04539,Kress,36.931,-77.810
04580,Ladd,38.056,-78.953
04583,Ladysmith,38.017,-77.515
04587,Lagrange,38.441,-77.853
04594,Lake,37.974,-76.470
04638,Lakeside Village,37.664,-78.178
04642,Lakeview Heights,37.743,-78.869
04644,Lakewood,36.581,-79.305
04660,Lancaster,37.770,-76.466
04670,Lanesville,37.615,-76.979
04675,Langley,38.946,-77.159
04715,Laurel Branch,36.914,-80.393
04716,Laurel Fork,36.718,-80.519
04717,Laurel Grove,36.679,-79.213
04717,Laurel Grove,38.199,-76.963
04727,Lawford,37.617,-78.277
04772,Leesville,37.119,-79.385
04774,Leetown,39.227,-78.078
04791,Lent,38.151,-77.243
04795,Leon,38.438,-78.138
04823,Lewiston,38.069,-77.742
04825,Lewisville,39.198,-77.950
04826,Lexington,38.197,-78.482
04831,Liberty,38.143,-77.353
04831,Liberty,38.600,-77.772
04831,Liberty,36.884,-78.975
04831,Liberty,38.289,-79.459
04831,Liberty,37.057,-81.654
04837,Lick Skillet,36.894,-81.791
04845,Lilburn,37.522,-77.839
04847,Lilian,37.862,-76.300
04848,Lilly,38.467,-79.014
04861,Lincoln,39.115,-77.695
04871,Lindell,36.804,-81.901
04872,Linden,38.908,-78.075
04872,Linden,36.915,-82.821
04876,Lindsay,38.088,-78.246
04893,Lithia,37.478,-79.751
04900,Little Falls,38.273,-77.421
04901,Little Hell,37.666,-75.777
04908,Little Texas,36.602,-77.339
04913,Littleton,36.903,-77.149
04917,Lively,37.778,-76.514
04924,Lloyds,38.001,-77.015
04941,Locust Hill,37.599,-76.511
04941,Locust Hill,38.654,-77.491
04941,Locust Hill,36.958,-80.915
04944,Lodge,37.992,-76.543
04946,Lodi,36.715,-81.777
04968,Lone Star,37.462,-79.993
04972,Long Branch,38.188,-77.393
04976,Long Island,37.079,-79.094
04981,Longdale,37.833,-79.776
05005,Loretto,38.076,-77.051
05007,Lorne,37.862,-77.354
05031,Love,37.885,-79.010
05045,Lowesville,37.719,-79.065
05047,Lowry,37.351,-79.431
05062,Lucks,36.813,-79.219
05090,Lydia,38.330,-78.491
05112,Macedonia,37.826,-75.605
05125,Macon,37.522,-77.962
05135,Madison Mills,38.281,-78.141
05141,Maggie,37.423,-80.382
05199,Manteo,37.677,-78.663
05210,Maple Grove,38.252,-77.031
05222,Maplewood,37.316,-78.049
05237,Markham,38.904,-78.002
05237,Markham,36.879,-79.242
05252,Marionville,37.453,-75.855
05256,Marksville,38.575,-78.479
05258,Marlboro,39.081,-78.322
05295,Mascot,37.627,-76.707
05318,Mauck,38.560,-78.446
05324,Mauzy,38.569,-78.752
05326,Maxie,37.301,-82.174
05335,Mayflower,36.830,-83.081
05337,Mayland,38.589,-78.771
05358,McClure,37.102,-82.376
05366,McCoy,37.217,-80.598
05368,McRae,37.461,-78.282
05369,McCullough,37.757,-78.615
05376,McDowell,38.336,-79.491
05381,McHenry,38.172,-77.706
05394,McMullen,38.348,-78.458
05414,Meadowdale,38.376,-79.665
05422,Mechanicsville,39.220,-77.744
05422,Mechanicsville,37.713,-79.406
05422,Mechanicsville,38.668,-78.788
05497,Mica,38.141,-77.356
05517,Middlesex,37.584,-75.810
05519,Middletown,37.484,-75.868
05528,Midway,38.028,-78.706
05528,Midway,37.391,-80.808
05528,Midway,38.237,-78.386
05528,Midway,36.798,-78.778
05528,Midway,37.756,-77.126
05528,Midway,36.672,-78.258
05528,Midway,36.786,-81.876
05531,Mila,37.842,-76.328
05534,Milbank,38.190,-77.199
05537,Miles,37.409,-76.363
05540,Milford,38.023,-77.373
05543,Mill Creek,37.267,-76.412
05548,Millard,37.133,-82.386
05549,Millboro,37.975,-79.603
05570,Millington,38.123,-78.612
05575,Milltown,39.235,-77.626
05577,Millwood,39.069,-78.038
05577,Millwood,37.365,-76.550
05583,Milton,38.005,-78.403
05583,Milton,37.307,-77.024
05589,Minor,37.839,-76.983
05636,Mohawk,36.849,-82.889
05644,Monarch,36.835,-83.031
05651,Money,37.401,-76.521
05658,Monroe,37.502,-79.128
05672,Montebello,37.864,-79.138
05678,Montezuma,38.409,-78.988
05686,Montpelier,37.377,-77.159
05692,Montvue,38.071,-78.513
05695,Moon,37.443,-76.293
05697,Moonlight,36.730,-77.509
05707,Mooretown,38.104,-79.901
05717,Moran,37.229,-78.259
05736,Morning Star,38.646,-78.366
05745,Morrisonville,39.223,-77.668
05747,Morrisville,38.502,-77.700
05751,Morven,37.418,-78.076
05753,Moscow,38.317,-79.089
05761,Moss Neck,38.221,-77.299
05762,Moss Run,37.788,-80.102
05764,Mossy Creek,38.357,-79.029
05774,Mount Airy,37.351,-76.918
05774,Mount Airy,36.943,-79.192
05783,Mount Gilead,39.059,-77.664
05787,Mount Holly,38.092,-76.718
05794,Mount Meridian,38.261,-78.860
05799,Mount Olivet,37.044,-80.810
05801,Mount Pleasant,39.172,-78.295
05808,Mount Union,37.452,-79.970
05817,Mountain Grove,38.099,-79.887
05818,Mountain Hill,36.557,-79.319
05825,Mountain View,37.088,-80.620
05829,Mountville,39.025,-77.712
05848,Munford,37.510,-79.613
05855,Murphy,37.127,-82.174
05863,Museville,36.913,-79.591
05868,Mustoe,38.324,-79.640
05868,Mustoe,38.309,-77.280
05883,Nance,37.461,-77.127
05884,Nancy,37.130,-82.278
05896,Naruna,37.106,-79.002
05897,Nash,37.858,-79.046
05901,Natal,36.987,-79.267
05907,Natural Bridge,37.630,-79.543
05917,Nebo,36.942,-81.442
05921,Needmore,36.958,-82.633
05923,Neenah,38.048,-76.721
05928,Nelson,36.563,-78.705
05948,New Alexandria,38.776,-77.057
05965,New Canton,37.705,-78.299
05998,New Hope,37.341,-77.061
06007,New London,37.302,-79.280
06007,New London,38.139,-77.318
06020,New Point,37.346,-76.278
06049,Newbern,37.073,-80.691
06060,Newland,38.050,-76.872
06065,Newport,38.001,-79.301
06065,Newport,37.294,-80.495
06065,Newport,38.579,-78.596
06071,Newtown,38.046,-78.787
06071,Newtown,38.237,-78.337
06071,Newtown,37.913,-77.129
06071,Newtown,37.789,-76.484
06072,Newville,37.185,-77.147
06089,Ninde,38.271,-77.055
06091,Nineveh,39.016,-78.165
06101,Nokomis,37.944,-76.480
06108,Nora,37.071,-82.347
06115,Norge,37.368,-76.771
06126,North,37.444,-76.406
06128,North Arlington,38.871,-77.098
06189,Norwood,38.145,-78.471
06189,Norwood,37.643,-78.809
06191,Nottingham,37.345,-75.949
06194,Nuckols,37.594,-78.321
06207,O'Neal,38.346,-78.267
06212,Oak Forest,37.537,-78.194
06214,Oak Grove,37.842,-76.424
06214,Oak Grove,38.182,-76.997
06218,Oak Hill,38.005,-78.523
06218,Oak Hill,38.926,-77.402
06218,Oak Hill,38.734,-78.413
06218,Oak Hill,36.554,-79.597
06226,Oak Ridge,37.709,-78.877
06226,Oak Ridge,36.581,-79.546
06236,Oakland Park,37.511,-75.821
06242,Oakville,37.432,-78.856
06243,Oakwood,37.213,-82.006
06259,Octagon,36.903,-77.899
06276,Oilville,37.704,-77.785
06285,Old Church,37.645,-77.221
06305,Olinger,36.817,-82.865
06306,Olive,38.219,-77.441
06319,Omaha,37.097,-82.435
06348,Orchid,37.829,-77.895
06349,Ordinary,37.316,-76.513
06361,Oriskany,37.616,-79.984
06420,Overall,38.804,-78.348
06424,Overton,37.957,-78.468
06431,Owens,38.339,-77.086
06432,Owensville,38.101,-78.575
06433,Owenton,37.884,-77.100
06452,Page,37.180,-81.995
06452,Paige,38.072,-77.419
06455,Paineville,37.388,-78.120
06472,Palmer,37.624,-76.351
06477,Palo Alto,38.423,-79.370
06480,Pampa,37.526,-76.593
06498,Pardee,37.007,-82.752
06499,Paris,39.004,-77.951
06519,Parr,37.660,-79.909
06532,Patterson,37.264,-81.976
06532,Patterson,36.891,-80.785
06533,Paytes,38.227,-77.833
06535,Patna,38.234,-79.524
06545,Pattonsville,36.699,-82.851
06554,Paxson,39.096,-77.808
06556,Payne,37.753,-78.442
06557,Paynesville,37.332,-81.891
06566,Peachtree,37.338,-79.866
06570,Peapatch,37.284,-81.789
06571,Pirkey,38.274,-78.554
06576,Pearly,37.274,-82.143
06578,Peary,37.372,-76.279
06594,Pemberton,37.675,-78.085
06611,Pennyville,37.617,-75.833
06627,Perrin,37.270,-76.424
06656,Peytonsburg,36.824,-79.168
06668,Philpott,36.790,-80.006
06677,Pickaway,36.778,-79.185
06679,Pickerel,36.977,-79.411
06684,Piedmont,38.214,-78.899
06684,Piedmont,37.100,-80.219
06684,Piedmont,37.611,-78.922
06698,Pilot,37.052,-80.364
06718,Pine Grove,38.536,-78.480
06738,Pinetta,37.416,-76.638
06759,Pisgah,37.121,-81.573
06769,Pittsville,36.982,-79.462
06775,Plain View,37.496,-76.668
06775,Plain View,37.538,-77.888
06793,Pleasant Gap,36.703,-79.445
06794,Pleasant Grove,36.545,-79.394
06806,Pleasant Valley,37.468,-78.470
06806,Pleasant Valley,38.385,-78.897
06850,Pomona,38.226,-77.027
06866,Poplar,38.014,-77.412
06867,Poplar Grove,37.585,-77.038
06888,Porters,37.825,-78.599
06897,Possum Trot,38.470,-79.532
06900,Post Oak,38.166,-77.663
06905,Potomac Mills,38.163,-76.942
06920,Powellton,36.667,-77.792
06926,Powhatan,37.542,-77.919
06963,Prim,38.249,-77.070
06973,Prospect,37.303,-78.559
06991,Purdy,36.822,-77.588
06997,Pyletown,39.106,-78.043
07000,Quail,37.930,-78.033
07012,Queenstown,37.681,-76.487
07020,Quinton,37.534,-77.121
07036,Radium,36.732,-77.628
07045,Rainbow,38.758,-77.335
07061,Ramsey,37.855,-78.962
07066,Randolph,36.894,-78.698
07084,Rawhide,36.856,-82.911
07085,Rawlings,36.949,-77.779
07088,Ray,36.936,-79.311
07105,Reager,38.842,-78.124
07110,Red Ash,37.113,-81.871
07111,Red Bank,37.445,-75.842
07112,Red Banks,38.799,-78.596
07119,Red House,37.189,-78.812
07124,Red Oak,36.784,-78.615
07135,Redeye,36.905,-79.476
07138,Redland,37.954,-78.529
07146,Redwood,37.020,-79.812
07149,Reeds,37.338,-78.404
07152,Reedtown,37.380,-75.915
07153,Reedville,37.842,-76.276
07160,Regina,37.804,-76.418
07183,Rescue,36.996,-76.561
07185,Rest,39.290,-78.083
07189,Reva,38.494,-78.133
07191,Rue,37.787,-75.606
07201,Rhoadesville,38.273,-77.928
07202,Roda,36.968,-82.833
07208,Riceville,36.891,-79.169
07216,Richardsville,38.400,-77.729
07247,Ridgeway,36.989,-79.483
07254,Rileyville,38.765,-78.388
07260,Ringgold,36.608,-79.295
07267,Rio Vista,37.569,-77.523
07268,Ryan,39.015,-77.493
07287,Riverside,37.246,-80.175
07295,Roane,37.448,-76.705
07308,Rochelle,38.290,-78.272
07318,Rock Mills,38.655,-78.129
07323,Rockaway,37.852,-78.264
07328,Rockfish,37.801,-78.756
07340,Rockville,37.726,-77.678
07349,Rocky Point,37.579,-79.612
07354,Rowe,37.136,-82.032
07357,Rogers,37.088,-80.397
07369,Romancoke,37.574,-76.851
07376,Rondo,36.829,-79.532
07390,Rose Hill,37.992,-78.419
07390,Rose Hill,38.716,-78.125
07396,Rosedale,36.959,-81.931
07398,Roseland,37.748,-78.976
07406,Roseville,38.465,-77.504
07420,Roth,37.245,-81.973
07425,Round Hill,39.194,-78.242
07425,Round Hill,38.560,-78.158
07440,Roxbury,37.465,-77.141
07447,Ruby,38.504,-77.516
07453,Ruff,37.410,-76.313
07456,Rugby,36.611,-81.451
07459,Rumford,37.725,-77.089
07481,Rustic,37.292,-76.934
07483,Ruth,38.394,-78.314
07484,Rutherford,38.829,-77.263
07486,Ruthville,37.367,-77.041
07515,Saint George,38.268,-78.552
07523,Saint Louis,39.004,-77.790
07532,Saxe,36.930,-78.663
07536,Salem,38.644,-78.548
07544,Salisbury,37.608,-79.782
07607,Sandy Hook,37.753,-77.912
07609,Sandy Point,37.820,-76.308
07609,Sandy Point,38.068,-76.536
07633,Sarah,37.389,-76.282
07635,Saratoga,39.083,-78.059
07642,Sassafras,37.407,-76.607
07668,Schley,37.390,-76.455
07698,Scrabble,38.582,-78.159
07701,Scuffletown,38.259,-78.298
07705,Seaboard,37.140,-81.782
07708,Seaford,37.198,-76.433
07714,Seaview,37.262,-75.946
07727,Selden,37.356,-76.469
07735,Seminary,36.811,-82.834
07749,Severn,37.294,-76.416
07758,Shady Grove,38.260,-78.593
07759,Shady Lane,37.715,-79.022
07761,Shadyside,37.398,-75.912
07766,Shanghai,37.608,-76.779
07772,Sharon,36.658,-79.530
07776,Sharps,37.824,-76.701
07791,Shelby,38.321,-78.308
07818,Shields,37.570,-75.854
07818,Shields,37.267,-78.647
07819,Shiloh,38.087,-79.651
07819,Shiloh,38.221,-77.111
07819,Shiloh,37.025,-80.714
07819,Shiloh,38.503,-77.504
07828,Shockoe,36.809,-79.264
07835,Shortt Gap,37.157,-81.873
07837,Shupe,36.983,-81.161
07847,Sigma,36.830,-82.937
07852,Siler,39.351,-78.239
07896,Slabtown,37.676,-76.497
07898,Slate,37.306,-81.949
07899,Slate Mills,38.531,-78.183
07904,Sleepy Hollow,38.867,-77.165
07913,Smart,36.922,-80.200
07914,Smedley,38.698,-78.217
07915,Smiley,36.693,-83.287
07930,Smithville,37.667,-75.844
07938,Snell,38.148,-77.601
07944,Snow Hill,37.540,-76.750
07947,Snowflake,36.690,-82.490
07960,Solitude,37.564,-79.606
07966,Somers,37.788,-76.566
07967,Somerset,38.208,-78.218
07969,Somerville,38.522,-77.609
07974,Sorrell,37.954,-77.196
08010,Southampton,37.556,-77.549
08012,Southbridge,38.576,-77.299
08029,Sparta,37.992,-77.230
08034,Speedwell,36.814,-81.172
08035,Spencer,36.620,-80.007
08043,Spottswood,37.955,-79.214
08053,Spring Garden,36.780,-79.305
08055,Spring Grove,37.166,-76.973
08056,Spring Hill,38.256,-79.052
08059,Spring Mills,37.245,-78.919
08062,Spring Valley,38.331,-77.461
08067,Springfield,38.132,-78.428
08067,Springfield,38.704,-78.446
08067,Springfield,38.219,-76.986
08132,Stacy,37.321,-81.996
08136,Staffordsville,37.241,-80.717
08148,Stanleytown,36.771,-82.689
08162,Starkey,37.201,-79.999
08174,Stearnes,37.701,-78.239
08184,Stephenson,39.237,-78.106
08186,Stepping Stone,37.348,-79.849
08191,Stevensburg,38.441,-77.900
08192,Stevensville,37.728,-76.920
08217,Stone Creek,36.776,-83.057
08223,Stonewall,37.808,-80.067
08223,Stonewall,37.411,-78.960
08226,Stony Point,38.113,-78.371
08249,Stratton,37.088,-82.361
08255,Stringtown,39.188,-77.978
08263,Stubbs,38.150,-77.829
08265,Studley,37.676,-77.291
08266,Stumptown,39.208,-77.551
08266,Stumptown,37.340,-75.947
08281,Sugar Grove,37.102,-80.343
08288,Sullivan,38.312,-77.409
08322,Sunny Side,37.479,-78.159
08329,Sunrise,38.193,-79.814
08336,Supply,38.094,-77.136
08344,Sutherland,37.196,-77.560
08345,Sutherlin,36.625,-79.197
08376,Sycamore,37.024,-79.358
08386,Syria,38.488,-78.326
08388,Tabernacle,37.423,-76.296
08394,Taft,37.633,-76.391
08396,Taggart,37.723,-78.421
08412,Tamworth,37.648,-78.081
08415,Tannersville,36.973,-81.625
08432,Taylorstown,39.254,-77.575
08477,Thaxton,37.353,-79.616
08482,The Meadows,37.331,-75.950
08483,The Oaks,37.894,-75.511
08484,The Pines,38.159,-78.487
08493,Thomas,37.345,-82.168
08495,Thomastown,38.008,-79.841
08504,Thornburg,38.133,-77.522
08525,Tidewater,37.855,-76.699
08543,Tindall,37.004,-80.338
08550,Tiptop,37.211,-81.434
08551,Tyro,37.822,-79.005
08557,Tobacco,36.890,-77.938
08558,Tobaccoville,37.483,-78.096
08566,Toga,37.494,-78.633
08607,Townsend,37.185,-75.958
08616,Trammel,37.014,-82.294
08618,Trapp,39.058,-77.866
08633,Trimble,38.304,-79.619
08635,Trinity,37.456,-79.890
08678,Turbeville,36.623,-79.039
08690,Turpin,37.761,-77.147
08718,Tylerton,38.282,-77.434
08737,Union,36.810,-80.442
08744,Union Hill,37.538,-78.329
08746,Union Mills,37.939,-78.301
08752,Uniontown,38.821,-77.452
08753,Unionville,38.260,-77.968
08762,Uno,38.259,-78.231
08807,Van,36.614,-83.156
08816,Vance,36.666,-79.558
08821,Vanderpool,38.369,-79.625
08823,Vandyke,37.142,-81.922
08831,Vaucluse,39.058,-78.247
08832,Vaughn,38.719,-78.397
08837,Velma,37.647,-76.716
08843,Vera,37.414,-78.764
08845,Verbena,38.465,-78.616
08861,Vesta,36.717,-80.358
08882,Village,37.949,-76.604
08925,Wadesville,39.242,-78.039
08957,Walkerton,37.726,-77.023
08982,Walters,36.773,-76.849
08989,Wan,37.425,-76.506
08995,Wardell,37.031,-81.794
09000,Warm Springs,38.046,-79.791
09001,Warminster,37.688,-78.698
09003,Warren,37.766,-78.558
09024,Waterfall,38.862,-77.672
09025,Waterford,39.187,-77.610
09026,Waterloo,39.083,-78.083
09026,Waterloo,37.596,-77.168
09034,Watson,38.993,-77.596
09046,Waverly,38.164,-77.177
09054,Wayside,37.373,-77.195
09055,Weal,36.825,-79.457
09066,Weber City,37.755,-78.284
09067,Webster,37.351,-79.827
09073,Weems,37.655,-76.444
09080,Welcome,38.197,-77.136
09082,Weldon,37.088,-80.805
09084,Weller,37.330,-82.176
09086,Wellford,37.886,-76.766
09087,Wellington,38.790,-77.561
09107,Wesson,36.760,-77.865
09121,West End,37.438,-76.699
09123,West Fork,36.624,-79.631
09169,Westfield,38.074,-78.486
09172,Westhampton,38.904,-77.185
09176,Westland,37.617,-76.293
09179,Westmoreland,38.064,-76.559
09197,Wheatfield,39.073,-78.372
09198,Wheatland,39.191,-77.676
09200,Wheeler,36.622,-83.555
09211,Whitacre,39.332,-78.327
09223,White Hall,38.118,-78.661
09223,White Hall,39.291,-78.148
09226,White House,37.572,-77.042
09226,White House,38.647,-78.533
09228,White Marsh,37.343,-76.521
09230,White Oak,38.301,-77.375
09233,White Plains,36.644,-77.958
09235,White Rock,37.890,-79.061
09245,Whitehall,37.734,-77.043
09257,Whiteville,37.602,-78.168
09260,Whitfield,36.547,-79.472
09270,Witt,36.681,-79.400
09277,Wickliffe,39.166,-77.892
09280,Wightman,36.790,-78.303
09291,Wildwood,37.903,-78.257
09300,Williams,37.401,-76.328
09308,Williamsville,38.195,-79.571
09311,Willis,36.858,-80.481
09311,Willis,36.868,-82.114
09313,Willisville,39.007,-77.834
09314,Willoughby,38.013,-78.496
09329,Wilmington,37.849,-78.201
09332,Wilmot,38.156,-77.072
09357,Winnie,37.073,-78.132
09369,Winterville,37.838,-75.642
09379,Wishart,37.884,-75.494
09391,Wolford,37.364,-81.991
09399,Woodridge,37.897,-78.436
09404,Woodbrook,38.086,-78.466
09405,Woodburn,39.090,-77.619
09408,Woodford,38.113,-77.409
09415,Woodland Park,38.674,-78.459
09415,Woodland Park,37.519,-77.461
09417,Woodlawn,36.810,-79.393
09431,Woodstock,37.476,-75.847
09433,Woodville,38.607,-78.175
09435,Woodway,36.732,-82.992
09451,Wren,37.119,-78.850
09452,Wright,37.165,-79.974
09456,Wrightsville,38.028,-77.331
09470,Yale,36.846,-77.287
09474,Yancey Mills,38.047,-78.725
09476,Yankeetown,38.671,-78.941
09478,Yards,37.292,-81.310
09514,Zanoni,37.389,-76.487