phoneme,name,latitude,longitude
01567,Charleston,38.350,-81.633
04095,Huntington,38.411,-82.435
06507,Parkersburg,39.267,-81.562
05730,Morgantown,39.630,-79.956
09203,Wheeling,40.074,-80.696
05283,Martinsburg,39.456,-77.964
02876,Fairmont,39.485,-80.143
01693,Clarksburg,39.281,-80.345
07983,South Charleston,38.368,-81.700
08084,St. Albans,38.386,-81.836
08874,Vienna,39.327,-81.548
00894,Bluefield,37.270,-81.222
01059,Bridgeport,39.286,-80.256
06218,Oak Hill,37.972,-81.149
05771,Moundsville,39.920,-80.743
02479,Dunbar,38.361,-81.737
04101,Hurricane,38.433,-82.020
02692,Elkins,38.926,-79.847
06559,Pea Ridge,38.414,-82.320
01105,Brookhaven,39.612,-79.905
06965,Princeton,37.366,-81.103
01208,Bunker Hill,39.333,-78.054
04345,Keyser,39.441,-78.974
03437,Grafton,39.341,-80.019
00466,Barboursville,38.410,-82.295
09181,Westover,39.635,-79.970
06835,Point Pleasant,38.845,-82.137
09180,Weston,39.038,-80.467
04822,Lewisburg,37.802,-80.446
06706,Pinch,38.409,-81.482
06806,Pleasant Valley,39.455,-80.142
07768,Shannondale,39.217,-77.807
08297,Summersville,38.281,-80.853
04479,Kingwood,39.472,-79.683
07269,Ripley,38.819,-81.711
09307,Williamstown,39.401,-81.448
09304,Williamson,37.674,-82.277
02122,Culloden,38.415,-82.071
02939,Fayetteville,38.053,-81.104
05132,Madison,38.067,-81.819
05583,Milton,38.435,-82.132
04183,Inwood,39.358,-78.040
00731,Bethlehem,40.044,-80.691
05700,Moorefield,39.062,-78.969
09091,Wellsburg,40.272,-80.610
09347,Winfield,38.533,-81.893
06642,Petersburg,38.993,-79.124
03952,Hinton,37.674,-80.889
09238,White Sulphur Springs,37.797,-80.298
02020,Craigsville,38.331,-80.653
01609,Chester,40.613,-80.563
02015,Crab Orchard,37.741,-81.231
08035,Spencer,38.802,-81.351
05190,Mannington,39.531,-80.343
09079,Welch,37.433,-81.585
00993,Bradley,37.865,-81.194
08118,St. Marys,39.392,-81.205
08156,Star City,39.658,-79.986
07372,Romney,39.342,-78.757
02832,Evans,38.820,-81.779
03730,Harrisville,39.210,-81.052
07229,Richwood,38.225,-80.533
05107,MacArthur,37.758,-81.213
09135,West Liberty,40.170,-80.594
02669,Eleanor,38.538,-81.932
00904,Boaz,39.361,-81.502
07805,Shepherdstown,39.430,-77.804
03342,Glen Dale,39.949,-80.754
01762,Coal City,37.679,-81.210
07536,Salem,39.283,-80.559
05993,New Haven,38.986,-81.973
09050,Wayne,38.221,-82.442
06977,Prosperity,37.837,-81.202
04948,Logan,37.849,-81.993
01527,Ceredo,38.396,-82.559
03481,Granville,39.646,-79.987
01439,Cassville,39.666,-80.064
02187,Daniels,37.743,-81.123
01605,Chesapeake,38.223,-81.536
00585,Beaver,37.748,-81.142
06524,Parsons,39.096,-79.681
00423,Baker,39.042,-78.745
05679,Montgomery,38.173,-81.320
09263,Whitman,37.813,-82.024
06053,Newell,40.618,-80.604
00696,Benwood,40.018,-80.734
05162,Mallory,37.731,-81.838
09014,Washington,39.261,-81.672
02777,Enterprise,39.421,-80.278
01188,Buffalo,38.618,-81.982
00171,Alum Creek,38.289,-81.839
00616,Belle,38.232,-81.538
05052,Lubeck,39.235,-81.631
03363,Glenville,38.934,-80.838
07957,Sophia,37.708,-81.251
02491,Dunlow,38.023,-82.432
05788,Mount Hope,37.895,-81.164
06606,Pennsboro,39.285,-80.968
00924,Bolivar,39.323,-77.753
03662,Hamlin,38.279,-82.103
05974,New Cumberland,40.497,-80.607
04289,Jimtown,38.918,-80.001
00097,Alderson,37.730,-80.642
00342,Athens,37.422,-81.016
00294,Arnett,38.809,-80.721
01776,Coalwood,37.387,-81.653
07063,Rand,38.283,-81.562
07462,Rupert,37.963,-80.690
00664,Belmont,39.380,-81.258
08348,Sutton,38.665,-80.710
05296,Mason,39.022,-82.029
01310,Cameron,39.827,-80.566
06145,North Hills,39.316,-81.513
04003,Hometown,38.533,-81.861
04117,Idamay,39.497,-80.257
02452,Dry Fork,38.969,-79.503
05169,Man,37.740,-81.878
00523,Bath,39.625,-78.228
03256,Gassaway,38.673,-80.775
00728,Bethany,40.206,-80.557
01580,Chattaroy,37.703,-82.281
03936,Hilltop,37.943,-81.151
03251,Gary,37.364,-81.550
09046,Waverly,39.338,-81.380
00036,Addison,38.478,-80.405
05361,McConnell,37.826,-81.967
06684,Piedmont,39.480,-79.048
02676,Elizabeth,39.063,-81.395
09223,White Hall,39.421,-80.183
01482,Cedar Grove,38.221,-81.428
05509,Middlebourne,39.492,-80.904
03335,Glasgow,38.215,-81.425
09156,West Union,39.296,-80.777
08625,Triadelphia,40.053,-80.628
02219,Dawes,38.143,-81.452
04263,Jefferson,38.375,-81.780
02195,Danville,38.081,-81.834
06740,Pineville,37.583,-81.537
01147,Bruno,37.691,-81.869
00737,Beverly,38.841,-79.875
05669,Montcalm,37.354,-81.253
00941,Boomer,38.151,-81.287
08493,Thomas,39.149,-79.498
02215,Davis,39.129,-79.465
07241,Ridgeley,39.641,-78.774
03296,Ghent,37.617,-81.115
07151,Reedsville,39.511,-79.798
05543,Mill Creek,38.731,-79.970
03971,Holden,37.824,-82.060
00607,Beech Bottom,40.226,-80.651
06920,Powellton,38.099,-81.324
05298,Masontown,39.552,-79.798
03737,Hartford City,39.004,-81.989
07839,Shrewsbury,38.206,-81.472
07030,Racine,38.142,-81.660
01285,Caldwell,37.781,-80.394
05645,Monaville,37.812,-81.995
08790,Valley Bend,38.772,-79.925
03133,Franklin,38.643,-79.331
02005,Cowen,38.410,-80.558
03848,Hepzibah,39.333,-80.335
03479,Grantsville,38.923,-81.096
04343,Justice,37.589,-81.835
06945,Pratt,38.210,-81.384
01941,Corinne,37.573,-81.356
01720,Clearview,40.141,-80.688
06644,Peterstown,37.397,-80.799
09140,West Milford,39.201,-80.404
08737,Union,37.592,-80.544
01581,Chauncey,37.766,-81.988
03547,Greenview,37.994,-81.816
06552,Paw Paw,39.532,-78.458
08067,Springfield,39.451,-78.694
02921,Farmington,39.513,-80.249
01232,Burnsville,38.856,-80.655
05778,Mount Carbon,38.138,-81.286
09136,West Logan,37.867,-81.987
06961,Prichard,38.240,-82.598
00450,Bancroft,38.510,-81.840
01704,Clay,38.460,-81.085
02882,Fairview,39.593,-80.248
05016,Lost Creek,39.161,-80.352
01341,Canfield,38.916,-79.816
09344,Windsor Heights,40.191,-80.665
06718,Pine Grove,39.566,-80.679
03886,Hico,38.117,-81.006
09256,Whitesville,37.975,-81.529
06026,New Richmond,37.570,-81.489
04778,Lester,37.735,-81.300
03307,Gilbert,37.614,-81.867
08963,Wallace,39.410,-80.490
08676,Tunnelton,39.392,-79.748
03016,Flemington,39.266,-80.132
04418,Kermit,37.844,-82.409
04457,Kincaid,38.041,-81.270
08578,Toney,38.011,-82.073
07029,Rachel,39.518,-80.304
04454,Kimberly,38.136,-81.303
01182,Bud,37.538,-81.379
06320,Omar,37.756,-82.000
06183,Norton,38.932,-79.966
01391,Carolina,39.480,-80.273
03358,Glengary,39.384,-78.156
04497,Kistler,37.756,-81.860
01002,Bramwell,37.325,-81.312
06048,Newburg,39.388,-79.853
00371,Aurora,39.324,-79.555
02107,Crumpler,37.425,-81.342
03714,Harpers Ferry,39.325,-77.739
08546,Tioga,38.420,-80.656
00926,Bolt,37.762,-81.412
00090,Albright,39.494,-79.643
03013,Flatwoods,38.723,-80.650
02502,Durbin,38.546,-79.825
06172,Northfork,37.421,-81.440
02697,Ellenboro,39.265,-81.056
03931,Hillsboro,38.135,-80.213
03834,Henderson,38.834,-82.138
02212,Davy,37.478,-81.653
07270,Rippon,39.218,-77.905
03836,Hendricks,39.075,-79.631
03672,Handley,38.187,-81.365
00995,Bradshaw,37.352,-81.799
08374,Switzer,37.793,-81.988
07100,Reader,39.569,-80.733
00538,Bayard,39.273,-79.364
01009,Brandywine,38.625,-79.245
09394,Womelsdorf,38.898,-79.964
04438,Keystone,37.415,-81.451
06452,Page,38.053,-81.270
09449,Worthington,39.453,-80.260
01225,Burlington,39.338,-78.918
01279,Cairo,39.209,-81.157
05314,Matoaka,37.420,-81.243
02896,Falling Spring,37.992,-80.354
07948,Snowshoe,38.410,-80.014
08383,Sylvester,38.010,-81.558
00243,Apple Grove,38.665,-82.169
01857,Comfort,38.130,-81.616
04452,Kimball,37.426,-81.507
07135,Reedy,38.900,-81.425
02116,Crystal Springs,38.941,-79.877
04913,Littleton,39.698,-80.517
05688,Montrose,39.068,-79.810
01007,Brandonville,39.666,-79.621
04795,Leon,38.751,-81.961
06986,Pullman,39.187,-80.950
00825,Blacksville,39.720,-80.212
08807,Van,37.971,-81.711
02361,Dixie,38.251,-81.194
00748,Big Creek,38.004,-82.040
01526,Century,39.100,-80.189
03217,Galloway,39.232,-80.122
07924,Smithfield,39.500,-80.562
03170,Friendly,39.516,-81.059
03706,Harman,38.922,-79.525
02951,Fenwick,38.229,-80.582
04235,Jacksonburg,39.532,-80.642
00505,Bartow,38.541,-79.784
00698,Berea,39.136,-80.934
01035,Brenton,37.596,-81.636
00360,Auburn,39.096,-80.856
04093,Huntersville,38.189,-80.016
07552,Salt Rock,38.323,-82.221
09264,Whitmer,38.813,-79.549
03525,Green Spring,39.532,-78.616
08703,Twilight,37.927,-81.623
08796,Valley Head,38.545,-80.036
03508,Green Bank,38.420,-79.831
03130,Frank,38.548,-79.806
03613,Gypsy,39.369,-80.318
02163,Dailey,38.799,-79.896
02105,Crum,37.906,-82.446
03827,Helvetia,38.706,-80.201
05307,Matheny,37.665,-81.600
01712,Clear Creek,37.916,-81.344
03821,Helen,37.635,-81.314
06678,Pickens,38.655,-80.212
01434,Cass,38.397,-79.915
08521,Thurmond,37.962,-81.082
00004,Abbott,38.922,-80.321
00008,Aberdeen,39.058,-80.316
00021,Ackerman,39.586,-78.821
00025,Acme,38.037,-81.456
00028,Ada,37.295,-81.147
00034,Adamsville,39.395,-80.244
00045,Adonis,39.506,-80.987
00046,Adrian,38.905,-80.276
00051,Afton,39.536,-79.539
00058,Agnew,38.212,-81.143
00062,Eye,38.282,-80.851
00071,Ajax,37.803,-82.305
00073,Akron,39.415,-80.806
00079,Alaska,37.914,-81.039
00105,Alexander,38.783,-80.222
00112,Algeria,39.418,-81.052
00114,Algoma,37.419,-81.426
00118,Alice,38.998,-80.816
00125,Allen,38.123,-82.075
00127,Allendale,40.019,-80.703
00130,Allensville,39.583,-77.993
00152,Alpena,38.910,-79.651
00158,Alta,38.207,-81.177
00158,Alta,37.869,-80.543
00162,Altman,38.164,-81.868
00165,Alton,38.819,-80.214
00176,Alvord,38.807,-81.349
00177,Amma,38.569,-81.266
00179,Amandaville,38.397,-81.856
00183,Amboy,39.348,-79.568
00185,Amelia,38.289,-81.296
00189,Ames,38.086,-81.086
00207,Andersonville,39.780,-80.522
00209,Andrew,38.100,-81.717
00230,Anthem,39.647,-80.528
00231,Anthony,37.896,-80.332
00232,Antioch,39.324,-79.017
00233,Antler,37.453,-81.624
00243,Apple Grove,37.438,-81.805
00258,Arbuckle,38.713,-81.948
00262,Archer,39.511,-80.595
00264,Arcola,38.467,-80.519
00265,Arden,39.210,-79.993
00265,Arden,39.416,-78.043
00274,Argyle,37.826,-81.877
00279,Arkansas,39.074,-78.729
00283,Arlee,38.733,-82.095
00285,Arlington,39.308,-80.347
00285,Arlington,38.800,-80.343
00294,Arnett,37.833,-81.430
00297,Arnold,40.299,-80.580
00297,Arnold,38.914,-80.503
00307,Arthur,39.067,-79.112
00310,Arvilla,39.435,-81.071
00312,Asbury,37.820,-80.559
00314,Ash,38.833,-81.973
00326,Ashford,38.179,-81.711
00327,Ashland,37.408,-81.353
00328,Ashley,39.404,-80.676
00330,Ashton,38.624,-82.165
00336,Astor,39.240,-80.141
00351,Atlas,38.977,-80.280
00356,Atwell,37.349,-81.763
00367,Augusta,39.295,-78.638
00376,Eva,39.033,-81.028
00385,Avoca,38.453,-81.051
00388,Avondale,37.413,-81.784
00392,Ayers,38.978,-81.098
00404,Bachman,38.099,-81.122
00405,Backus,37.854,-80.975
00407,Baden,38.798,-81.887
00422,Baisden,37.820,-82.029
00422,Baisden,37.584,-81.905
00426,Bakerton,39.363,-77.763
00431,Bald Knob,37.871,-81.636
00432,Balderson,39.159,-81.672
00433,Baldwin,38.973,-80.754
00439,Ballard,37.475,-80.779
00449,Banco,38.002,-82.008
00452,Bane,39.504,-80.588
00472,Barker,39.579,-80.660
00473,Barksdale,37.708,-80.886
00484,Barnum,39.442,-79.114
00492,Barrett,37.887,-81.670
00499,Bartley,37.341,-81.738
00514,Bass,38.948,-79.002
00530,Baxter,39.557,-78.078
00530,Baxter,39.544,-80.142
00545,Bays,38.529,-80.716
00552,Beech,38.763,-81.172
00559,Beale,38.767,-82.197
00570,Beard,38.077,-80.227
00573,Beartown,37.386,-81.811
00577,Beeson,37.471,-81.194
00578,Beatrice,39.084,-81.140
00584,Beauty,38.045,-81.016
00592,Beaverdam,38.913,-81.338
00600,Beckwith,38.098,-81.153
00606,Beebe,37.826,-82.062
00609,Beech Grove,39.323,-81.004
00610,Beech Hill,38.765,-82.003
00612,Beechwood,39.289,-81.546
00612,Beechwood,37.582,-81.324
00627,Belgium,39.324,-80.116
00648,Belleville,39.141,-81.736
00656,Belo,37.774,-82.237
00658,Bellton,39.756,-80.555
00662,Bellwood,37.922,-80.830
00670,Bemis,38.812,-79.739
00673,Ben Lomond,38.708,-82.178
00683,Bennett,38.891,-80.565
00700,Berkeley,39.503,-77.927
00702,Berlin,39.053,-80.355
00711,Burner,38.617,-79.807
00718,Berryville,39.616,-78.230
00719,Bert,39.451,-80.959
00720,Bertha,37.572,-80.871
00725,Beryl,39.472,-79.064
00726,Bessemer,39.514,-77.930
00730,Bethesda,38.189,-82.423
00731,Bethlehem,39.392,-80.281
00738,Beverly Hills,39.480,-80.169
00757,Big Run,39.471,-80.377
00757,Big Run,39.798,-80.557
00757,Big Run,38.600,-80.472
00757,Big Run,39.584,-80.578
00758,Big Sandy,37.464,-81.698
00760,Big Springs,38.656,-81.074
00767,Billings,38.857,-81.404
00771,Bingham,38.034,-80.794
00774,Burch,37.709,-82.184
00791,Bishop,37.208,-81.560
00793,Bismarck,39.218,-79.233
00794,Bison,38.655,-80.742
00798,Black,37.494,-81.264
00800,Black Bottom,37.846,-82.004
00805,Black Eagle,37.586,-81.379
00812,Black Wolf,37.336,-81.486
00817,Blackhawk,38.334,-81.587
00830,Blaine,39.386,-79.180
00831,Blair,39.295,-77.796
00831,Blair,37.878,-81.828
00834,Blakeley,38.296,-81.304
00843,Blandville,39.257,-80.711
00855,Blocton,37.797,-82.342
00861,Bloomery,39.387,-78.373
00861,Bloomery,39.255,-77.819
00871,Blount,38.321,-81.426
00875,Blue,39.447,-80.825
00879,Blue Creek,38.451,-81.457
00884,Blue Jay 6,37.683,-81.113
00907,Bowden,38.909,-79.710
00911,Boggs,38.469,-80.625
00922,Bolin,38.104,-82.144
00922,Bowlin,37.994,-81.124
00937,Bonnie,38.769,-80.693
00942,Boone,38.034,-81.008
00943,Boonesborough,38.129,-81.216
00946,Booth,39.597,-80.015
00955,Boulder,39.069,-80.103
00964,Bowen,38.306,-82.343
00968,Bowes,37.841,-80.374
00979,Boyer,38.489,-79.801
00990,Bradyville,38.146,-82.184
00991,Braden,39.440,-80.744
00993,Bradley,38.158,-81.717
00995,Bradshaw,37.802,-82.032
01029,Breeden,37.925,-82.266
01040,Bretz,39.542,-79.801
01040,Bretz,39.095,-79.664
01049,Bryce,38.223,-81.152
01068,Bright,38.626,-81.234
01074,Brink,39.548,-80.493
01077,Briscoe,39.349,-81.533
01078,Bristol,39.288,-80.524
01080,Brittain,39.379,-80.052
01107,Brooklin,37.673,-80.897
01109,Brooklyn,37.991,-81.049
01109,Brooklyn,39.635,-80.863
01112,Brooks,37.724,-80.886
01113,Brookside,39.326,-79.526
01121,Brown,39.388,-80.461
01123,Browning,39.024,-81.661
01123,Browning,37.652,-80.858
01129,Browns Mill,39.479,-79.828
01132,Brownsburg,38.268,-80.075
01134,Brownstown,38.419,-82.454
01135,Brownsville,39.002,-80.476
01136,Brownton,39.220,-80.150
01141,Bruce,38.163,-80.777
01150,Brush Creek,38.144,-81.755
01152,Brushton,38.166,-81.709
01162,Buck,37.602,-80.824
01164,Buckeye,38.186,-80.134
01188,Buffalo,38.827,-81.534
01190,Buffalo Creek,38.356,-82.509
01200,Bulger,38.133,-81.981
01203,Bull Run,39.584,-79.770
01212,Burdette,38.063,-80.799
01229,Burning Springs,38.981,-81.314
01233,Burnt Factory,39.656,-78.209
01234,Burnwell,38.053,-81.375
01235,Burr,38.066,-80.105
01240,Burton,39.664,-80.431
01266,Cabin Creek,38.196,-81.478
01277,Kale,37.384,-81.185
01284,Calcutta,39.351,-81.194
01288,Calhoun,39.091,-79.986
01290,Calico,37.474,-82.004
01292,California,39.128,-81.308
01304,Calvin,38.337,-80.714
01307,Cambria,38.265,-81.199
01309,Camden,39.054,-80.566
01313,Camp Creek,37.495,-81.103
01322,Campbelltown,38.242,-80.091
01326,Campus,37.726,-81.718
01330,Canaan,38.744,-80.296
01339,Canebrake,37.248,-81.641
01341,Canfield,38.594,-80.754
01343,Cannelton,38.194,-81.296
01352,Canterbury,37.821,-82.257
01353,Canton,39.363,-80.735
01354,Cantwell,39.133,-81.131
01355,Canyon,39.676,-79.891
01361,Capehart,38.713,-81.881
01368,Captina,39.819,-80.813
01370,Carbon,38.019,-81.406
01372,Carbondale,38.186,-81.299
01378,Carl,38.111,-80.684
01381,Carlisle,37.961,-81.180
01382,Carlos,37.396,-81.801
01385,Carmel,39.331,-79.278
01390,Carney,38.551,-81.586
01401,Carrollton,39.090,-80.087
01410,Carter,38.844,-80.282
01415,Carver,38.076,-81.084
01422,Cascade,39.563,-79.814
01427,Cashmere,37.450,-80.780
01432,Kasson,39.225,-79.875
01451,Catawba,39.227,-80.078
01459,Cave,38.547,-79.445
01471,Cecil,39.271,-79.987
01473,Cedar,37.555,-82.104
01473,Cedar,37.737,-81.212
01482,Cedar Grove,39.228,-81.506
01499,Cedarville,38.842,-80.819
01505,Centennial,37.583,-80.329
01510,Center Point,39.392,-80.635
01519,Centerville,39.432,-80.840
01519,Centerville,38.261,-82.530
01520,Central,39.346,-81.523
01524,Centralia,38.623,-80.568
01528,Ceres,37.308,-81.148
01534,Chaffee,39.406,-79.162
01544,Chambers,37.821,-81.880
01558,Chapel,38.748,-80.805
01561,Chaplin,39.651,-80.028
01562,Chapman,38.545,-80.461
01595,Cherokee,37.407,-81.337
01596,Cherry,39.006,-81.341
01598,Cherry Grove,38.641,-79.523
01598,Cherry Grove,38.439,-81.922
01612,Chesterville,39.156,-81.498
01615,Chestnut Hill,40.414,-80.550
01616,Chestnut Ridge,39.649,-79.942
01628,Childs,39.602,-80.778
01663,Churchville,39.097,-80.591
01667,Cinco,38.337,-81.466
01669,Circleville,38.671,-79.491
01670,Cisco,39.129,-81.284
01679,Claremont,37.918,-81.051
01686,Clark,37.414,-81.432
01701,Claude,39.290,-79.909
01702,Clawson,38.268,-80.030
01707,Claypool,37.733,-81.814
01707,Claypool,37.833,-80.871
01708,Claysville,39.349,-79.056
01709,Clayton,37.723,-80.729
01713,Clear Fork,37.631,-81.683
01725,Clem,38.634,-80.914
01727,Clements,39.053,-80.014
01732,Cleveland,38.727,-80.392
01737,Clifftop,38.004,-80.944
01737,Clifftop,37.771,-81.122
01738,Clifton,39.002,-82.042
01739,Clifty,38.146,-80.962
01741,Clinton,37.883,-81.651
01744,Clintonville,37.894,-80.599
01745,Clio,38.581,-81.301
01749,Clover,38.583,-82.228
01749,Clover,38.723,-81.289
01753,Cloverdale,37.450,-80.815
01753,Cloverdale,39.365,-81.143
01761,Coal,38.114,-81.455
01766,Coal Mountain,37.670,-81.729
01768,Coal Valley,37.941,-81.816
01769,Coalburg,38.208,-81.459
01770,Coaldale,37.363,-81.334
01771,Coalfield,38.004,-81.350
01782,Cobb,38.086,-80.588
01787,Coburn,39.593,-80.503
01791,Coe,38.326,-80.554
01805,Colcord,37.944,-81.437
01810,Coldwater,39.168,-80.633
01812,Coleman,38.162,-82.475
01817,Colfax,39.435,-80.132
01835,Columbia,38.123,-81.311
01865,Conaway,39.508,-80.770
01868,Concho,37.967,-81.088
01869,Concord,39.195,-78.464
01880,Confidence,38.572,-81.829
01884,Congo,40.608,-80.636
01921,Coopertown,38.078,-81.590
01926,Copley,38.969,-80.647
01930,Cora,37.834,-82.026
01933,Corbin,39.309,-81.347
01937,Cordova,38.064,-80.422
01942,Corinth,39.422,-79.492
01944,Corley,39.081,-79.987
01944,Corley,38.737,-80.599
01945,Corliss,38.034,-80.870
01962,Cortland,39.067,-79.427
01974,Cottageville,38.866,-81.823
01976,Cottle,38.346,-80.626
01977,Cotton,38.545,-81.350
01978,Cotton Hill,38.113,-81.145
01985,Couch,38.789,-82.059
02000,Cove Gap,38.096,-82.254
02017,Craddock,38.722,-80.266
02024,Cranberry,37.822,-81.195
02029,Cranesville,39.553,-79.495
02031,Crawford,38.872,-80.437
02034,Crawley,37.935,-80.652
02036,Creamery,37.642,-80.678
02044,Crescent,38.174,-81.309
02049,Cressmont,38.456,-80.978
02053,Creston,38.947,-81.271
02059,Crichton,38.056,-80.716
02062,Crisp,39.367,-81.116
02065,Crockett,38.231,-82.378
02072,Crooked Creek,37.882,-81.981
02078,Cross,39.430,-79.092
02084,Crossroads,39.659,-80.302
02084,Crossroads,37.711,-80.813
02089,Crow,37.759,-81.077
02096,Crown,37.758,-81.844
02096,Crown,39.583,-80.103
02097,Crown Hill,38.200,-81.364
02109,Crystal,37.373,-81.271
02117,Cuba,38.991,-81.669
02131,Cunningham,39.096,-78.944
02132,Kirby,39.183,-78.726
02140,Curtin,38.291,-80.640
02140,Curtin,38.474,-80.362
02152,Cyclone,37.733,-81.689
02156,Cyrus,38.305,-82.573
02157,Czar,38.730,-80.187
02158,Dabney,37.812,-81.928
02166,Daisy,38.009,-82.054
02169,Dale,39.458,-80.650
02172,Dollie,38.044,-81.983
02173,Dallas,40.016,-80.527
02178,Dameron,37.825,-81.369
02215,Davis,37.827,-82.084
02216,Davis Creek,38.337,-81.704
02218,Davisville,39.201,-81.498
02221,Dawson,37.856,-80.711
02225,Daysville,38.961,-80.161
02229,De Kalb,38.943,-80.932
02236,Deanville,38.990,-80.206
02250,Deer Creek,38.386,-79.925
02267,Delaney,39.332,-81.474
02279,Delmar,39.604,-80.007
02282,DeLong,39.401,-81.162
02293,Dennis,37.931,-80.711
02298,Dent,39.294,-79.877
02301,Denver,39.382,-79.770
02302,Depue,38.851,-81.339
02316,Devon,37.537,-82.063
02321,Dewitt,37.931,-81.126
02325,Dial,38.420,-81.486
02326,Diamond,38.215,-81.516
02326,Diamond,37.825,-82.081
02329,Diana,38.573,-80.458
02336,Dickinson,38.204,-81.502
02337,Dickson,37.769,-80.346
02341,Dille,38.489,-80.826
02345,Dillon,37.770,-80.951
02352,Dingess,37.872,-82.175
02359,Divide,38.067,-80.966
02361,Dixie,39.419,-80.330
02365,Dobbin,39.239,-79.414
02386,Donald,38.266,-80.709
02387,Donaldson,39.498,-78.654
02387,Donaldson,38.387,-80.512
02399,Dorr,37.619,-80.474
02404,Dorothy,37.955,-81.449
02410,Dott,37.469,-81.246
02411,Dothan,37.967,-81.222
02415,Douglas,38.672,-81.058
02415,Douglas,39.127,-79.521
02416,Douglas Grove,39.419,-77.957
02431,Doyle,39.283,-81.376
02450,Dry Branch,38.180,-81.467
02451,Dry Creek,37.860,-81.464
02453,Dry Hill,37.815,-81.220
02455,Dry Run,38.613,-79.525
02463,Duck,38.583,-80.937
02469,Duffy,38.791,-80.444
02481,Duncan,38.903,-81.573
02492,Dunmore,38.359,-79.881
02515,Dyer,38.381,-80.475
02518,Eagle,38.158,-81.304
02535,Earling,37.766,-81.915
02541,East,38.219,-81.936
02558,East Kingston,37.978,-81.294
02562,East Lynn,38.168,-82.378
02566,East Salem,39.289,-80.536
02567,East Side,38.354,-81.641
02582,Easton,39.653,-79.913
02590,Eaton,39.196,-81.314
02597,Eby,39.319,-79.899
02598,Eccles,37.783,-81.266
02599,Echo,38.178,-82.482
02604,Eden,38.132,-81.629
02604,Eden,40.067,-80.638
02604,Eden,38.744,-80.328
02616,Edgewood,38.380,-81.644
02621,Edison,37.304,-81.155
02622,Edith,37.677,-81.607
02623,Edmond,38.062,-81.027
02629,Edna,39.575,-80.054
02634,Effie,38.094,-82.508
02639,Eglon,39.301,-79.519
02641,Egypt,39.352,-77.948
02672,Eli,39.193,-81.648
02680,Elk,38.361,-81.665
02680,Elk,39.022,-79.538
02681,Elk City,39.142,-80.108
02691,Elkhorn,37.386,-81.411
02695,Elkridge,38.080,-81.334
02706,Ellison,37.584,-80.992
02712,Elm Grove,40.046,-80.651
02719,Elmhurst,37.634,-80.629
02720,Elmira,38.651,-80.991
02724,Elmwood,38.209,-82.438
02732,Elton,37.828,-80.803
02745,Emerson,37.941,-81.498
02748,Emma,38.637,-81.714
02749,Emmett,37.682,-81.827
02750,Emmons,38.204,-81.485
02763,Engle,39.344,-77.781
02766,English,37.338,-81.715
02770,Ennis,37.376,-81.393
02771,Enoch,38.424,-80.934
02773,Enon,38.309,-80.897
02777,Enterprise,39.007,-81.369
02790,Erin,37.441,-81.692
02793,Erskine,37.967,-81.081
02799,Eskdale,38.091,-81.444
02811,Esty,38.015,-80.383
02815,Ethel,37.866,-81.912
02818,Etowah,38.376,-81.601
02822,Euclid,38.733,-81.044
02826,Eunice,37.946,-81.543
02827,Eureka,39.373,-81.281
02834,Evansville,39.333,-79.869
02837,Evelyn,38.938,-81.344
02840,Everett,39.488,-81.034
02841,Evergreen,38.854,-80.258
02850,Excelsior,38.956,-80.139
02850,Excelsior,38.455,-80.472
02851,Exchange,38.769,-80.743
02856,Export,37.858,-81.001
02857,Fabius,39.094,-78.837
02867,Fairdale,37.781,-81.363
02869,Fairfax,39.189,-79.477
02871,Fairhaven,40.562,-80.560
02878,Fairplain,38.752,-81.686
02882,Fairview,39.740,-80.791
02882,Fairview,38.979,-82.007
02882,Fairview,37.678,-82.303
02882,Fairview,38.695,-80.232
02882,Fairview,39.540,-80.550
02893,Faulkner,38.909,-79.726
02897,Falls,39.175,-79.119
02902,Fame,38.742,-79.162
02908,Fanny,37.564,-81.629
02909,Far,39.538,-80.754
02913,Farley,37.536,-80.924
02914,Farmdale,37.905,-80.711
02927,Ferrell,38.353,-81.833
02938,Fayette,38.063,-81.073
02954,Ferguson,38.076,-82.433
02955,Fern,39.348,-81.066
02984,Fisher,39.051,-79.003
02997,Fitzpatrick,37.744,-81.186
02999,Five Forks,38.969,-81.061
02999,Five Forks,39.176,-80.978
02999,Five Forks,39.006,-80.100
03000,Five Points,39.682,-80.724
03010,Flat Top,37.589,-81.107
03011,Flats,39.194,-78.979
03013,Flatwoods,38.880,-81.779
03015,Fleming,38.088,-82.471
03017,Fletcher,38.654,-81.575
03018,Flinn,39.075,-81.691
03019,Flint,38.854,-79.730
03023,Floe,38.644,-81.012
03041,Folsom,39.471,-80.520
03061,Forest Hill,37.570,-80.789
03062,Forest Hills,38.352,-81.668
03074,Forman,39.140,-79.075
03079,Fort Branch,37.849,-81.944
03083,Fort Hill,38.353,-81.654
03098,Foster,38.097,-81.780
03101,Fosterville,38.092,-81.604
03103,Fountain,39.421,-78.937
03114,Four Mile,39.587,-80.618
03131,Frankford,37.925,-80.384
03137,Franklintown,39.205,-77.934
03143,Frazier,37.741,-80.563
03154,Freeman,38.918,-80.328
03155,Freemansburg,39.089,-80.529
03156,Freeport,39.143,-81.338
03161,French Creek,38.886,-80.297
03162,Frenchburg,39.315,-78.661
03167,Frew,39.467,-80.836
03180,Frogtown,37.828,-82.067
03183,Frost,38.271,-79.881
03199,Furnace,39.032,-78.603
03202,Gage,38.970,-79.961
03203,Gale,38.904,-80.103
03204,Gaines,38.780,-80.320
03215,Gallagher,38.173,-81.402
03240,Gardner,37.923,-80.348
03240,Gardner,37.424,-81.074
03241,Garfield,38.955,-81.544
03242,Garland,37.401,-81.784
03247,Garrison,37.996,-81.507
03250,Garwood,37.483,-81.323
03257,Gaston,39.009,-80.395
03260,Gates,37.566,-80.490
03264,Gatewood,38.011,-81.061
03265,Gay,38.771,-81.553
03269,Gem,38.829,-80.668
03273,Genoa,38.122,-82.460
03279,Georgetown,39.574,-77.963
03279,Georgetown,38.961,-80.384
03279,Georgetown,39.740,-80.524
03279,Georgetown,39.595,-80.089
03292,Jere,39.667,-80.035
03298,Gormley,38.972,-80.089
03310,Gilboa,38.303,-80.936
03314,Gill,38.088,-82.121
03318,Gilliam,37.424,-81.415
03323,Gilmer,38.879,-80.717
03328,Girard,38.168,-82.316
03330,Glade,37.832,-81.001
03331,Gladesville,39.467,-79.877
03333,Gladwin,39.007,-79.545
03336,Gleason,39.363,-79.217
03337,Glen,38.394,-81.243
03355,Glendon,38.591,-80.889
03367,Glenwood,38.592,-82.187
03367,Glenwood,37.336,-81.149
03374,Glover,37.587,-81.590
03377,Godfrey,37.365,-81.261
03380,Goffs,39.090,-81.034
03383,Golden,39.983,-80.537
03394,Good,39.358,-78.361
03398,Goodhope,39.181,-80.439
03402,Goodman,37.690,-82.298
03408,Goodwill,37.354,-81.289
03409,Goodwin,38.928,-80.160
03413,Gordon,37.987,-81.695
03419,Goshen,38.712,-80.306
03424,Gould,38.901,-80.255
03430,Grace,39.431,-78.713
03430,Grace,38.886,-81.353
03462,Grandview,37.825,-81.069
03498,Grays Flat,39.558,-80.182
03513,Green Hill,39.638,-80.775
03523,Green Ridge,39.587,-78.439
03526,Green Valley,38.363,-81.787
03526,Green Valley,37.311,-81.139
03526,Green Valley,38.099,-80.699
03533,Greencastle,38.063,-81.373
03533,Greencastle,39.131,-81.379
03537,Greenland,39.192,-79.153
03543,Greensburg,39.484,-77.884
03548,Greenville,37.721,-81.872
03548,Greenville,37.543,-80.683
03552,Greenwood,37.855,-81.631
03552,Greenwood,39.275,-80.891
03552,Greenwood,39.443,-78.233
03553,Greer,38.819,-82.030
03553,Greer,39.572,-79.849
03566,Griffith Creek,37.727,-80.676
03579,Grove,39.147,-80.772
03598,Gum Spring,39.518,-79.910
03608,Guthrie,38.406,-81.661
03627,Hager,38.214,-82.087
03635,Hainesville,39.526,-77.919
03635,Hainesville,39.358,-78.567
03636,Halcyon,37.980,-82.094
03641,Hall,39.054,-80.111
03643,Halleck,39.479,-79.939
03652,Halltown,39.314,-77.798
03653,Halo,38.450,-80.537
03659,Hamilton,38.021,-81.263
03661,Hamlet,37.828,-81.001
03666,Hampden,37.639,-81.949
03667,Hampshire,39.472,-79.077
03669,Hampton,38.938,-80.240
03670,Hanna,39.168,-81.395
03671,Hancock,39.693,-78.177
03675,Hanging Rock,39.266,-78.541
03677,Hannahsville,39.241,-79.711
03680,Hanover,37.572,-81.799
03690,Hardman,38.916,-80.945
03692,Harding,38.948,-79.959
03696,Hardy,37.310,-81.028
03701,Herring,39.542,-79.738
03707,Harmony,38.686,-81.479
03708,Harmony Grove,39.607,-79.990
03712,Herold,38.567,-80.810
03713,Harper,38.519,-79.471
03713,Harper,37.799,-81.261
03724,Harrison,38.513,-80.953
03724,Harrison,39.377,-79.204
03735,Harter,38.281,-80.013
03738,Hartland,38.432,-81.112
03752,Harvey,37.932,-81.139
03757,Hastings,39.551,-80.673
03760,Hatcher,37.366,-80.978
03762,Hathaway,38.858,-81.083
03768,Havana,37.989,-81.855
03793,Haywood,39.381,-80.336
03795,Hazel,39.547,-80.512
03799,Hazelgreen,39.082,-80.987
03801,Hazelton,39.654,-79.531
03802,Hazelwood,38.861,-79.860
03809,Hurst,39.073,-80.699
03814,Hebron,39.402,-80.035
03814,Hebron,39.360,-81.018
03820,Hiser,38.962,-79.115
03830,Hemlock,37.874,-80.974
03830,Hemlock,38.895,-81.741
03832,Hemphill,37.445,-81.595
03840,Henning,37.896,-80.360
03841,Henrietta,38.908,-81.045
03842,Henry,39.223,-79.421
03845,Hensley,37.474,-81.700
03848,Hepzibah,39.350,-80.169
03850,Hereford,38.820,-81.617
03857,Herndon,37.505,-81.341
03867,Hewett,37.962,-81.852
03870,Hiawatha,37.440,-81.244
03879,Hickory Grove,37.834,-80.676
03883,Hix,37.730,-80.819
03888,Hidden Valley,38.358,-82.539
03892,Higginsville,39.418,-78.580
03899,Highland,39.435,-80.254
03899,Highland,39.304,-81.052
03911,Hilbert,38.922,-81.367
03914,Hilderbrand,39.591,-79.998
03922,Hill Top,37.465,-80.908
03923,Hillcrest,39.254,-81.489
03925,Hilldale,37.638,-80.787
03932,Hillsdale,38.368,-81.617
03932,Hillsdale,37.619,-80.490
03940,Hilton Village,38.015,-80.901
03941,Hinch,37.611,-82.014
03945,Hines,37.983,-80.718
03949,Hinkleville,38.927,-80.262
03953,Hiram,39.293,-79.932
03957,Hoard,39.705,-79.932
03965,Hodges,38.362,-82.429
03969,Holbrook,39.152,-80.856
03970,Holcomb,38.256,-80.601
03976,Holly,38.062,-81.444
03982,Holly Grove,38.802,-80.289
03987,Hollywood,37.612,-80.444
03987,Hollywood,37.773,-81.224
03988,Holman,39.716,-80.102
03994,Holton,39.602,-78.070
03998,Home,38.726,-80.813
04005,Homewood,39.020,-80.476
04010,Honeydew,38.034,-80.830
04023,Hopeville,38.967,-79.287
04024,Hopewell,39.200,-80.053
04024,Hopewell,38.124,-81.071
04024,Hopewell,39.471,-80.095
04024,Hopewell,39.664,-79.675
04028,Hopper,37.821,-80.365
04037,Horsepen,37.620,-81.892
04040,Horton,38.807,-79.543
04045,Hotchkiss,37.674,-81.367
04060,Howesville,39.439,-79.756
04063,Hoyt,39.613,-80.637
04076,Huffman,39.068,-79.917
04080,Hugo,38.584,-81.857
04082,Hull,37.487,-81.844
04086,Humphrey,39.142,-81.731
04105,Hutchinson,37.817,-81.908
04105,Hutchinson,39.441,-80.274
04128,Imperial,38.862,-80.204
04130,Independence,39.124,-80.041
04130,Independence,38.313,-81.176
04130,Independence,38.907,-81.675
04130,Independence,39.393,-79.872
04131,Index,38.880,-80.987
04133,Indian,38.368,-81.826
04143,Indian Mills,37.528,-80.817
04155,Indore,38.353,-81.147
04156,Industrial,39.278,-80.581
04158,Inez,38.357,-82.239
04164,Ingleside,37.315,-81.052
04169,Inkerman,39.138,-78.769
04176,Institute,38.384,-81.765
04193,Ireland,38.816,-80.462
04194,Irene,38.193,-81.847
04203,Iroquois,37.581,-81.341
04217,Isom,37.944,-81.870
04222,Iuka,39.515,-80.790
04224,Ivan,38.984,-81.343
04226,Ivy,38.940,-80.184
04227,Ivydale,38.536,-81.035
04227,Ivydale,38.310,-81.704
04237,Jacksonville,38.891,-80.492
04247,Jamestown,39.241,-77.984
04251,Janie,37.982,-81.538
04254,Jarrett,38.442,-81.484
04266,Jeffrey,37.971,-81.821
04270,Jenks,38.199,-82.103
04275,Jericho,39.212,-78.425
04277,Jerome,39.584,-78.457
04281,Jesse,37.668,-81.573
04289,Jimtown,39.399,-80.403
04289,Jimtown,39.637,-78.218
04290,Jingo,38.724,-81.478
04292,Job,38.864,-79.557
04297,Johnson,38.259,-82.297
04300,Johnsontown,39.578,-78.039
04300,Johnsontown,39.339,-77.887
04304,Johnstown,37.782,-81.168
04310,Jolo,37.329,-81.815
04311,Jones,39.058,-79.991
04318,Joplin,38.343,-81.680
04319,Joppa,38.779,-80.488
04320,Jordan,39.549,-80.081
04322,Josephine,37.620,-81.224
04325,Joy,39.233,-80.879
04331,Judson,37.711,-80.776
04334,Julian,38.157,-81.856
04336,Junction,39.313,-78.863
04346,Kalamazoo,39.141,-79.916
04347,Kanawha,39.199,-81.460
04359,Katy,39.511,-80.224
04367,Kedron,38.896,-80.127
04369,Keenan,37.585,-80.485
04372,Keith,38.043,-81.574
04376,Kelly,37.849,-81.806
04389,Kendalia,38.336,-81.313
04394,Kenna,38.676,-81.660
04403,Kennison,38.108,-80.186
04407,Kent,39.766,-80.861
04410,Kentuck,38.656,-81.590
04416,Kerens,39.013,-79.814
04424,Kessler,37.985,-80.669
04428,Ketterman,38.878,-79.254
04429,Kettle,38.575,-81.490
04433,Key,38.771,-79.396
04445,Kieffer,37.940,-80.609
04454,Kimberly,39.694,-80.289
04458,Kincheloe,39.150,-80.503
04459,Kinder,38.168,-82.144
04461,King,38.502,-81.231
04461,King,39.001,-80.681
04466,Kings Creek,40.448,-80.596
04474,Kingston,37.974,-81.304
04488,Kirk,37.894,-82.243
04493,Kirkwood,38.351,-80.802
04498,Kitchen,37.981,-82.034
04502,Kline,38.779,-79.225
04504,Klondike,39.634,-80.287
04507,Knapp,38.234,-80.051
04518,Knottsville,39.311,-79.965
04523,Knoxville,39.888,-80.633
04543,Kyle,37.408,-81.426
04591,Laing,38.036,-81.428
04594,Lake,37.930,-81.900
04646,Lakin,38.959,-82.087
04649,Lamar,37.454,-81.305
04653,Lamberton,39.271,-81.047
04659,Lanark,37.828,-81.146
04661,Lansing,38.073,-81.066
04665,Landes,38.897,-79.198
04666,Landisburg,37.977,-80.940
04671,Laneville,38.973,-79.416
04677,Lanham,38.477,-81.739
04704,Lattimer,38.842,-81.515
04707,Latrobe,37.791,-81.769
04714,Laurel,38.961,-79.989
04715,Laurel Branch,37.531,-80.350
04716,Laurel Fork,38.689,-80.675
04727,Lawford,39.069,-80.936
04729,Lawn,37.840,-80.753
04733,Lawrenceville,40.617,-80.544
04735,Lawton,37.871,-80.977
04737,Layland,37.889,-80.971
04744,Lead Mine,39.194,-79.585
04749,Leander,38.191,-81.008
04752,Leet,38.069,-82.076
04757,Leewood,38.068,-81.450
04763,Lee,37.883,-81.156
04764,Lee Creek,39.153,-81.739
04765,Lico,38.241,-81.739
04774,Leetown,39.348,-77.934
04777,Lehigh,39.036,-79.961
04788,Lenox,39.567,-79.590
04790,Lenore,37.799,-82.287
04797,Leonard,38.083,-80.403
04801,Leopold,39.125,-80.741
04803,Lerona,37.499,-80.979
04804,LeRoy,38.906,-81.545
04805,Leslie,38.044,-80.723
04808,Letart,38.895,-81.933
04831,Liberty,38.605,-81.730
04834,Liberty Hill,38.790,-81.168
04836,Lick Creek,37.484,-80.911
04846,Lile,38.127,-80.620
04847,Lillian,39.115,-80.065
04849,Lillydale,37.557,-80.610
04849,Lillydale,37.676,-81.663
04858,Limestone,39.934,-80.645
04861,Lincoln,38.316,-81.843
04872,Linden,38.720,-81.211
04881,Linn,39.008,-80.719
04881,Lynn,37.602,-82.155
04887,Linwood,38.421,-80.044
04894,Little,39.475,-80.997
04900,Little Falls,39.557,-80.000
04903,Little Italy,38.523,-81.033
04903,Little Italy,38.794,-79.549
04907,Little Sandy,39.630,-79.644
04915,Lytton,39.460,-81.078
04917,Lively,37.940,-81.257
04919,Liverpool,38.895,-81.531
04920,Livingston,38.157,-81.407
04931,Lockhart,38.965,-81.615
04932,Lockney,38.856,-80.967
04936,Lockwood,38.259,-81.035
04938,Locust,38.068,-80.239
04943,Loda,38.801,-80.082
04949,Logansport,39.519,-80.414
04960,London,38.194,-81.369
04972,Long Branch,37.923,-81.276
04972,Long Branch,37.618,-81.764
04979,Long Run,39.270,-80.653
04985,Longview,39.084,-80.139
04992,Lookout,38.065,-80.968
04996,Looneyville,38.664,-81.303
04997,Loop,38.573,-81.636
05015,Lost City,38.930,-78.834
05019,Lost River,38.954,-78.804
05028,Louise,40.304,-80.565
05040,Low Gap,38.031,-81.836
05044,Lowell,37.654,-80.729
05054,Lucas,38.192,-81.039
05056,Lucerne,38.999,-80.880
05058,Lucile,38.945,-81.386
05060,Lucky,39.170,-81.547
05071,Lumber,38.915,-79.774
05105,Maben,37.637,-81.392
05106,Mabie,38.876,-79.983
05109,MacDonald,37.889,-81.161
05110,Mace,38.456,-80.031
05119,Mackeyville,39.112,-79.617
05122,Macksville,38.801,-79.399
05130,Madeline,37.580,-81.304
05139,May,38.653,-79.802
05140,McGee,39.361,-80.127
05141,Maggie,38.946,-82.089
05144,Magnolia,39.562,-78.427
05146,Mahan,38.023,-81.355
05147,Maher,37.769,-82.328
05148,Mand,39.619,-80.742
05157,Maitland,37.429,-81.551
05161,Malden,38.301,-81.557
05168,Mammoth,38.263,-81.372
05175,Mandeville,37.496,-80.823
05181,Manila,37.987,-81.943
05194,Mansfield,39.150,-80.054
05206,Maple,39.709,-80.358
05222,Maplewood,37.926,-80.933
05241,Marianna,37.601,-81.611
05244,Marie,37.584,-80.761
05247,Marine,37.463,-81.631
05248,Marion,39.676,-80.771
05263,Marne,38.473,-81.197
05269,Marshall,38.825,-81.536
05275,Marshville,39.321,-80.464
05279,Martin,39.224,-79.089
05286,Marvel,38.174,-81.076
05293,Marytown,37.470,-81.679
05299,Masonville,38.919,-79.084
05303,Masseyville,37.838,-81.451
05311,Mathias,38.878,-78.866
05317,Matville,37.829,-81.329
05319,Maud,39.619,-80.742
05328,Maxwelton,37.866,-80.410
05340,Maysville,39.115,-79.165
05344,Maywood,37.972,-80.815
05351,McAlpin,39.344,-80.237
05351,McAlpin,37.692,-81.278
05354,McCauley,39.042,-78.712
05355,McClain,38.995,-81.536
05376,McDowell,37.403,-81.380
05386,McKendree,37.888,-81.063
05391,McLean,39.038,-79.958
05399,McNeill,39.140,-78.913
05400,McNutt,38.695,-80.669
05403,McWhorter,39.127,-80.383
05406,Mead,37.624,-81.261
05407,Meador,37.619,-82.062
05413,Meadowbrook,39.352,-80.319
05413,Meadowbrook,38.381,-81.562
05414,Meadowdale,38.898,-81.600
05414,Meadowdale,39.496,-80.093
05420,Mechanicsburg,39.335,-78.810
05421,Mechanicstown,39.261,-77.829
05428,Medina,38.999,-81.628
05429,Medley,39.176,-79.058
05430,Medo,38.055,-80.927
05434,Meeker,39.466,-80.788
05437,Melville,37.841,-81.945
05440,Melissa,38.380,-82.335
05443,Melrose,37.387,-81.054
05461,Mentor,38.863,-81.692
05468,Meriden,39.164,-80.024
05476,Merrimac,37.635,-82.216
05486,Metalton,37.767,-81.289
05490,Metz,39.580,-80.370
05495,Miami,38.152,-81.448
05498,Micco,37.783,-81.990
05499,Michigan,38.078,-81.084
05503,Middle Fork,39.062,-80.047
05505,Middle Point,39.206,-80.747
05522,Midkiff,38.176,-82.179
05527,Midvale,38.937,-80.090
05528,Midway,38.003,-81.148
05528,Midway,37.266,-81.259
05528,Midway,38.560,-81.964
05528,Midway,37.719,-81.237
05529,Mifflin,37.941,-81.822
05532,Milam,38.814,-79.099
05532,Milam,37.681,-81.473
05535,Milburn,37.998,-81.339
05537,Miles,38.756,-79.127
05550,Millbrook,39.216,-78.547
05555,Millen,39.518,-78.630
05564,Millertown,39.300,-79.959
05568,Milliken,38.402,-81.546
05573,Millsboro,39.732,-80.666
05574,Millstone,38.801,-81.096
05575,Milltown,38.045,-81.617
05576,Millville,39.294,-77.786
05577,Millwood,38.882,-81.862
05580,Milo,38.722,-81.144
05591,Mineral City,37.734,-81.824
05593,Mineral Springs,38.123,-82.582
05596,Minerva,38.163,-82.237
05597,Mingo,38.499,-80.054
05607,Minnie,39.590,-80.810
05623,Mitchell,38.542,-79.341
05633,Modoc,38.024,-80.345
05636,Mohawk,37.505,-81.915
05644,Monarch,38.215,-81.457
05653,Monitor,37.793,-82.053
05653,Monitor,37.656,-80.490
05663,Monson,37.265,-81.483
05666,Montana,39.523,-80.109
05692,Mountview,37.642,-81.065
05699,Moore,39.084,-79.718
05706,Mooresville,39.690,-80.148
05725,Morgan,39.026,-81.763
05727,Morgan Heights,39.634,-79.985
05736,Morning Star,38.775,-81.455
05740,Morocco,38.431,-81.094
05743,Morris,38.506,-80.802
05746,Morristown,39.047,-81.493
05753,Moscow,40.546,-80.632
05759,Moss,38.871,-80.805
05768,Mound,38.371,-81.709
05779,Mount Carmel,39.171,-81.369
05780,Mount Clare,39.215,-80.346
05793,Mount Liberty,39.079,-80.022
05795,Mount Moriah,38.786,-81.766
05797,Mount Nebo,38.200,-80.851
05797,Mount Nebo,39.602,-79.708
05798,Mount Olive,38.238,-81.233
05798,Mount Olive,38.524,-82.069
05798,Mount Olive,37.412,-81.194
05798,Mount Olive,38.822,-81.427
05799,Mount Olivet,40.019,-80.695
05799,Mount Olivet,39.339,-79.620
05809,Mount Vernon,38.449,-81.939
05813,Mount Zion,38.862,-81.124
05814,Mountain,39.362,-80.910
05819,Mountain Home,38.356,-81.054
05825,Mountain View,37.650,-81.995
05825,Mountain View,39.361,-79.732
05833,Moyers,38.516,-79.362
05834,Mozelle,39.028,-81.728
05844,Mulvane,38.161,-81.049
05847,Munday,39.005,-81.206
05855,Murphy,39.057,-80.141
05856,Murray,38.896,-81.640
05858,Murraysville,39.078,-81.806
05872,Myra,38.221,-82.112
05875,Myrtle,37.768,-82.191
05891,Napier,38.791,-80.589
05904,National,39.584,-80.037
05908,Naugatuck,37.790,-82.349
05914,Neal,38.357,-82.593
05917,Nebo,38.634,-81.043
05917,Nebo,38.988,-80.084
05921,Needmore,39.051,-78.787
05928,Nelson,38.069,-81.623
05933,Neola,37.966,-80.130
05935,Neponset,37.468,-80.846
05936,Neptune,39.075,-81.780
05937,Nero,39.176,-78.439
05979,New England,39.207,-81.709
05980,New Era,38.909,-81.664
05995,New Hill,39.668,-80.071
05998,New Hope,37.339,-81.166
05998,New Hope,39.597,-78.174
06047,Newark,39.119,-81.397
06049,Newberne,39.044,-80.893
06057,Newhall,37.264,-81.619
06061,Newlyn,38.074,-81.083
06065,Newport,39.258,-81.561
06068,Newton,38.591,-81.179
06071,Newtown,37.996,-81.154
06071,Newtown,37.628,-82.086
06072,Newville,38.679,-80.591
06083,Nicut,38.713,-81.022
06084,Nida,38.462,-79.877
06088,Nina,39.241,-80.636
06102,Nolan,37.740,-82.331
06131,North Bend,38.230,-80.443
06135,North Caldwell,37.784,-80.401
06191,Nottingham,38.518,-79.843
06194,Nuckolls,38.093,-81.391
06200,Nutterville,38.087,-80.814
06202,Nye,38.336,-82.037
06204,O'Brien,39.052,-80.031
06208,Oak,39.132,-81.696
06214,Oak Grove,37.387,-81.063
06214,Oak Grove,38.626,-79.355
06218,Oak Hill,38.791,-81.710
06226,Oak Ridge,38.075,-81.109
06234,Oakland,39.481,-78.252
06239,Oakmont,39.367,-79.188
06263,Odessa,38.429,-81.238
06265,Ogden,39.302,-81.402
06276,Oilville,37.728,-82.037
06283,Olcott,38.234,-81.724
06306,Olive,38.564,-79.820
06323,Ona,38.425,-82.213
06363,Orlando,38.871,-80.594
06371,Orr,39.553,-79.528
06373,Orville,37.814,-81.892
06375,Orton,38.835,-80.928
06378,Osage,39.659,-80.007
06384,Osbornes Mills,38.544,-81.308
06385,Oscar,38.059,-80.368
06386,Osceola,38.714,-79.633
06387,Osgood,39.567,-80.077
06405,Otsego,37.610,-81.376
06406,Ottawa,37.959,-81.816
06412,Otto,38.752,-81.221
06422,Overfield,39.169,-80.204
06437,Oxford,39.206,-80.865
06445,Packsville,37.952,-81.528
06463,Palermo,38.169,-82.058
06464,Palestine,37.732,-80.629
06464,Palestine,39.030,-81.407
06484,Pancake,39.258,-78.834
06488,Pansy,38.897,-79.198
06490,Panther,37.483,-81.896
06493,Paradise,38.585,-81.800
06498,Pardee,37.806,-81.701
06503,Park View,39.318,-80.028
06537,Patton,37.692,-80.487
06540,Patsey,38.677,-81.423
06552,Paw Paw,39.549,-80.153
06555,Paxton,38.498,-81.168
06557,Paynesville,37.331,-81.891
06564,Peach Creek,37.874,-81.985
06566,Peachtree,37.809,-81.465
06570,Peapatch,37.284,-81.789
06582,Pedro,37.663,-80.314
06594,Pemberton,37.718,-81.219
06598,Pennbrook,37.966,-81.020
06625,Perkins,38.784,-80.926
06628,Perry,38.971,-78.675
06638,Peru,38.841,-79.074
06646,Pettry,37.436,-80.964
06647,Petroleum,39.191,-81.268
06652,Pettus,37.956,-81.537
06655,Peytona,38.141,-81.684
06677,Pickaway,37.638,-80.506
06684,Piedmont,37.451,-81.264
06686,Pierce,39.174,-79.510
06689,Pierpont,39.654,-79.889
06689,Pierpont,37.627,-81.392
06690,Pigeon,38.537,-81.208
06691,Pike,39.283,-81.081
06705,Pin Oak,39.434,-78.451
06712,Pine Bluff,39.418,-80.327
06716,Pine Creek,37.752,-82.092
06718,Pine Grove,38.081,-81.046
06718,Pine Grove,39.500,-80.196
06718,Pine Grove,39.367,-81.044
06746,Pink,38.785,-81.220
06759,Pisgah,39.645,-79.757
06792,Pleasant Dale,39.300,-78.583
06795,Pleasant Hill,38.954,-81.061
06795,Pleasant Hill,38.877,-81.737
06795,Pleasant Hill,39.187,-81.591
06804,Pleasant Run,39.044,-79.723
06805,Pleasant Vale,39.165,-79.632
06806,Pleasant Valley,40.427,-80.537
06806,Pleasant Valley,39.917,-80.626
06808,Pleasant View,38.922,-81.788
06808,Pleasant View,38.249,-82.191
06808,Pleasant View,39.549,-80.121
06809,Pleasantdale,39.502,-79.684
06813,Pleasure Valley,39.105,-79.844
06817,Pliny,38.620,-81.987
06823,Pluto,37.710,-80.992
06824,Plymouth,38.516,-81.845
06825,Poe,38.252,-80.966
06832,Point Lookout,39.451,-81.080
06838,Poling,38.689,-80.436
06839,Polk,39.051,-81.796
06855,Pond Creek,39.094,-81.743
06864,Pool,38.164,-80.864
06887,Porter,38.483,-81.256
06889,Portersville,38.335,-82.131
06895,Posey,37.804,-81.433
06904,Potomac,40.153,-80.529
06922,Power,40.211,-80.659
06926,Powhatan,37.401,-81.420
06928,Poynette,39.334,-81.136
06941,Prairietown,38.347,-82.175
06951,Premier,37.422,-81.644
06955,Preston,39.435,-79.686
06958,Price,39.708,-80.128
06959,Price Hill,38.043,-81.807
06959,Price Hill,37.882,-81.189
06959,Price Hill,39.604,-79.996
06969,Proctor,39.712,-80.824
06981,Providence,38.808,-81.841
06988,Pumpkintown,38.893,-80.024
06991,Purdy,38.944,-81.135
06996,Putney,38.296,-81.373
07001,Quaker,38.052,-82.428
07010,Queens,38.857,-80.137
07015,Quick,38.373,-81.402
07024,Rabbit Hill,40.292,-80.601
07031,Racket,39.044,-80.937
07032,Racy,39.139,-81.238
07039,Radnor,38.079,-82.457
07042,Ragland,37.703,-82.127
07050,Raintown,38.177,-80.230
07051,Raleigh,37.757,-81.174
07053,Ralph,38.477,-80.369
07061,Ramsey,38.170,-81.031
07064,Randall,39.660,-79.994
07069,Ranger,38.121,-82.186
07081,Raven Rock,39.439,-81.151
07089,Rayburn,38.873,-82.027
07097,Raywood,38.368,-79.934
07099,Read,38.953,-79.843
07105,Reger,38.982,-80.191
07106,Ream,37.350,-81.550
07107,Reamer,38.476,-81.371
07110,Red Ash,37.961,-81.039
07117,Red Creek,39.001,-79.497
07118,Red Hill,39.248,-81.474
07119,Red House,38.539,-81.897
07126,Red Rock,39.012,-80.276
07128,Red Sulphur Springs,37.514,-80.765
07132,Redbird,37.789,-81.440
07145,Redwing,38.178,-82.235
07148,Reid,38.401,-82.388
07154,Reedyville,38.810,-81.441
07163,Riley,37.815,-81.161
07171,Remus,39.161,-81.691
07178,Rio,39.138,-78.670
07179,Republic,38.009,-81.392
07197,Reynoldsville,39.288,-80.435
07199,Rinehart,39.424,-80.516
07202,Rhoda,38.980,-81.122
07213,Richard,39.607,-79.906
07215,Richardson,38.865,-81.236
07224,Richlands,37.866,-80.483
07231,Riddle,39.195,-80.979
07235,Ridge,39.463,-78.313
07238,Ridgedale,39.411,-78.735
07238,Ridgedale,39.547,-79.936
07245,Ridgeview,38.138,-81.759
07245,Ridgeview,37.843,-82.016
07246,Ridgeville,39.348,-78.991
07247,Ridgeway,39.297,-78.072
07250,Riffle,38.591,-80.889
07260,Ringgold,39.563,-79.943
07273,Rita,37.770,-81.932
07275,River Bend,38.351,-81.848
07287,Riverside,39.173,-77.856
07287,Riverside,38.207,-81.405
07287,Riverside,39.173,-81.177
07287,Riverside,39.278,-81.558
07288,Riverton,38.744,-79.436
07294,Roach,38.361,-82.223
07296,Roanoke,38.932,-80.493
07302,Roberts,39.378,-80.668
07310,Rock,37.368,-81.222
07311,Rock Camp,37.498,-80.607
07312,Rock Creek,38.103,-81.846
07312,Rock Creek,37.851,-81.452
07326,Rockdale,40.305,-80.580
07333,Rockland,37.729,-80.513
07333,Rockland,38.944,-78.692
07335,Rockport,39.708,-80.581
07335,Rockport,39.074,-81.553
07340,Rockville,39.621,-79.705
07346,Rocky Fork,38.455,-81.722
07360,Rolfe,37.418,-81.401
07368,Romance,38.597,-81.599
07375,Ronda,38.168,-81.447
07396,Rosedale,38.739,-80.943
07396,Rosedale,39.687,-79.965
07400,Rosemont,39.269,-80.163
07406,Roseville,37.928,-81.261
07435,Rover,39.014,-81.427
07442,Royal,37.853,-81.068
07458,Rumble,38.183,-81.699
07465,Ruraldale,39.067,-80.232
07469,Rush Run,37.964,-81.066
07473,Rusk,39.155,-80.254
07478,Russellville,38.076,-80.892
07479,Russet,38.873,-81.056
07483,Ruth,38.310,-81.728
07484,Rutherford,39.151,-81.171
07488,Rutledge,38.364,-81.540
07509,Sago,38.914,-80.230
07518,Saint Joe,39.489,-79.632
07521,Saint Joseph,39.730,-80.713
07536,Salem,37.989,-81.115
07589,Sand Hill,39.987,-80.585
07589,Sand Hill,39.371,-81.490
07594,Sand Ridge,38.802,-81.067
07597,Sanderson,38.364,-81.368
07601,Sandstone,37.771,-80.891
07603,Sandusky,39.556,-80.859
07605,Sandy,38.409,-81.511
07605,Sandy,39.635,-80.195
07605,Sandy,39.270,-79.962
07614,Sandyville,38.906,-81.661
07617,Sanger,37.956,-81.113
07631,Santiago,39.370,-80.201
07633,Sarah,38.330,-82.258
07639,Sardis,39.337,-80.418
07642,Sassafras,38.934,-82.013
07646,Saulsbury,39.123,-81.543
07647,Saunders,37.800,-81.672
07656,Saxman,38.210,-80.597
07657,Saxon,37.798,-81.415
07665,Shafer,39.219,-79.568
07673,Schultz,39.320,-81.240
07683,Scotch Hill,39.374,-79.866
07698,Scrabble,39.484,-77.832
07719,Sedalia,39.360,-80.579
07720,Sedan,39.235,-78.573
07726,Selbyville,38.754,-80.236
07734,Selwyn,37.859,-82.379
07736,Seminole,39.379,-80.321
07736,Seminole,37.555,-80.842
07740,Servia,38.620,-80.957
07745,Seven Pines,39.567,-80.442
07752,Sewell,37.997,-81.021
07766,Shanghai,39.441,-78.132
07771,Sharlow,38.133,-81.634
07772,Sharon,38.159,-81.447
07802,Shenango,39.585,-80.687
07806,Sherrard,39.987,-80.676
07809,Sheridan,38.240,-82.199
07811,Sherman,38.992,-81.762
07813,Sherwood,39.279,-80.677
07819,Shiloh,39.182,-78.432
07819,Shiloh,37.799,-81.392
07819,Shiloh,39.456,-81.011
07824,Shirley,39.398,-80.765
07825,Shively,37.966,-82.118
07827,Shoals,38.327,-82.475
07834,Short Creek,40.186,-80.674
07835,Short Gap,39.544,-78.811
07844,Sidney,38.157,-82.473
07854,Silica,38.687,-80.240
07863,Silver Grove,39.299,-77.752
07865,Silver Lake,39.254,-79.498
07871,Silverton,38.926,-81.722
07875,Sims,37.943,-80.802
07876,Simpson,39.267,-80.093
07878,Sinclair,39.268,-79.821
07881,Sue,37.956,-80.209
07890,Skelton,37.811,-81.187
07891,Skidmore,38.761,-81.646
07895,Skyline,39.324,-79.129
07896,Slabtown,37.629,-81.870
07897,Slagle,37.819,-81.841
07898,Slate,39.136,-81.446
07922,Smithburg,39.289,-80.734
07929,Smithtown,39.529,-80.041
07930,Smithville,39.074,-81.094
07935,Smoot,37.879,-80.659
07940,Snider,39.460,-79.700
07944,Snow Hill,38.325,-81.571
07944,Snow Hill,38.135,-80.781
07946,Snowden,38.197,-81.937
07947,Snowflake,37.747,-80.554
07955,Sodom,37.916,-81.833
07966,Summers,39.157,-80.829
08017,Southside,38.717,-81.969
08032,Speed,38.734,-81.377
08033,Speedway,37.456,-81.010
08038,Spilman,38.979,-82.076
08044,Sprague,37.793,-81.184
08046,Sprigg,37.629,-82.197
08051,Spring Creek,37.954,-80.349
08059,Spring Mills,39.558,-77.954
08076,Sproul,38.251,-81.795
08077,Spruce,38.457,-79.956
08081,Spruce Valley,37.885,-81.824
08101,St. George,39.167,-79.702
08141,Standard,38.136,-81.401
08147,Stanley,39.309,-80.892
08161,Stark,37.912,-81.744
08184,Stephenson,37.580,-81.326
08191,Stevensburg,39.301,-79.796
08194,Stewart,39.242,-81.516
08196,Stewartstown,39.704,-79.901
08199,Stickney,37.901,-81.528
08202,Stillwell,38.208,-80.098
08205,Stinson,38.656,-81.074
08233,Stotesbury,37.682,-81.289
08238,Stover,37.814,-81.354
08239,Stowe,37.806,-81.759
08252,Streeter,37.627,-81.018
08255,Stringtown,39.029,-79.909
08255,Stringtown,39.482,-80.352
08255,Stringtown,38.668,-81.339
08255,Stringtown,39.445,-80.698
08259,Strouds,38.388,-80.616
08266,Stumptown,38.849,-80.994
08272,Suck Creek,37.608,-80.987
08278,Sugar Camp,39.241,-80.693
08284,Sugar Valley,39.419,-81.087
08284,Sugar Valley,39.611,-79.640
08288,Sullivan,37.704,-81.194
08288,Sullivan,38.907,-79.870
08289,Sully,38.957,-79.573
08291,Sulphur City,39.353,-79.138
08292,Sulphur Springs,37.831,-82.103
08299,Summit,39.354,-81.512
08306,Sun,37.919,-81.170
08308,Sun Hill,37.624,-81.703
08310,Sun Valley,40.444,-80.568
08311,Sunbeam,37.680,-81.945
08313,Suncrest,38.688,-80.253
08320,Sunflower,38.905,-81.478
08321,Sunlight,37.987,-80.461
08324,Sunnyside,38.096,-81.099
08324,Sunnyside,39.423,-80.818
08329,Sunrise,39.271,-81.504
08331,Sunset Beach,39.679,-79.856
08334,Superior,37.421,-81.542
08341,Surveyor,37.766,-81.318
08352,Swann,38.523,-82.159
08366,Sweet Springs,37.628,-80.241
08372,Swiss,38.233,-81.128
08376,Sycamore,38.835,-81.095
08376,Sycamore,37.828,-82.071
08384,Sylvia,37.773,-81.161
08387,Tabb,39.514,-77.968
08389,Table Rock,37.781,-81.047
08398,Talbott,38.974,-80.015
08414,Tanner,38.981,-80.949
08418,Tappan,39.376,-80.158
08429,Taylor,39.047,-78.980
08435,Taylorville,37.664,-82.156
08438,Teaberry,37.771,-80.440
08453,Tenmile,38.874,-80.189
08463,Terry,37.861,-81.099
08470,Texas,39.167,-79.805
08474,Thacker,37.594,-82.131
08478,Thayer,37.901,-81.031
08506,Thornton,39.346,-79.942
08508,Thornwood,38.558,-79.737
08513,Three Mile,38.430,-81.429
08531,Tilden,37.729,-81.177
08576,Tomahawk,39.530,-78.047
08615,Trainer,38.040,-80.032
08631,Trilby,39.247,-80.944
08636,Triplett,38.476,-81.036
08636,Triplett,38.839,-81.298
08638,Tripp,37.925,-82.480
08640,Triune,39.496,-79.975
08645,Trout,38.017,-80.468
08652,Troy,39.020,-80.763
08655,True,37.581,-80.936
08663,Tuckahoe,37.752,-80.273
08684,Turner,38.481,-81.311
08686,Turnertown,39.074,-80.465
08691,Turtle Creek,38.030,-81.873
08703,Twilight,40.036,-80.593
08715,Two Run,38.475,-81.082
08715,Two Run,38.964,-81.387
08716,Tyler,39.433,-80.827
08719,Tyner,39.143,-81.643
08721,Tyrone,39.639,-79.859
08737,Union,39.100,-80.038
08740,Union City,37.431,-81.796
08746,Union Mills,39.391,-81.135
08754,United,37.991,-81.426
08762,Uno,37.629,-81.737
08764,Upland,38.569,-82.073
08764,Upland,37.392,-81.421
08773,Utica,39.045,-81.659
08780,Vale,37.880,-80.722
08789,Valley,39.349,-78.760
08790,Valley Bend,39.062,-79.971
08799,Valley Mills,39.318,-81.443
08813,Van Voorhis,39.683,-79.955
08816,Vance,39.378,-78.739
08819,Vandalia,38.927,-80.404
08825,Vanville,39.380,-77.980
08828,Varner,38.907,-81.704
08829,Varney,37.669,-82.122
08831,Vaucluse,39.385,-81.231
08832,Vaughan,38.278,-81.144
08855,Verner,37.663,-81.850
08856,Vernon,38.711,-80.494
08864,Veto,39.612,-80.842
08869,Victor,38.133,-81.076
08869,Victor,38.423,-81.426
08870,Victoria,39.418,-79.889
08899,Viola,39.513,-80.101
08899,Viola,39.965,-80.590
08900,Violet,38.157,-80.142
08903,Virgil,38.614,-81.341
08906,Virginville,40.293,-80.524
08909,Vivian,37.418,-81.487
08911,Volga,39.078,-80.135
08917,Vulcan,37.552,-82.126
08929,Wagoner,39.538,-78.672
08933,Waneta,38.549,-80.243
08934,Wahoo,39.455,-80.227
08955,Walker,39.179,-81.384
08956,Walkersville,38.869,-80.457
08963,Wallace,38.459,-81.662
08971,Walnut,38.423,-80.074
08972,Walnut Bottom,39.106,-79.016
08976,Walnut Hill,37.824,-82.029
08984,Walton,38.639,-81.402
08990,Wanda,37.859,-81.928
08993,War Eagle,37.528,-81.944
08994,Ward,38.246,-81.388
09011,Warwick,38.282,-80.064
09013,Washburn,39.142,-81.047
09017,Washington Heights,38.036,-81.831
09026,Waterloo,38.731,-81.934
09033,Watkins,39.586,-80.861
09034,Watson,39.464,-80.160
09054,Wayside,37.592,-80.689
09056,Weir,38.458,-81.386
09060,Weaver,38.969,-79.931
09062,Webb,37.970,-82.483
09067,Webster,39.297,-80.045
09074,Weese,38.885,-79.710
09074,Weese,38.482,-80.556
09077,Wymer,38.859,-80.422
09077,Wymer,38.893,-79.619
09086,Wellford,38.531,-81.340
09089,Wells,39.783,-80.592
09095,Wendel,39.296,-80.105
09101,Worley,39.707,-80.148
09102,Werth,38.355,-80.754
09102,Worth,37.415,-81.390
09104,Wesley,39.178,-81.733
09108,West,39.678,-80.670
09118,West Columbia,38.983,-82.064
09121,West End,39.390,-79.771
09156,West Union,38.269,-80.140
09165,Westerly,37.992,-81.321
09169,Westfield,39.106,-80.455
09193,Weyanoke,37.415,-81.261
09195,Wharton,37.903,-81.677
09198,Wheatland,39.236,-77.900
09200,Wheeler,38.686,-80.403
09205,Whetstone,38.502,-81.056
09207,Whipple,37.962,-81.166
09211,Whittaker,38.078,-81.380
09212,Whitby,37.666,-81.184
09214,Whyte,38.989,-79.831
09230,White Oak,37.693,-81.073
09230,White Oak,39.186,-80.907
09230,White Oak,39.072,-80.256
09231,White Oak Springs,39.487,-79.501
09232,White Pine,38.947,-81.029
09267,Whitney,38.089,-81.099
09274,Wick,39.413,-80.974
09276,Wickham,39.212,-78.868
09276,Wickham,37.782,-81.217
09279,Wiggins,37.659,-80.837
09281,Wilbur,39.376,-80.824
09288,Wildcat,38.753,-80.438
09292,Wiley,39.330,-81.125
09295,Wilkinson,37.828,-81.998
09302,Williamsburg,37.970,-80.492
09305,Williamsport,39.201,-79.028
09319,Willow Grove,38.933,-81.836
09321,Willow Island,39.358,-81.308
09326,Willowdale,39.028,-81.689
09331,Wilmore,37.459,-81.752
09333,Wilsie,38.686,-80.886
09334,Wilson,38.426,-82.330
09334,Wilson,39.254,-79.398
09334,Wilson,38.385,-81.593
09335,Wilsonia,39.206,-79.449
09342,Windom,37.599,-81.570
09360,Winona,38.046,-80.992
09360,Winona,39.384,-80.061
09361,Winslow,38.307,-82.308
09364,Winter,38.509,-81.747
09386,Wolfe,37.307,-81.329
09390,Wolf Run,39.956,-80.577
09396,Wood,38.771,-81.915
09401,Woodbine,38.299,-80.614
09415,Woodland Park,39.290,-81.512
09416,Woodlands,39.807,-80.817
09421,Woodman,37.912,-80.315
09423,Woodmont,39.628,-78.311
09425,Woodrow,39.499,-78.436
09425,Woodrow,38.281,-80.158
09426,Woodruff,39.772,-80.538
09433,Woodville,38.161,-81.892
09437,Woodyard,38.668,-81.480
09452,Wright,37.828,-81.102
09461,Wyatt,39.435,-80.353
09467,Wyoming,37.582,-81.603
09478,Yards,37.292,-81.310
09481,Yates,39.295,-80.024
09491,Yokum,38.975,-80.063
09500,Young,38.639,-81.677
09508,Yukon,37.319,-81.696
09518,Zigler,38.614,-79.400
09522,Zenith,37.504,-80.531
09526,Zion,38.773,-80.264
09529,Zona,38.722,-81.456