phoneme,name,county,latitude,longitude
0898,Charleston,Kanawha County,38.350,-81.633
2393,Huntington,Cabell County,38.411,-82.435
3793,Parkersburg,Wood County,39.267,-81.562
3345,Morgantown,Monongalia County,39.630,-79.956
5350,Wheeling,Marshall County,40.074,-80.696
3080,Martinsburg,Berkeley County,39.456,-77.964
1656,Fairmont,Marion County,39.485,-80.143
0979,Clarksburg,Harrison County,39.281,-80.345
4637,South Charleston,Kanawha County,38.368,-81.700
4696,St. Albans,Kanawha County,38.386,-81.836
5145,Vienna,Wood County,39.327,-81.548
0497,Bluefield,Mercer County,37.270,-81.222
0589,Bridgeport,Harrison County,39.286,-80.256
3614,Oak Hill,Fayette County,37.972,-81.149
1407,Dunbar,Kanawha County,38.361,-81.737
2398,Hurricane,Putnam County,38.433,-82.020
1539,Elkins,Randolph County,38.926,-79.847
3827,Pea Ridge,Cabell County,38.414,-82.320
0619,Brookhaven,Monongalia County,39.612,-79.905
4055,Princeton,Mercer County,37.366,-81.103
0678,Bunker Hill,Berkeley County,39.333,-78.054
2551,Keyser,Mineral County,39.441,-78.974
1991,Grafton,Taylor County,39.341,-80.019
0262,Barboursville,Cabell County,38.410,-82.295
5336,Westover,Monongalia County,39.635,-79.970
3979,Point Pleasant,Mason County,38.845,-82.137
5335,Weston,Lewis County,39.038,-80.467
2806,Lewisburg,Greenbrier County,37.802,-80.446
3961,Pleasant Valley,Marion County,39.455,-80.142
4830,Summersville,Nicholas County,38.281,-80.853
2610,Kingwood,Preston County,39.472,-79.683
4231,Ripley,Jackson County,38.819,-81.711
5410,Williamstown,Wood County,39.401,-81.448
5407,Williamson,Mingo County,37.674,-82.277
1214,Culloden,Cabell County,38.415,-82.071
1694,Fayetteville,Fayette County,38.053,-81.104
2990,Madison,Boone County,38.067,-81.819
3260,Milton,Cabell County,38.435,-82.132
2435,Inwood,Berkeley County,39.358,-78.040
0413,Bethlehem,Ohio County,40.044,-80.691
3328,Moorefield,Hardy County,39.062,-78.969
5280,Wellsburg,Brooke County,40.272,-80.610
5438,Winfield,Putnam County,38.533,-81.893
3867,Petersburg,Grant County,38.993,-79.124
2303,Hinton,Summers County,37.674,-80.889
5368,White Sulphur Springs,Greenbrier County,37.797,-80.298
1157,Craigsville,Nicholas County,38.331,-80.653
0932,Chester,Hancock County,40.613,-80.563
1153,Crab Orchard,Raleigh County,37.741,-81.231
4666,Spencer,Roane County,38.802,-81.351
3027,Mannington,Marion County,39.531,-80.343
5272,Welch,McDowell County,37.433,-81.585
0557,Bradley,Raleigh County,37.865,-81.194
4720,St. Marys,Pleasants County,39.392,-81.205
4745,Star City,Monongalia County,39.658,-79.986
4300,Romney,Hampshire County,39.342,-78.757
1630,Evans,Jackson County,38.820,-81.779
2167,Harrisville,Ritchie County,39.210,-81.052
4207,Richwood,Nicholas County,38.225,-80.533
2976,MacArthur,Raleigh County,37.758,-81.213
5304,West Liberty,Ohio County,40.170,-80.594
0503,Boaz,Wood County,39.361,-81.502
1934,Glen Dale,Marshall County,39.949,-80.754
1024,Coal City,Raleigh County,37.679,-81.210
4389,Salem,Harrison County,39.283,-80.559
3492,New Haven,Mason County,38.986,-81.973
5254,Wayne,Wayne County,38.221,-82.442
4064,Prosperity,Raleigh County,37.837,-81.202
2878,Logan,Logan County,37.849,-81.993
2017,Granville,Monongalia County,39.646,-79.987
0821,Cassville,Monongalia County,39.666,-80.064
1249,Daniels,Raleigh County,37.743,-81.123
0930,Chesapeake,Kanawha County,38.223,-81.536
0327,Beaver,Raleigh County,37.748,-81.142
3808,Parsons,Tucker County,39.096,-79.681
0247,Baker,Hardy County,39.042,-78.745
3316,Montgomery,Fayette County,38.173,-81.320
5383,Whitman,Logan County,37.813,-82.024
3528,Newell,Hancock County,40.618,-80.604
5232,Washington,Wood County,39.261,-81.672
1597,Enterprise,Harrison County,39.421,-80.278
0667,Buffalo,Putnam County,38.618,-81.982
0103,Alum Creek,Kanawha County,38.289,-81.839
0347,Belle,Kanawha County,38.232,-81.538
2940,Lubeck,Wood County,39.235,-81.631
1949,Glenville,Gilmer County,38.934,-80.838
4624,Sophia,Raleigh County,37.708,-81.251
1415,Dunlow,Wayne County,38.023,-82.432
3384,Mount Hope,Fayette County,37.895,-81.164
3848,Pennsboro,Ritchie County,39.285,-80.968
0515,Bolivar,Jefferson County,39.323,-77.753
2126,Hamlin,Lincoln County,38.279,-82.103
3482,New Cumberland,Hancock County,40.497,-80.607
2500,Jimtown,Randolph County,38.918,-80.001
0053,Alderson,Greenbrier County,37.730,-80.642
0198,Athens,Mercer County,37.422,-81.016
0176,Arnett,Braxton County,38.809,-80.721
1031,Coalwood,McDowell County,37.387,-81.653
4116,Rand,Kanawha County,38.283,-81.562
4350,Rupert,Greenbrier County,37.963,-80.690
0371,Belmont,Pleasants County,39.380,-81.258
4858,Sutton,Braxton County,38.665,-80.710
3088,Mason,Mason County,39.022,-82.029
0739,Cameron,Marshall County,39.827,-80.566
3575,North Hills,Wood County,39.316,-81.513
2343,Hometown,Putnam County,38.533,-81.861
3012,Man,Logan County,37.740,-81.878
0295,Bath,Morgan County,39.625,-78.228
0411,Bethany,Brooke County,40.206,-80.557
0910,Chattaroy,Mingo County,37.703,-82.281
2297,Hilltop,Fayette County,37.943,-81.151
1878,Gary,McDowell County,37.364,-81.550
5251,Waverly,Wood County,39.338,-81.380
0019,Addison,Webster County,38.478,-80.405
3122,McConnell,Logan County,37.826,-81.967
3887,Piedmont,Mineral County,39.480,-79.048
1528,Elizabeth,Wirt County,39.063,-81.395
5358,White Hall,Marion County,39.421,-80.183
0850,Cedar Grove,Kanawha County,38.221,-81.428
1930,Glasgow,Kanawha County,38.215,-81.425
5316,West Union,Doddridge County,39.296,-80.777
5009,Triadelphia,Ohio County,40.053,-80.628
2484,Jefferson,Kanawha County,38.375,-81.780
1255,Danville,Boone County,38.081,-81.834
3921,Pineville,Wyoming County,37.583,-81.537
0645,Bruno,Logan County,37.691,-81.869
0417,Beverly,Randolph County,38.841,-79.875
3307,Montcalm,Mercer County,37.354,-81.253
4939,Thomas,Tucker County,39.149,-79.498
1265,Davis,Tucker County,39.129,-79.465
1906,Ghent,Raleigh County,37.617,-81.115
4163,Reedsville,Preston County,39.511,-79.798
3232,Mill Creek,Randolph County,38.731,-79.970
2316,Holden,Logan County,37.824,-82.060
3090,Masontown,Preston County,39.552,-79.798
2171,Hartford City,Mason County,39.004,-81.989
4570,Shrewsbury,Kanawha County,38.206,-81.472
4095,Racine,Boone County,38.142,-81.660
3292,Monaville,Logan County,37.812,-81.995
1803,Franklin,Pendleton County,38.643,-79.331
1152,Cowen,Webster County,38.410,-80.558
2015,Grantsville,Calhoun County,38.923,-81.096
2534,Justice,Mingo County,37.589,-81.835
4042,Pratt,Kanawha County,38.210,-81.384
1116,Corinne,Wyoming County,37.573,-81.356
1001,Clearview,Ohio County,40.141,-80.688
5307,West Milford,Harrison County,39.201,-80.404
5067,Union,Monroe County,37.592,-80.544
0911,Chauncey,Logan County,37.766,-81.988
2059,Greenview,Boone County,37.994,-81.816
3821,Paw Paw,Morgan County,39.532,-78.458
4686,Springfield,Hampshire County,39.451,-78.694
1682,Farmington,Marion County,39.513,-80.249
0693,Burnsville,Braxton County,38.856,-80.655
3378,Mount Carbon,Fayette County,38.138,-81.286
5305,West Logan,Logan County,37.867,-81.987
4052,Prichard,Wayne County,38.240,-82.598
0256,Bancroft,Putnam County,38.510,-81.840
0989,Clay,Clay County,38.460,-81.085
1660,Fairview,Marion County,39.593,-80.248
2918,Lost Creek,Harrison County,39.161,-80.352
5436,Windsor Heights,Brooke County,40.191,-80.665
3905,Pine Grove,Wetzel County,39.566,-80.679
2267,Hico,Fayette County,38.117,-81.006
5377,Whitesville,Boone County,37.975,-81.529
3508,New Richmond,Wyoming County,37.570,-81.489
2786,Lester,Raleigh County,37.735,-81.300
1913,Gilbert,Mingo County,37.614,-81.867
5201,Wallace,Harrison County,39.410,-80.490
5032,Tunnelton,Preston County,39.392,-79.748
1729,Flemington,Taylor County,39.266,-80.132
2578,Kermit,Mingo County,37.844,-82.409
2595,Kincaid,Fayette County,38.041,-81.270
4982,Toney,Lincoln County,38.011,-82.073
4094,Rachel,Marion County,39.518,-80.304
2594,Kimberly,Fayette County,38.136,-81.303
3597,Norton,Randolph County,38.932,-79.966
0789,Carolina,Marion County,39.480,-80.273
2621,Kistler,Logan County,37.756,-81.860
3523,Newburg,Preston County,39.388,-79.853
0222,Aurora,Preston County,39.324,-79.555
1203,Crumpler,McDowell County,37.425,-81.342
2157,Harpers Ferry,Jefferson County,39.325,-77.739
4966,Tioga,Nicholas County,38.420,-80.656
1727,Flatwoods,Braxton County,38.723,-80.650
1542,Ellenboro,Ritchie County,39.265,-81.056
2293,Hillsboro,Pocahontas County,38.135,-80.213
2234,Henderson,Mason County,38.834,-82.138
1262,Davy,McDowell County,37.478,-81.653
4232,Rippon,Jefferson County,39.218,-77.905
2236,Hendricks,Tucker County,39.075,-79.631
0558,Bradshaw,McDowell County,37.352,-81.799
4137,Reader,Wetzel County,39.569,-80.733
0302,Bayard,Grant County,39.273,-79.364
0567,Brandywine,Pendleton County,38.625,-79.245
5467,Womelsdorf,Randolph County,38.898,-79.964
2588,Keystone,McDowell County,37.415,-81.451
3757,Page,Fayette County,38.053,-81.270
5508,Worthington,Marion County,39.453,-80.260
0688,Burlington,Mineral County,39.338,-78.918
0715,Cairo,Ritchie County,39.209,-81.157
3099,Matoaka,Mercer County,37.420,-81.243
1670,Falling Spring,Greenbrier County,37.992,-80.354
4615,Snowshoe,Pocahontas County,38.410,-80.014
4880,Sylvester,Boone County,38.010,-81.558
1084,Comfort,Boone County,38.130,-81.616
2593,Kimball,McDowell County,37.426,-81.507
2859,Littleton,Wetzel County,39.698,-80.517
3321,Montrose,Randolph County,39.068,-79.810
0565,Brandonville,Preston County,39.666,-79.621
2794,Leon,Mason County,38.751,-81.961
4068,Pullman,Ritchie County,39.187,-80.950
0460,Blacksville,Monongalia County,39.720,-80.212
5107,Van,Boone County,37.971,-81.711
1349,Dixie,Fayette County,38.251,-81.194
0424,Big Creek,Logan County,38.004,-82.040
0877,Century,Barbour County,39.100,-80.189
1854,Galloway,Barbour County,39.232,-80.122
4606,Smithfield,Wetzel County,39.500,-80.562
1828,Friendly,Tyler County,39.516,-81.059
2152,Harman,Randolph County,38.922,-79.525
1699,Fenwick,Nicholas County,38.229,-80.582
0285,Bartow,Pocahontas County,38.541,-79.784
0393,Berea,Ritchie County,39.136,-80.934
0214,Auburn,Ritchie County,39.096,-80.856
2391,Huntersville,Pocahontas County,38.189,-80.016
2042,Green Spring,Hampshire County,39.532,-78.616
5101,Valley Head,Randolph County,38.545,-80.036
2034,Green Bank,Pocahontas County,38.420,-79.831
1201,Crum,Wayne County,37.906,-82.446
2231,Helvetia,Randolph County,38.706,-80.201
2229,Helen,Raleigh County,37.635,-81.314
3884,Pickens,Randolph County,38.655,-80.212
4955,Thurmond,Fayette County,37.962,-81.082
0098,Alton,Upshur County,38.819,-80.214
0144,Antioch,Mineral County,39.324,-79.017
0163,Arden,Barbour County,39.210,-79.993
0187,Ashford,Boone County,38.179,-81.711
0252,Ballard,Monroe County,37.475,-80.779
0282,Bartley,McDowell County,37.341,-81.738
0358,Belleville,Wood County,39.141,-81.736
0365,Belo,Mingo County,37.774,-82.237
0408,Beryl,Mineral County,39.472,-79.064
0534,Boulder,Barbour County,39.069,-80.103
0630,Brown,Harrison County,39.388,-80.461
0655,Buckeye,Pocahontas County,38.186,-80.134
0697,Burton,Wetzel County,39.664,-80.431
0724,California,Wirt County,39.128,-81.308
0760,Cannelton,Fayette County,38.194,-81.296
0804,Carter,Upshur County,38.844,-80.282
0864,Center Point,Doddridge County,39.392,-80.635
0924,Cherry Grove,Pendleton County,38.641,-79.523
0965,Circleville,Pendleton County,38.671,-79.491
0994,Clayton,Summers County,37.723,-80.729
1007,Cleveland,Webster County,38.727,-80.392
1090,Concord,Hampshire County,39.195,-78.464
1131,Cortland,Tucker County,39.067,-79.427
1137,Cottageville,Jackson County,38.866,-81.823
1175,Creston,Wirt County,38.947,-81.271
1187,Crooked Creek,Logan County,37.882,-81.981
1241,Dallas,Marshall County,40.016,-80.527
1416,Dunmore,Pocahontas County,38.359,-79.881
1444,Earling,Logan County,37.766,-81.915
1455,East Lynn,Wayne County,38.168,-82.378
1468,Eaton,Wood County,39.196,-81.314
1538,Elkhorn,McDowell County,37.386,-81.411
1617,Ethel,Logan County,37.866,-81.912
1660,Fairview,Randolph County,38.695,-80.232
1745,Folsom,Wetzel County,39.471,-80.520
1801,Frankford,Greenbrier County,37.925,-80.384
1822,French Creek,Upshur County,38.886,-80.297
1823,Frenchburg,Hampshire County,39.315,-78.661
1868,Gardner,Mercer County,37.424,-81.074
1919,Gill,Lincoln County,38.088,-82.121
1951,Glenwood,Mason County,38.592,-82.187
2040,Green Ridge,Morgan County,39.587,-78.439
2118,Halltown,Jefferson County,39.314,-77.798
2132,Hancock,Morgan County,39.693,-78.177
2134,Hanging Rock,Hampshire County,39.266,-78.541
2185,Hastings,Wetzel County,39.551,-80.673
2412,Independence,Preston County,39.393,-79.872
2492,Jerome,Morgan County,39.584,-78.457
2515,Jolo,McDowell County,37.329,-81.815
2520,Joplin,Kanawha County,38.343,-81.680
2731,Laneville,Tucker County,38.973,-79.416
2764,Lawrenceville,Hancock County,40.617,-80.544
2783,Leetown,Jefferson County,39.348,-77.934
2873,Lockwood,Nicholas County,38.259,-81.035
2936,Lowell,Summers County,37.654,-80.729
2975,Mabie,Randolph County,38.876,-79.983
2997,Magnolia,Morgan County,39.562,-78.427
3006,Malden,Kanawha County,38.301,-81.557
3159,Mechanicsburg,Hampshire County,39.335,-78.810
3202,Metz,Marion County,39.580,-80.370
3255,Millwood,Jackson County,38.882,-81.862
3395,Mount Zion,Calhoun County,38.862,-81.124
3396,Mountain,Ritchie County,39.362,-80.910
3460,Neola,Greenbrier County,37.966,-80.130
3538,Newville,Braxton County,38.679,-80.591
3703,Orlando,Braxton County,38.871,-80.594
3715,Osceola,Randolph County,38.714,-79.633
3764,Palestine,Wirt County,39.030,-81.407
3825,Paynesville,McDowell County,37.331,-81.891
3970,Pluto,Raleigh County,37.710,-80.992
4058,Proctor,Wetzel County,39.712,-80.824
4087,Quick,Kanawha County,38.373,-81.402
4143,Red Creek,Tucker County,39.001,-79.497
4145,Red House,Putnam County,38.539,-81.897
4175,Rio,Hampshire County,39.138,-78.670
4196,Richardson,Calhoun County,38.865,-81.236
4246,Riverton,Pendleton County,38.744,-79.436
4250,Roanoke,Lewis County,38.932,-80.493
4378,St. George,Tucker County,39.167,-79.702
4380,Saint Joseph,Marshall County,39.730,-80.713
4431,Sand Ridge,Calhoun County,38.802,-81.067
4435,Sandstone,Summers County,37.771,-80.891
4445,Sandyville,Jackson County,38.906,-81.661
4534,Shanghai,Berkeley County,39.441,-78.132
4536,Sharon,Kanawha County,38.159,-81.447
4562,Shiloh,Tyler County,39.456,-81.011
4565,Shively,Logan County,37.966,-82.118
4584,Silver Lake,Preston County,39.254,-79.498
4672,Sprague,Raleigh County,37.793,-81.184
4694,Spruce,Pocahontas County,38.457,-79.956
4769,Stewartstown,Monongalia County,39.704,-79.901
4791,Stotesbury,Raleigh County,37.682,-81.289
4805,Stringtown,Tyler County,39.445,-80.698
4868,Sweet Springs,Monroe County,37.628,-80.241
4872,Swiss,Nicholas County,38.233,-81.128
4947,Thornton,Taylor County,39.346,-79.942
4980,Tomahawk,Berkeley County,39.530,-78.047
5096,Valley,Hampshire County,39.349,-78.760
5183,Wahoo,Marion County,39.455,-80.227
5216,Ward,Kanawha County,38.246,-81.388
5268,Webster,Taylor County,39.297,-80.045
5294,West Columbia,Mason County,38.983,-82.064
5344,Wharton,Boone County,37.903,-81.677
5354,Whitby,Raleigh County,37.666,-81.184
5421,Willow Island,Pleasants County,39.358,-81.308